track_uuid,t,alt,g_x,g_y,g_z,lat,m_x,m_y,m_z,long,speed,course,att_yaw,heading,att_roll,user_a_x,user_a_y,user_a_z,att_pitch,rot_rate_x,rot_rate_y,rot_rate_z
0ba18644-7d71-4d84-9122-add8b2996e62,1508492273715,0,-0.7485977411270142,5.294971466064453,8.220296859741211,0,0.045318603515625,0.001922607421875,-0.0333709716796875,0,0,0,88.80731201171875,(null),3.572165012359619,0.045318603515625,0.001922607421875,-0.0333709716796875,326.1021728515625,0.045318603515625,0.001922607421875,-0.0333709716796875
0ba18644-7d71-4d84-9122-add8b2996e62,1508492274734,0,-0.5482363700866699,5.525392532348633,8.083308219909668,31.19397282600403,-0.00048828125,0.048797607421875,0.023101806640625,121.42176747322083,6.039999961853027,0,86.09062194824219,44.296875,6.508875846862793,-0.00048828125,0.048797607421875,0.023101806640625,323.667724609375,-0.00048828125,0.048797607421875,0.023101806640625
0ba18644-7d71-4d84-9122-add8b2996e62,1508492275772,0,-0.44616156816482544,5.293703079223633,8.243060111999512,31.19397282600403,-0.262542724609375,-0.1141815185546875,-0.0173797607421875,121.42176747322083,6.039999961853027,0,79.2747573852539,44.296875,0.5811008214950562,-0.262542724609375,-0.1141815185546875,-0.0173797607421875,331.9110107421875,-0.262542724609375,-0.1141815185546875,-0.0173797607421875
0ba18644-7d71-4d84-9122-add8b2996e62,1508492276827,14.50775146484375,-0.543204665184021,5.25605583190918,8.261306762695312,31.19395427,-0.0409698486328125,0.074371337890625,0.032684326171875,121.42177784,3.140000104904175,0,83.544677734375,47.900001525878906,5.345127582550049,-0.0409698486328125,0.074371337890625,0.032684326171875,326.6792297363281,-0.0409698486328125,0.074371337890625,0.032684326171875
0ba18644-7d71-4d84-9122-add8b2996e62,1508492277866,15.093505859375,-0.5547386407852173,5.377265930175781,8.18215560913086,31.19395274,-0.0356292724609375,0.00726318359375,0.0156402587890625,121.42179062,1.9900000095367432,0,84.21913146972656,43.900001525878906,3.5207037925720215,-0.0356292724609375,0.00726318359375,0.0156402587890625,326.0999450683594,-0.0356292724609375,0.00726318359375,0.0156402587890625
0ba18644-7d71-4d84-9122-add8b2996e62,1508492278903,15.06610107421875,-1.1913560628890991,3.4702329635620117,9.0944242477417,31.19398205,-0.7909088134765625,-0.3773040771484375,0.1764984130859375,121.42182725,2.390000104904175,0,33.09856414794922,39.70000076293945,4.583730697631836,-0.7909088134765625,-0.3773040771484375,0.1764984130859375,340.2816162109375,-0.7909088134765625,-0.3773040771484375,0.1764984130859375
0ba18644-7d71-4d84-9122-add8b2996e62,1508492279928,15.87164306640625,-0.3484986424446106,2.6005313396453857,9.449136734008789,31.19399303,-0.0494842529296875,0.1787567138671875,0.0017852783203125,121.42183775,2.7899999618530273,0,21.93426513671875,42.79999923706055,3.4389750957489014,-0.0494842529296875,0.1787567138671875,0.0017852783203125,343.1556091308594,-0.0494842529296875,0.1787567138671875,0.0017852783203125
0ba18644-7d71-4d84-9122-add8b2996e62,1508492280969,15.95355224609375,-0.699338436126709,2.3553903102874756,9.493863105773926,31.19402377,-0.0846405029296875,-0.1035308837890625,-0.0067291259765625,121.42186394,3.799999952316284,0,17.928123474121094,43.5,4.350111484527588,-0.0846405029296875,-0.1035308837890625,-0.0067291259765625,348.2283935546875,-0.0846405029296875,-0.1035308837890625,-0.0067291259765625
0ba18644-7d71-4d84-9122-add8b2996e62,1508492282006,16.9718017578125,1.6313470602035522,2.6257779598236084,9.306684494018555,31.19405074,0.0325469970703125,0.196868896484375,-0.049346923828125,121.42189133,3.9100000858306885,0,26.818286895751953,43.599998474121094,353.27178955078125,0.0325469970703125,0.196868896484375,-0.049346923828125,343.1283874511719,0.0325469970703125,0.196868896484375,-0.049346923828125
0ba18644-7d71-4d84-9122-add8b2996e62,1508492283060,20.242431640625,0.6849961280822754,2.756716251373291,9.386249542236328,31.19410649,-0.0068817138671875,0.0243072509765625,0.0284271240234375,121.42195126,4.670000076293945,0,23.720504760742188,45.70000076293945,352.93475341796875,-0.0068817138671875,0.0243072509765625,0.0284271240234375,340.7961120605469,-0.0068817138671875,0.0243072509765625,0.0284271240234375
0ba18644-7d71-4d84-9122-add8b2996e62,1508492284085,22.111572265625,0.5413970351219177,3.027935028076172,9.311760902404785,31.19414403,0.01123046875,0.1020660400390625,-0.0269775390625,121.42198935,5.239999771118164,0,26.858579635620117,46,354.0795593261719,0.01123046875,0.1020660400390625,-0.0269775390625,342.4053649902344,0.01123046875,0.1020660400390625,-0.0269775390625
0ba18644-7d71-4d84-9122-add8b2996e62,1508492285105,23.5423583984375,0.5666625499725342,3.1458287239074707,9.271086692810059,31.19418192,0.07196044921875,-0.2036590576171875,0.0049896240234375,121.42202832,5.590000152587891,0,23.37970733642578,44.400001525878906,356.31219482421875,0.07196044921875,-0.2036590576171875,0.0049896240234375,347.1782531738281,0.07196044921875,-0.2036590576171875,0.0049896240234375
0ba18644-7d71-4d84-9122-add8b2996e62,1508492286129,25.31573486328125,0.420981764793396,2.927241325378418,9.350103378295898,31.19420987,0.1081695556640625,-0.268646240234375,-0.0099334716796875,121.42207145,5.300000190734863,0,19.44439697265625,43.79999923706055,358.2964782714844,0.1081695556640625,-0.268646240234375,-0.0099334716796875,346.42822265625,0.1081695556640625,-0.268646240234375,-0.0099334716796875
0ba18644-7d71-4d84-9122-add8b2996e62,1508492287172,25.4462890625,0.5762751698493958,2.8894622325897217,9.353571891784668,31.19423992,-0.020721435546875,0.0434722900390625,-0.004608154296875,121.42211682,4.980000019073486,0,24.894655227661133,44.5,355.9805603027344,-0.020721435546875,0.0434722900390625,-0.004608154296875,343.273193359375,-0.020721435546875,0.0434722900390625,-0.004608154296875
0ba18644-7d71-4d84-9122-add8b2996e62,1508492288207,24.947265625,0.4210081994533539,2.8805747032165527,9.364583015441895,31.19427711,0.0868682861328125,-0.130157470703125,-0.0323028564453125,121.42216307,5.039999961853027,0,22.572046279907227,48.29999923706055,356.22808837890625,0.0868682861328125,-0.130157470703125,-0.0323028564453125,340.28759765625,0.0868682861328125,-0.130157470703125,-0.0323028564453125
0ba18644-7d71-4d84-9122-add8b2996e62,1508492289250,25.16131591796875,0.4538270831108093,2.950838327407837,9.341144561767578,31.19430783,-0.0931549072265625,0.074371337890625,-0.01312255859375,121.42220856,5.550000190734863,0,20.017873764038086,49.79999923706055,358.9222717285156,-0.0931549072265625,0.074371337890625,-0.01312255859375,340.8204650878906,-0.0931549072265625,0.074371337890625,-0.01312255859375
0ba18644-7d71-4d84-9122-add8b2996e62,1508492290351,25.01708984375,0.5691718459129333,3.3833279609680176,9.186921119689941,31.19433562,0.01336669921875,0.028564453125,-0.0110015869140625,121.42225226,6.199999809265137,0,23.910032272338867,51.20000076293945,356.4661560058594,0.01336669921875,0.028564453125,-0.0110015869140625,338.22857666015625,0.01336669921875,0.028564453125,-0.0110015869140625
0ba18644-7d71-4d84-9122-add8b2996e62,1508492291374,23.79974365234375,0.4955614507198334,3.393373489379883,9.187481880187988,31.19436979,-0.13470458984375,0.1265716552734375,-0.069580078125,121.4223008,6.679999828338623,0,22.06852912902832,52.79999923706055,356.0152893066406,-0.13470458984375,0.1265716552734375,-0.069580078125,344.92266845703125,-0.13470458984375,0.1265716552734375,-0.069580078125
0ba18644-7d71-4d84-9122-add8b2996e62,1508492292397,23.56146240234375,0.45366817712783813,3.1912806034088135,9.26176643371582,31.19441044,-0.1410980224609375,0.004058837890625,-0.00140380859375,121.4223574,6.659999847412109,0,21.972667694091797,54.29999923706055,355.3513488769531,-0.1410980224609375,0.004058837890625,-0.00140380859375,343.3309020996094,-0.1410980224609375,0.004058837890625,-0.00140380859375
0ba18644-7d71-4d84-9122-add8b2996e62,1508492293436,23.3787841796875,0.6153367161750793,3.0830798149108887,9.289046287536621,31.19444944,0.275421142578125,-0.232421875,-0.09088134765625,121.42241329,6.699999809265137,0,26.367481231689453,55.20000076293945,355.2696228027344,0.275421142578125,-0.232421875,-0.09088134765625,340.87353515625,0.275421142578125,-0.232421875,-0.09088134765625
0ba18644-7d71-4d84-9122-add8b2996e62,1508492294459,24.68841552734375,0.6652509570121765,3.110276937484741,9.276529312133789,31.19449307,0.172088623046875,-0.0694427490234375,-0.061065673828125,121.42246537,6.889999866485596,0,28.144540786743164,56.70000076293945,354.62066650390625,0.172088623046875,-0.0694427490234375,-0.061065673828125,341.8065490722656,0.172088623046875,-0.0694427490234375,-0.061065673828125
0ba18644-7d71-4d84-9122-add8b2996e62,1508492295498,25.10260009765625,0.5950038433074951,2.9914252758026123,9.320286750793457,31.19453571,-0.06439208984375,0.0658416748046875,0.0167083740234375,121.4225212,6.699999809265137,0,25.393529891967773,56.400001525878906,355.87420654296875,-0.06439208984375,0.0658416748046875,0.0167083740234375,343.8678283691406,-0.06439208984375,0.0658416748046875,0.0167083740234375
0ba18644-7d71-4d84-9122-add8b2996e62,1508492296520,22.5372314453125,0.5819435119628906,2.9258198738098145,9.341911315917969,31.1945864,0.0858001708984375,-0.0694427490234375,-0.0216522216796875,121.42256353,6.5,0,25.446548461914062,56.099998474121094,358.8861083984375,0.0858001708984375,-0.0694427490234375,-0.0216522216796875,343.64697265625,0.0858001708984375,-0.0694427490234375,-0.0216522216796875
0ba18644-7d71-4d84-9122-add8b2996e62,1508492297575,22.55682373046875,0.5821993947029114,2.975170135498047,9.32629680633545,31.1946216,0.02508544921875,-0.03961181640625,0.0007171630859375,121.42261805,6.46999979019165,0,24.786893844604492,57.599998474121094,357.03857421875,0.02508544921875,-0.03961181640625,0.0007171630859375,343.704345703125,0.02508544921875,-0.03961181640625,0.0007171630859375
0ba18644-7d71-4d84-9122-add8b2996e62,1508492298612,23.2366943359375,0.578758955001831,3.0873637199401855,9.289973258972168,31.19465573,-0.018585205078125,0.0115203857421875,0.0167083740234375,121.42267521,6.190000057220459,0,30.230703353881836,58.5,356.2803955078125,-0.018585205078125,0.0115203857421875,0.0167083740234375,340.0450134277344,-0.018585205078125,0.0115203857421875,0.0167083740234375
0ba18644-7d71-4d84-9122-add8b2996e62,1508492299638,23.23675537109375,0.6104696393013,3.2025492191314697,9.248858451843262,31.19468528,0.0751495361328125,0.0466766357421875,0.0049896240234375,121.4227435,6.880000114440918,0,31.767820358276367,59.70000076293945,352.3818664550781,0.0751495361328125,0.0466766357421875,0.0049896240234375,338.2283935546875,0.0751495361328125,0.0466766357421875,0.0049896240234375
0ba18644-7d71-4d84-9122-add8b2996e62,1508492300677,23.71795654296875,0.5990690588951111,3.1999638080596924,9.25049877166748,31.19473301,-0.0047454833984375,0.093536376953125,0.007110595703125,121.4228041,7.570000171661377,0,25.94582748413086,58.29999923706055,0.6580938100814819,-0.0047454833984375,0.093536376953125,0.007110595703125,340.1841735839844,-0.0047454833984375,0.093536376953125,0.007110595703125
0ba18644-7d71-4d84-9122-add8b2996e62,1508492301715,24.28436279296875,0.5560586452484131,3.122068405151367,9.279756546020508,31.1947978,0.04638671875,-0.026824951171875,-0.0088653564453125,121.42285536,8,0,26.9970645904541,55.099998474121094,357.2491760253906,0.04638671875,-0.026824951171875,-0.0088653564453125,342.015380859375,0.04638671875,-0.026824951171875,-0.0088653564453125
0ba18644-7d71-4d84-9122-add8b2996e62,1508492302755,25.169677734375,0.555711030960083,3.2047228813171387,9.251557350158691,31.19485654,0.049591064453125,-0.040679931640625,0.0273590087890625,121.42290686,7.96999979019165,0,31.970182418823242,52.79999923706055,356.40704345703125,0.049591064453125,-0.040679931640625,0.0273590087890625,339.7065124511719,0.049591064453125,-0.040679931640625,0.0273590087890625
0ba18644-7d71-4d84-9122-add8b2996e62,1508492303794,25.553955078125,0.5511695146560669,3.2190160751342773,9.246867179870605,31.19491014,0.0655670166015625,0.0115203857421875,0.0124359130859375,121.42296841,8.350000381469727,0,30.868667602539062,51.70000076293945,355.87921142578125,0.0655670166015625,0.0115203857421875,0.0124359130859375,339.5537414550781,0.0655670166015625,0.0115203857421875,0.0124359130859375
0ba18644-7d71-4d84-9122-add8b2996e62,1508492304833,25.74969482421875,0.4700698256492615,3.1566686630249023,9.27280330657959,31.19496422,-0.018585205078125,-0.0598602294921875,0.0007171630859375,121.42303792,8.949999809265137,0,25.547101974487305,50.20000076293945,359.07928466796875,-0.018585205078125,-0.0598602294921875,0.0007171630859375,343.8840637207031,-0.018585205078125,-0.0598602294921875,0.0007171630859375
0ba18644-7d71-4d84-9122-add8b2996e62,1508492305871,23.20587158203125,0.40988799929618835,3.0681395530700684,9.305315971374512,31.19503362,-0.0846405029296875,0.0573272705078125,0.0816802978515625,121.4231152,8.989999771118164,0,21.585433959960938,48.099998474121094,0.4663096070289612,-0.0846405029296875,0.0573272705078125,0.0816802978515625,344.17816162109375,-0.0846405029296875,0.0573272705078125,0.0816802978515625
0ba18644-7d71-4d84-9122-add8b2996e62,1508492306926,23.1651611328125,0.404718816280365,3.0208253860473633,9.321008682250977,31.19509338,0.092193603515625,-0.0683746337890625,0.0135040283203125,121.42318149,8.640000343322754,0,19.462217330932617,45.400001525878906,357.8001708984375,0.092193603515625,-0.0683746337890625,0.0135040283203125,341.7165832519531,0.092193603515625,-0.0683746337890625,0.0135040283203125
0ba18644-7d71-4d84-9122-add8b2996e62,1508492307951,24.4786376953125,0.3769529461860657,2.9532155990600586,9.343811988830566,31.19514714,-0.0026092529296875,0.0764923095703125,0.0465240478515625,121.42323844,8.350000381469727,0,17.609580993652344,44.599998474121094,357.49981689453125,-0.0026092529296875,0.0764923095703125,0.0465240478515625,344.4725036621094,-0.0026092529296875,0.0764923095703125,0.0465240478515625
0ba18644-7d71-4d84-9122-add8b2996e62,1508492309007,24.9559326171875,0.39595746994018555,2.854207992553711,9.373745918273926,31.19521681,-0.0164642333984375,-0.005523681640625,0.0582427978515625,121.42328072,8.1899995803833,0,10.895222663879395,41.599998474121094,357.3759765625,-0.0164642333984375,-0.005523681640625,0.0582427978515625,345.516357421875,-0.0164642333984375,-0.005523681640625,0.0582427978515625
0ba18644-7d71-4d84-9122-add8b2996e62,1508492310058,23.92205810546875,0.376664400100708,2.7489471435546875,9.40594482421875,31.19533911,-0.1368408203125,0.050933837890625,0.0284271240234375,121.42336408,6.849999904632568,0,9.170430183410645,37.79999923706055,357.64300537109375,-0.1368408203125,0.050933837890625,0.0284271240234375,346.4814147949219,-0.1368408203125,0.050933837890625,0.0284271240234375
0ba18644-7d71-4d84-9122-add8b2996e62,1508492311082,24.0135498046875,0.39411941170692444,2.5227553844451904,9.468408584594727,31.19538953,0.0155029296875,0.039215087890625,0.0081787109375,121.42339458,5.869999885559082,0,10.799229621887207,36.79999923706055,357.3498840332031,0.0155029296875,0.039215087890625,0.0081787109375,348.3151550292969,0.0155029296875,0.039215087890625,0.0081787109375
0ba18644-7d71-4d84-9122-add8b2996e62,1508492312105,24.07305908203125,0.47896698117256165,2.4267187118530273,9.489574432373047,31.19542519,-0.032440185546875,0.0104522705078125,0.01031494140625,121.42342159,4.989999771118164,0,13.20351791381836,36.599998474121094,356.59368896484375,-0.032440185546875,0.0104522705078125,0.01031494140625,346.2125244140625,-0.032440185546875,0.0104522705078125,0.01031494140625
0ba18644-7d71-4d84-9122-add8b2996e62,1508492313145,23.71697998046875,0.5566951632499695,2.4451403617858887,9.480599403381348,31.19546891,-0.098480224609375,0.037078857421875,-0.004608154296875,121.42344411,4.599999904632568,0,12.8366117477417,39.29999923706055,357.3040466308594,-0.098480224609375,0.037078857421875,-0.004608154296875,345.315673828125,-0.098480224609375,0.037078857421875,-0.004608154296875
0ba18644-7d71-4d84-9122-add8b2996e62,1508492314185,24.852783203125,0.7589501738548279,2.4371116161346436,9.46862506866455,31.19551449,-0.009002685546875,-0.030029296875,-0.10687255859375,121.42345197,4.050000190734863,0,18.686485290527344,44.79999923706055,354.08270263671875,-0.009002685546875,-0.030029296875,-0.10687255859375,348.4353332519531,-0.009002685546875,-0.030029296875,-0.10687255859375
0ba18644-7d71-4d84-9122-add8b2996e62,1508492315229,25.91796875,0.9067140817642212,2.3212318420410156,9.484731674194336,31.19553004,-0.011138916015625,-0.041748046875,-0.128173828125,121.42347505,3.130000114440918,0,26.94377899169922,52.400001525878906,353.5995788574219,-0.011138916015625,-0.041748046875,-0.128173828125,348.0256652832031,-0.011138916015625,-0.041748046875,-0.128173828125
0ba18644-7d71-4d84-9122-add8b2996e62,1508492316265,25.47259521484375,0.9381093382835388,2.4732162952423096,9.443175315856934,31.1955407,-0.00048828125,-0.0332183837890625,-0.127105712890625,121.42350534,2.9200000762939453,0,37.89847183227539,62,357.8558654785156,-0.00048828125,-0.0332183837890625,-0.127105712890625,343.5646057128906,-0.00048828125,-0.0332183837890625,-0.127105712890625
0ba18644-7d71-4d84-9122-add8b2996e62,1508492317302,25.74359130859375,1.1145148277282715,2.7446300983428955,9.348542213439941,31.19555285,-0.0271148681640625,-0.064117431640625,-0.2144622802734375,121.4235338,3.359999895095825,0,49.91455078125,73.69999694824219,352.1201477050781,-0.0271148681640625,-0.064117431640625,-0.2144622802734375,343.82208251953125,-0.0271148681640625,-0.064117431640625,-0.2144622802734375
0ba18644-7d71-4d84-9122-add8b2996e62,1508492318342,27.89825439453125,1.295538067817688,3.0563735961914062,9.227705955505371,31.19555882,-0.03350830078125,-0.0492095947265625,-0.2410888671875,121.42357373,4.369999885559082,0,81.42194366455078,88.4000015258789,347.0495910644531,-0.03350830078125,-0.0492095947265625,-0.2410888671875,336.56475830078125,-0.03350830078125,-0.0492095947265625,-0.2410888671875
0ba18644-7d71-4d84-9122-add8b2996e62,1508492319387,28.31292724609375,1.2740238904953003,3.7360262870788574,8.977157592773438,31.19555241,-0.04522705078125,-0.0481414794921875,-0.275177001953125,121.42362331,5.130000114440918,0,110.95230102539062,103.80000305175781,349.23687744140625,-0.04522705078125,-0.0481414794921875,-0.275177001953125,338.0474548339844,-0.04522705078125,-0.0481414794921875,-0.275177001953125
0ba18644-7d71-4d84-9122-add8b2996e62,1508492320422,28.30328369140625,0.8558562994003296,3.841296434402466,8.982335090637207,31.1955348,-0.137908935546875,0.481292724609375,-0.00140380859375,121.42368553,6.590000152587891,0,132.28919982910156,111.80000305175781,350.13531494140625,-0.137908935546875,0.481292724609375,-0.00140380859375,335.52423095703125,-0.137908935546875,0.481292724609375,-0.00140380859375
0ba18644-7d71-4d84-9122-add8b2996e62,1508492321441,28.40838623046875,0.37038543820381165,3.6218652725219727,9.10578441619873,31.1955114,-0.0036773681640625,0.1031341552734375,0.009246826171875,121.42375446,7.559999942779541,0,125.19456481933594,111.69999694824219,0.04689361900091171,-0.0036773681640625,0.1031341552734375,0.009246826171875,337.8066711425781,-0.0036773681640625,0.1031341552734375,0.009246826171875
0ba18644-7d71-4d84-9122-add8b2996e62,1508492322463,28.466064453125,0.2804849445819855,3.6696157455444336,9.089864730834961,31.195487,0.08367919921875,-0.0023345947265625,0.0284271240234375,121.42382849,7.570000171661377,0,135.20529174804688,111.19999694824219,1.9815759658813477,0.08367919921875,-0.0023345947265625,0.0284271240234375,338.15087890625,0.08367919921875,-0.0023345947265625,0.0284271240234375
0ba18644-7d71-4d84-9122-add8b2996e62,1508492323484,28.6585693359375,0.3759169578552246,3.716247081756592,9.067445755004883,31.19544456,0.026153564453125,-0.088623046875,0.020965576171875,121.42392864,9.430000305175781,0,128.2205047607422,110.80000305175781,1.8591196537017822,0.026153564453125,-0.088623046875,0.020965576171875,338.4187316894531,0.026153564453125,-0.088623046875,0.020965576171875
0ba18644-7d71-4d84-9122-add8b2996e62,1508492324507,27.332763671875,0.36678770184516907,3.604785919189453,9.112704277038574,31.195418,0.049591064453125,-0.110992431640625,-0.05999755859375,121.42401916,9.460000038146973,0,123.95699310302734,110,359.8362731933594,0.049591064453125,-0.110992431640625,-0.05999755859375,342.5897216796875,0.049591064453125,-0.110992431640625,-0.05999755859375
0ba18644-7d71-4d84-9122-add8b2996e62,1508492325530,26.1007080078125,0.47713345289230347,3.65810489654541,9.086308479309082,31.1953973,-0.0356292724609375,-0.03961181640625,-0.0173797607421875,121.4241097,10.029999732971191,0,136.0430145263672,110.0999984741211,0.799575686454773,-0.0356292724609375,-0.03961181640625,-0.0173797607421875,338.9289245605469,-0.0356292724609375,-0.03961181640625,-0.0173797607421875
0ba18644-7d71-4d84-9122-add8b2996e62,1508492326569,26.319580078125,0.5337676405906677,3.6485331058502197,9.087007522583008,31.19536657,0.00164794921875,0.04986572265625,-0.002471923828125,121.42420877,10.029999732971191,0,130.78558349609375,111,356.6607971191406,0.00164794921875,0.04986572265625,-0.002471923828125,337.89599609375,0.00164794921875,0.04986572265625,-0.002471923828125
0ba18644-7d71-4d84-9122-add8b2996e62,1508492327608,26.9293212890625,0.588844358921051,3.713503837585449,9.057236671447754,31.19533348,0.024017333984375,-0.0140533447265625,-0.0450897216796875,121.42431346,11.010000228881836,0,129.6960906982422,112.5999984741211,354.0826416015625,0.024017333984375,-0.0140533447265625,-0.0450897216796875,338.4523620605469,0.024017333984375,-0.0140533447265625,-0.0450897216796875
0ba18644-7d71-4d84-9122-add8b2996e62,1508492328648,26.996337890625,0.5567296743392944,3.5607142448425293,9.120403289794922,31.19528956,-0.011138916015625,-0.007659912109375,-0.028045654296875,121.42442282,11.850000381469727,0,130.40939331054688,115.0999984741211,356.3595275878906,-0.011138916015625,-0.007659912109375,-0.028045654296875,344.03045654296875,-0.011138916015625,-0.007659912109375,-0.028045654296875
0ba18644-7d71-4d84-9122-add8b2996e62,1508492329675,26.87548828125,0.45679935812950134,3.3752169609069824,9.196175575256348,31.19524843,0.1092376708984375,-0.0034027099609375,0.04119873046875,121.42454543,12.0600004196167,0,131.39205932617188,115.4000015258789,359.66790771484375,0.1092376708984375,-0.0034027099609375,0.04119873046875,344.9673767089844,0.1092376708984375,-0.0034027099609375,0.04119873046875
0ba18644-7d71-4d84-9122-add8b2996e62,1508492330709,27.507080078125,0.34052813053131104,3.175339460372925,9.272089958190918,31.19521188,0.0091094970703125,-0.1056671142578125,0.0486602783203125,121.42465198,11.390000343322754,0,129.58998107910156,112.80000305175781,0.5442152619361877,0.0091094970703125,-0.1056671142578125,0.0486602783203125,346.6178283691406,0.0091094970703125,-0.1056671142578125,0.0486602783203125
0ba18644-7d71-4d84-9122-add8b2996e62,1508492331747,27.404541015625,-0.05508836731314659,3.06954288482666,9.313713073730469,31.1951802,0.1710205078125,0.278900146484375,-0.221923828125,121.42476554,11.319999694824219,0,138.38241577148438,110,6.1303019523620605,0.1710205078125,0.278900146484375,-0.221923828125,342.6362609863281,0.1710205078125,0.278900146484375,-0.221923828125
0ba18644-7d71-4d84-9122-add8b2996e62,1508492332786,27.1221923828125,-0.29380953311920166,1.9716670513153076,9.601905822753906,31.19515797,-0.434051513671875,0.253326416015625,0.1285552978515625,121.42487037,10.699999809265137,0,143.9170379638672,117.0999984741211,5.277378082275391,-0.434051513671875,0.253326416015625,0.1285552978515625,2.01969575881958,-0.434051513671875,0.253326416015625,0.1285552978515625
0ba18644-7d71-4d84-9122-add8b2996e62,1508492333825,25.8072509765625,-1.004395842552185,3.0243372917175293,9.274425506591797,31.1951299,0.0858001708984375,0.1563873291015625,0.0167083740234375,121.42498486,10.029999732971191,0,147.967041015625,112.19999694824219,6.677398204803467,0.0858001708984375,0.1563873291015625,0.0167083740234375,342.5922546386719,0.0858001708984375,0.1563873291015625,0.0167083740234375
0ba18644-7d71-4d84-9122-add8b2996e62,1508492334865,22.80194091796875,-0.7471845746040344,2.7212183475494385,9.391861915588379,31.19510796,-0.0079345703125,0.0541229248046875,-0.046142578125,121.42509219,8.789999961853027,0,140.06460571289062,110.30000305175781,5.068597316741943,-0.0079345703125,0.0541229248046875,-0.046142578125,348.42828369140625,-0.0079345703125,0.0541229248046875,-0.046142578125
0ba18644-7d71-4d84-9122-add8b2996e62,1508492335903,21.6951904296875,-0.686128556728363,2.304097890853882,9.507404327392578,31.19507491,0.0399932861328125,-0.0332183837890625,0.0017852783203125,121.42517489,7.909999847412109,0,144.65640258789062,112.4000015258789,3.232356071472168,0.0399932861328125,-0.0332183837890625,0.0017852783203125,346.3122863769531,0.0399932861328125,-0.0332183837890625,0.0017852783203125
0ba18644-7d71-4d84-9122-add8b2996e62,1508492336943,21.6776123046875,-0.6579011082649231,2.3458268642425537,9.499192237854004,31.19504871,0.0304107666015625,0.00726318359375,-0.0067291259765625,121.42523737,6.800000190734863,0,149.11837768554688,113.80000305175781,4.747988700866699,0.0304107666015625,0.00726318359375,-0.0067291259765625,342.5653381347656,0.0304107666015625,0.00726318359375,-0.0067291259765625
0ba18644-7d71-4d84-9122-add8b2996e62,1508492337982,21.77099609375,-0.8073678016662598,2.6724777221679688,9.400872230529785,31.19503041,0.0048370361328125,-0.0332183837890625,-0.0077972412109375,121.42528866,5.909999847412109,0,143.54730224609375,114.4000015258789,5.794565677642822,0.0048370361328125,-0.0332183837890625,-0.0077972412109375,343.7633361816406,0.0048370361328125,-0.0332183837890625,-0.0077972412109375
0ba18644-7d71-4d84-9122-add8b2996e62,1508492339021,22.0855712890625,-0.8195218443870544,2.6068272590637207,9.418238639831543,31.19501349,-0.01007080078125,-0.0129852294921875,-0.0067291259765625,121.42533584,5.460000038146973,0,144.83694458007812,114.5999984741211,5.500646114349365,-0.01007080078125,-0.0129852294921875,-0.0067291259765625,346.3695983886719,-0.01007080078125,-0.0129852294921875,-0.0067291259765625
0ba18644-7d71-4d84-9122-add8b2996e62,1508492340066,22.787841796875,-0.7720580697059631,2.348741054534912,9.489874839782715,31.19497227,-0.01220703125,-0.0097808837890625,-0.002471923828125,121.42542671,4.409999847412109,0,155.1544189453125,115.19999694824219,4.996460437774658,-0.01220703125,-0.0097808837890625,-0.002471923828125,347.5349426269531,-0.01220703125,-0.0097808837890625,-0.002471923828125
0ba18644-7d71-4d84-9122-add8b2996e62,1508492341081,22.787841796875,-0.7384824752807617,2.0235097408294678,9.567153930664062,31.19497227,0.010162353515625,-0.005523681640625,-0.00140380859375,121.42542671,4.409999847412109,0,161.38148498535156,115.19999694824219,4.240216255187988,0.010162353515625,-0.005523681640625,-0.00140380859375,350.4892883300781,0.010162353515625,-0.005523681640625,-0.00140380859375
0ba18644-7d71-4d84-9122-add8b2996e62,1508492342103,23.415283203125,-0.7953663468360901,2.0992538928985596,9.54625129699707,31.19496373,0.000579833984375,0.0093841552734375,0.0007171630859375,121.42544988,1.7999999523162842,0,165.93441772460938,115.5,4.801191806793213,0.000579833984375,0.0093841552734375,0.0007171630859375,344.2458190917969,0.000579833984375,0.0093841552734375,0.0007171630859375
0ba18644-7d71-4d84-9122-add8b2996e62,1508492343144,23.1534423828125,-0.7671602368354797,2.581125497817993,9.429720878601074,31.19496011,-0.0036773681640625,-0.01617431640625,-0.002471923828125,121.4254621,0.5299999713897705,0,163.2664031982422,115.4000015258789,4.447685241699219,-0.0036773681640625,-0.01617431640625,-0.002471923828125,343.68280029296875,-0.0036773681640625,-0.01617431640625,-0.002471923828125
0ba18644-7d71-4d84-9122-add8b2996e62,1508492344183,23.1534423828125,-0.7631590366363525,2.81111478805542,9.364059448242188,31.19496011,-0.00048828125,-0.02044677734375,0.0007171630859375,121.4254621,0.5299999713897705,0,165.58096313476562,115.4000015258789,4.913534164428711,-0.00048828125,-0.02044677734375,0.0007171630859375,340.07122802734375,-0.00048828125,-0.02044677734375,0.0007171630859375
0ba18644-7d71-4d84-9122-add8b2996e62,1508492345222,23.5220947265625,-0.8283419609069824,3.1610360145568848,9.246192932128906,31.1949486,-0.0026092529296875,-0.0236358642578125,0.0007171630859375,121.42548338,0.46000000834465027,0,165.47976684570312,115.30000305175781,4.804253101348877,-0.0026092529296875,-0.0236358642578125,0.0007171630859375,340.4425048828125,-0.0026092529296875,-0.0236358642578125,0.0007171630859375
0ba18644-7d71-4d84-9122-add8b2996e62,1508492346261,23.5220947265625,-0.7918622493743896,3.244924545288086,9.220293998718262,31.1949486,0.0037841796875,0.0083160400390625,-0.00140380859375,121.42548338,0.46000000834465027,0,163.45355224609375,115.30000305175781,4.655570030212402,0.0037841796875,0.0083160400390625,-0.00140380859375,340.4112243652344,0.0037841796875,0.0083160400390625,-0.00140380859375
0ba18644-7d71-4d84-9122-add8b2996e62,1508492347300,23.5220947265625,-0.700327455997467,3.2843880653381348,9.213725090026855,31.1949486,-0.02178955078125,0.0083160400390625,-0.004608154296875,121.42548338,0.46000000834465027,0,165.16177368164062,115.30000305175781,4.029974937438965,-0.02178955078125,0.0083160400390625,-0.004608154296875,340.31695556640625,-0.02178955078125,0.0083160400390625,-0.004608154296875
0ba18644-7d71-4d84-9122-add8b2996e62,1508492348340,23.5220947265625,-0.6715226769447327,3.3010568618774414,9.209911346435547,31.1949486,0.0048370361328125,-0.0001983642578125,-0.0035400390625,121.42548338,0.46000000834465027,0,163.6422119140625,115.30000305175781,4.1220879554748535,0.0048370361328125,-0.0001983642578125,-0.0035400390625,340.4049072265625,0.0048370361328125,-0.0001983642578125,-0.0035400390625
0ba18644-7d71-4d84-9122-add8b2996e62,1508492349380,23.5220947265625,-0.6785581707954407,3.3043205738067627,9.20822525024414,31.1949486,0.0069732666015625,-0.02044677734375,0.0049896240234375,121.42548338,0.46000000834465027,0,162.2277374267578,115.30000305175781,3.418111562728882,0.0069732666015625,-0.02044677734375,0.0049896240234375,339.45111083984375,0.0069732666015625,-0.02044677734375,0.0049896240234375
0ba18644-7d71-4d84-9122-add8b2996e62,1508492350418,23.5220947265625,-0.6894528865814209,3.427643299102783,9.16222095489502,31.1949486,0.0772857666015625,0.006195068359375,-0.014190673828125,121.42548338,0.46000000834465027,0,166.7285614013672,115.30000305175781,4.893824100494385,0.0772857666015625,0.006195068359375,-0.014190673828125,339.60809326171875,0.0772857666015625,0.006195068359375,-0.014190673828125
0ba18644-7d71-4d84-9122-add8b2996e62,1508492351457,23.5220947265625,-0.7531211972236633,3.4034805297851562,9.166216850280762,31.1949486,0.01123046875,-0.053466796875,0.007110595703125,121.42548338,0.46000000834465027,0,165.46961975097656,115.30000305175781,4.386566638946533,0.01123046875,-0.053466796875,0.007110595703125,339.6437683105469,0.01123046875,-0.053466796875,0.007110595703125
0ba18644-7d71-4d84-9122-add8b2996e62,1508492352503,23.5220947265625,-0.6472785472869873,3.4148056507110596,9.170088768005371,31.1949486,0.010162353515625,-0.018310546875,-0.000335693359375,121.42548338,0.46000000834465027,0,162.96685791015625,115.30000305175781,4.033684730529785,0.010162353515625,-0.018310546875,-0.000335693359375,339.2934265136719,0.010162353515625,-0.018310546875,-0.000335693359375
0ba18644-7d71-4d84-9122-add8b2996e62,1508492353526,24.065673828125,-0.6332558989524841,3.416729211807251,9.170351028442383,31.19494905,0.00164794921875,-0.006591796875,0.0007171630859375,121.42550205,0,0,162.9256134033203,0,3.8993635177612305,0.00164794921875,-0.006591796875,0.0007171630859375,339.7823181152344,0.00164794921875,-0.006591796875,0.0007171630859375
0ba18644-7d71-4d84-9122-add8b2996e62,1508492354539,24.065673828125,-0.6569419503211975,3.398456573486328,9.1754732131958,31.19494905,-0.0047454833984375,-0.007659912109375,-0.000335693359375,121.42550205,0,0,165.5841522216797,0,4.043094158172607,-0.0047454833984375,-0.007659912109375,-0.000335693359375,340.2850036621094,-0.0047454833984375,-0.007659912109375,-0.000335693359375
0ba18644-7d71-4d84-9122-add8b2996e62,1508492355568,24.065673828125,-0.9547702670097351,3.3066673278808594,9.182849884033203,31.19494905,-0.0249786376953125,0.0573272705078125,0.0028533935546875,121.42550205,0,0,163.71185302734375,0,4.313943862915039,-0.0249786376953125,0.0573272705078125,0.0028533935546875,339.49224853515625,-0.0249786376953125,0.0573272705078125,0.0028533935546875
0ba18644-7d71-4d84-9122-add8b2996e62,1508492356590,23.93658447265625,-0.7089080810546875,3.3810513019561768,9.178034782409668,31.19494942,-0.0143280029296875,-0.02789306640625,-0.0077972412109375,121.42551303,0,0,164.20315551757812,0,5.808333873748779,-0.0143280029296875,-0.02789306640625,-0.0077972412109375,340.2942810058594,-0.0143280029296875,-0.02789306640625,-0.0077972412109375
0ba18644-7d71-4d84-9122-add8b2996e62,1508492357623,23.93658447265625,-0.6739181280136108,3.384169340133667,9.179521560668945,31.19494942,-0.0047454833984375,-0.0001983642578125,-0.00140380859375,121.42551303,0,0,163.2628173828125,0,4.081234931945801,-0.0047454833984375,-0.0001983642578125,-0.00140380859375,339.7547607421875,-0.0047454833984375,-0.0001983642578125,-0.00140380859375
0ba18644-7d71-4d84-9122-add8b2996e62,1508492358646,23.93658447265625,-0.6669482588768005,3.386061668395996,9.179333686828613,31.19494942,0.0080413818359375,-0.0151214599609375,0.0007171630859375,121.42551303,0,0,165.36956787109375,0,4.5863213539123535,0.0080413818359375,-0.0151214599609375,0.0007171630859375,339.7831115722656,0.0080413818359375,-0.0151214599609375,0.0007171630859375
0ba18644-7d71-4d84-9122-add8b2996e62,1508492359669,23.93658447265625,-0.6630514860153198,3.3839499950408936,9.180394172668457,31.19494942,0.0080413818359375,-0.0214996337890625,0.0017852783203125,121.42551303,0,0,163.89239501953125,0,4.327528476715088,0.0080413818359375,-0.0214996337890625,0.0017852783203125,339.72637939453125,0.0080413818359375,-0.0214996337890625,0.0017852783203125
0ba18644-7d71-4d84-9122-add8b2996e62,1508492360707,23.93658447265625,-0.6893451809883118,3.377703905105591,9.180757522583008,31.19494942,0.0069732666015625,0.0115203857421875,0.0028533935546875,121.42551303,0,0,164.67636108398438,0,4.161449432373047,0.0069732666015625,0.0115203857421875,0.0028533935546875,339.87158203125,0.0069732666015625,0.0115203857421875,0.0028533935546875
0ba18644-7d71-4d84-9122-add8b2996e62,1508492361747,23.93658447265625,-0.6737352013587952,3.386870861053467,9.17853832244873,31.19494942,-0.0058135986328125,0.0221710205078125,0.0028533935546875,121.42551303,0,0,160.5821533203125,0,4.017381191253662,-0.0058135986328125,0.0221710205078125,0.0028533935546875,339.9066162109375,-0.0058135986328125,0.0221710205078125,0.0028533935546875
0ba18644-7d71-4d84-9122-add8b2996e62,1508492362786,23.93658447265625,-0.6572742462158203,3.3862383365631104,9.17996597290039,31.19494942,-0.0045166015625,0.0038604736328125,-0.004730224609375,121.42551303,0,0,159.3321990966797,0,4.473598003387451,-0.0045166015625,0.0038604736328125,-0.004730224609375,339.95050048828125,-0.0045166015625,0.0038604736328125,-0.004730224609375
0ba18644-7d71-4d84-9122-add8b2996e62,1508492363825,23.93658447265625,-0.6457233428955078,3.6560561656951904,9.076711654663086,31.19494942,-0.0226287841796875,0.011322021484375,0.0037994384765625,121.42551303,0,0,158.21981811523438,0,4.130084037780762,-0.0226287841796875,0.011322021484375,0.0037994384765625,339.1522216796875,-0.0226287841796875,0.011322021484375,0.0037994384765625
0ba18644-7d71-4d84-9122-add8b2996e62,1508492364862,23.93658447265625,-0.9052075147628784,4.170169830322266,8.829533576965332,31.19494942,0.02850341796875,-0.1495361328125,0.0123138427734375,121.42551303,0,0,157.71405029296875,0,6.96212100982666,0.02850341796875,-0.1495361328125,0.0123138427734375,331.11981201171875,0.02850341796875,-0.1495361328125,0.0123138427734375
0ba18644-7d71-4d84-9122-add8b2996e62,1508492365887,23.93658447265625,-0.9612090587615967,4.36284065246582,8.729951858520508,31.19494942,0.0306396484375,-0.0621795654296875,-0.01324462890625,121.42551303,0,0,156.59805297851562,0,7.487199783325195,0.0306396484375,-0.0621795654296875,-0.01324462890625,332.3343505859375,0.0306396484375,-0.0621795654296875,-0.01324462890625
0ba18644-7d71-4d84-9122-add8b2996e62,1508492366924,23.93658447265625,-0.7214928865432739,4.596499919891357,8.632613182067871,31.19494942,0.0359649658203125,-0.366851806640625,-0.0750274658203125,121.42551303,0,0,153.79421997070312,0,5.072361946105957,0.0359649658203125,-0.366851806640625,-0.0750274658203125,331.06103515625,0.0359649658203125,-0.366851806640625,-0.0750274658203125
0ba18644-7d71-4d84-9122-add8b2996e62,1508492367964,23.93658447265625,-0.7908449172973633,4.446300983428955,8.704904556274414,31.19494942,0.0594024658203125,-0.1782989501953125,0.020843505859375,121.42551303,0,0,150.45765686035156,0,7.052899360656738,0.0594024658203125,-0.1782989501953125,0.020843505859375,337.4815368652344,0.0594024658203125,-0.1782989501953125,0.020843505859375
0ba18644-7d71-4d84-9122-add8b2996e62,1508492369003,23.93658447265625,-0.17847375571727753,4.213810443878174,8.85338020324707,31.19494942,-0.0215606689453125,0.0049285888671875,0.008056640625,121.42551303,0,0,148.91896057128906,0,0.687004566192627,-0.0215606689453125,0.0049285888671875,0.008056640625,336.2764587402344,-0.0215606689453125,0.0049285888671875,0.008056640625
0ba18644-7d71-4d84-9122-add8b2996e62,1508492370063,25.4339599609375,-0.6470419764518738,3.9128339290618896,8.968916893005371,31.19492037,0.0029449462890625,-0.0057220458984375,-0.0175018310546875,121.42555946,4.690000057220459,0,145.59494018554688,119.5,4.453866481781006,0.0029449462890625,-0.0057220458984375,-0.0175018310546875,337.2947692871094,0.0029449462890625,-0.0057220458984375,-0.0175018310546875
0ba18644-7d71-4d84-9122-add8b2996e62,1508492371080,25.7890625,-0.35187119245529175,3.90763783454895,8.987600326538086,31.19486339,-0.015167236328125,-0.1761627197265625,-0.0079193115234375,121.42565618,5.989999771118164,0,150.64968872070312,121.4000015258789,5.819621562957764,-0.015167236328125,-0.1761627197265625,-0.0079193115234375,338.6916809082031,-0.015167236328125,-0.1761627197265625,-0.0079193115234375
0ba18644-7d71-4d84-9122-add8b2996e62,1508492372103,26.54852294921875,-0.08903230726718903,3.8576700687408447,9.015589714050293,31.19482135,0.008270263671875,-0.01318359375,-0.014312744140625,121.42574315,6.420000076293945,0,146.41070556640625,122.69999694824219,1.60006844997406,0.008270263671875,-0.01318359375,-0.014312744140625,340.7736511230469,0.008270263671875,-0.01318359375,-0.014312744140625
0ba18644-7d71-4d84-9122-add8b2996e62,1508492373142,27.86285400390625,0.06407227367162704,3.808593273162842,9.036642074584961,31.19476371,0.053009033203125,0.0272979736328125,0.01019287109375,121.42580452,6.730000019073486,0,147.817626953125,124.0999984741211,1.7653419971466064,0.053009033203125,0.0272979736328125,0.01019287109375,336.9280090332031,0.053009033203125,0.0272979736328125,0.01019287109375
0ba18644-7d71-4d84-9122-add8b2996e62,1508492374181,27.1656494140625,0.0010631675831973553,3.830019474029541,9.027810096740723,31.19472036,-0.0332794189453125,-0.0430145263671875,-0.0089874267578125,121.4258629,7.269999980926514,0,148.1992950439453,124.69999694824219,2.935662031173706,-0.0332794189453125,-0.0430145263671875,-0.0089874267578125,336.9187927246094,-0.0332794189453125,-0.0430145263671875,-0.0089874267578125
0ba18644-7d71-4d84-9122-add8b2996e62,1508492375220,27.00701904296875,0.23223170638084412,3.8852882385253906,9.001166343688965,31.19466444,0.0359649658203125,-0.1026611328125,-0.0079193115234375,121.42593037,7.550000190734863,0,142.4378204345703,126.30000305175781,359.0659484863281,0.0359649658203125,-0.1026611328125,-0.0079193115234375,339.9622802734375,0.0359649658203125,-0.1026611328125,-0.0079193115234375
0ba18644-7d71-4d84-9122-add8b2996e62,1508492376259,26.5703125,0.24553371965885162,3.6830379962921143,9.08544635772705,31.19462962,0.041290283203125,0.0645751953125,0.01019287109375,121.42599127,7.449999809265137,0,141.70758056640625,125.9000015258789,359.1367492675781,0.041290283203125,0.0645751953125,0.01019287109375,343.37786865234375,0.041290283203125,0.0645751953125,0.01019287109375
0ba18644-7d71-4d84-9122-add8b2996e62,1508492377300,25.8597412109375,0.1724812090396881,3.3425252437591553,9.217818260192871,31.19458245,-0.0300750732421875,-0.004669189453125,-0.000457763671875,121.42605253,7.159999847412109,0,140.2436981201172,126.5999984741211,359.2710876464844,-0.0300750732421875,-0.004669189453125,-0.000457763671875,343.51446533203125,-0.0300750732421875,-0.004669189453125,-0.000457763671875
0ba18644-7d71-4d84-9122-add8b2996e62,1508492378338,26.14666748046875,0.1314876526594162,2.992130756378174,9.33810806274414,31.19453756,-0.015167236328125,0.0059967041015625,-0.000457763671875,121.42611966,7.260000228881836,0,137.63246154785156,126.80000305175781,359.0537414550781,-0.015167236328125,0.0059967041015625,-0.000457763671875,343.6367492675781,-0.015167236328125,0.0059967041015625,-0.000457763671875
0ba18644-7d71-4d84-9122-add8b2996e62,1508492379379,26.43267822265625,0.15991434454917908,2.744091272354126,9.413542747497559,31.19449463,-0.005584716796875,0.034759521484375,0.0027313232421875,121.42616811,6.320000171661377,0,140.50051879882812,127.5999984741211,358.28668212890625,-0.005584716796875,0.034759521484375,0.0027313232421875,343.1470031738281,-0.005584716796875,0.034759521484375,0.0027313232421875
0ba18644-7d71-4d84-9122-add8b2996e62,1508492380418,26.704345703125,0.14013153314590454,3.0230226516723633,9.328025817871094,31.19447505,0.0253143310546875,-0.014251708984375,0.008056640625,121.42618166,5.309999942779541,0,141.70718383789062,128.1999969482422,359.5546569824219,0.0253143310546875,-0.014251708984375,0.008056640625,343.2271728515625,0.0253143310546875,-0.014251708984375,0.008056640625
0ba18644-7d71-4d84-9122-add8b2996e62,1508492381456,29.035400390625,0.15160606801509857,2.6580135822296143,9.438344955444336,31.19448664,-0.0002593994140625,-0.02276611328125,0.0144500732421875,121.42621263,3.6600000858306885,0,139.5550994873047,125.9000015258789,359.44000244140625,-0.0002593994140625,-0.02276611328125,0.0144500732421875,346.564453125,-0.0002593994140625,-0.02276611328125,0.0144500732421875
0ba18644-7d71-4d84-9122-add8b2996e62,1508492382497,30.475830078125,0.1653354912996292,2.255220651626587,9.542381286621094,31.19448628,-0.005584716796875,0.0006561279296875,-0.000457763671875,121.42623059,2.7799999713897705,0,138.54806518554688,125.4000015258789,358.2390441894531,-0.005584716796875,0.0006561279296875,-0.000457763671875,346.2590637207031,-0.005584716796875,0.0006561279296875,-0.000457763671875
0ba18644-7d71-4d84-9122-add8b2996e62,1508492383534,30.0848388671875,0.1585535854101181,2.608301877975464,9.4520902633667,31.19449545,-0.0077056884765625,0.0059967041015625,0.0005950927734375,121.42622395,1.1100000143051147,0,142.85015869140625,125.19999694824219,358.953369140625,-0.0077056884765625,0.0059967041015625,0.0005950927734375,341.669921875,-0.0077056884765625,0.0059967041015625,0.0005950927734375
0ba18644-7d71-4d84-9122-add8b2996e62,1508492384589,31.950439453125,0.19796614348888397,3.0240275859832764,9.326651573181152,31.19448356,0.0135955810546875,-0.0078582763671875,-0.00152587890625,121.4262253,0,0,140.5587921142578,0,358.761962890625,0.0135955810546875,-0.0078582763671875,-0.00152587890625,341.87750244140625,0.0135955810546875,-0.0078582763671875,-0.00152587890625
0ba18644-7d71-4d84-9122-add8b2996e62,1508492385621,31.950439453125,0.2012833058834076,3.356328248977661,9.2122163772583,31.19448356,0.0018768310546875,0.01025390625,0.0005950927734375,121.4262253,0,0,135.44915771484375,0,358.836181640625,0.0018768310546875,0.01025390625,0.0005950927734375,339.740234375,0.0018768310546875,0.01025390625,0.0005950927734375
0ba18644-7d71-4d84-9122-add8b2996e62,1508492386659,32.577392578125,0.20546674728393555,3.493363618850708,9.161036491394043,31.19446642,-0.0045166015625,0.03155517578125,0.008056640625,121.42623533,0,0,148.86228942871094,0,358.7123718261719,-0.0045166015625,0.03155517578125,0.008056640625,338.9233093261719,-0.0045166015625,0.03155517578125,0.008056640625
0ba18644-7d71-4d84-9122-add8b2996e62,1508492387671,32.577392578125,0.2567130923271179,3.429591655731201,9.18381118774414,31.19446642,0.0072021484375,-0.000396728515625,0.0016632080078125,121.42623533,0,0,144.412109375,0,359.5360412597656,0.0072021484375,-0.000396728515625,0.0016632080078125,339.3332214355469,0.0072021484375,-0.000396728515625,0.0016632080078125
0ba18644-7d71-4d84-9122-add8b2996e62,1508492388694,32.238525390625,0.3615378439426422,3.167292833328247,9.274046897888184,31.19445185,-0.506256103515625,0.3000030517578125,-0.0207061767578125,121.42623902,0.18000000715255737,0,138.60040283203125,128,355.451416015625,-0.506256103515625,0.3000030517578125,-0.0207061767578125,341.0124206542969,-0.506256103515625,0.3000030517578125,-0.0207061767578125
0ba18644-7d71-4d84-9122-add8b2996e62,1508492389718,32.238525390625,0.19444821774959564,2.64935302734375,9.439995765686035,31.19445185,-0.003448486328125,-0.1122589111328125,-0.016448974609375,121.42623902,0.18000000715255737,0,140.6151885986328,128,358.4285583496094,-0.003448486328125,-0.1122589111328125,-0.016448974609375,343.927978515625,-0.003448486328125,-0.1122589111328125,-0.016448974609375
0ba18644-7d71-4d84-9122-add8b2996e62,1508492390739,33.95831298828125,0.56746906042099,2.9250986576080322,9.343027114868164,31.19443511,-0.017303466796875,0.009185791015625,0.0059356689453125,121.4262393,0,0,141.92355346679688,0,357.3160705566406,-0.017303466796875,0.009185791015625,0.0059356689453125,343.48553466796875,-0.017303466796875,0.009185791015625,0.0059356689453125
0ba18644-7d71-4d84-9122-add8b2996e62,1508492391780,33.95831298828125,0.7034980654716492,2.9532415866851807,9.324904441833496,31.19443511,-0.0002593994140625,-0.00146484375,0.0048675537109375,121.4262393,0,0,140.29356384277344,0,355.0748596191406,-0.0002593994140625,-0.00146484375,0.0048675537109375,342.3069763183594,-0.0002593994140625,-0.00146484375,0.0048675537109375
0ba18644-7d71-4d84-9122-add8b2996e62,1508492392818,33.95831298828125,0.7654719352722168,2.9629905223846436,9.316926956176758,31.19443511,0.0018768310546875,0.01025390625,0.0027313232421875,121.4262393,0,0,142.13641357421875,0,355.3799133300781,0.0018768310546875,0.01025390625,0.0027313232421875,342.40185546875,0.0018768310546875,0.01025390625,0.0027313232421875
0ba18644-7d71-4d84-9122-add8b2996e62,1508492393874,33.95831298828125,0.7566927075386047,2.964275360107422,9.317234992980957,31.19443511,-0.001312255859375,0.0006561279296875,-0.00152587890625,121.4262393,0,0,139.88111877441406,0,355.4010009765625,-0.001312255859375,0.0006561279296875,-0.00152587890625,342.4822692871094,-0.001312255859375,0.0006561279296875,-0.00152587890625
0ba18644-7d71-4d84-9122-add8b2996e62,1508492394913,33.95831298828125,0.765178918838501,2.966991662979126,9.31567668914795,31.19443511,-0.0077056884765625,-0.01318359375,-0.00152587890625,121.4262393,0,0,138.62611389160156,0,355.5012512207031,-0.0077056884765625,-0.01318359375,-0.00152587890625,342.4947814941406,-0.0077056884765625,-0.01318359375,-0.00152587890625
0ba18644-7d71-4d84-9122-add8b2996e62,1508492395951,33.95831298828125,0.7669495940208435,2.967918634414673,9.31523609161377,31.19443511,-0.00665283203125,-0.0089263916015625,-0.000457763671875,121.4262393,0,0,142.5984344482422,0,355.2449951171875,-0.00665283203125,-0.0089263916015625,-0.000457763671875,342.3716735839844,-0.00665283203125,-0.0089263916015625,-0.000457763671875
0ba18644-7d71-4d84-9122-add8b2996e62,1508492396989,36.27392578125,0.7606725096702576,2.9658524990081787,9.31640911102295,31.19444485,-0.0002593994140625,-0.016387939453125,-0.00152587890625,121.42624373,0,0,140.08648681640625,0,355.4774169921875,-0.0002593994140625,-0.016387939453125,-0.00152587890625,342.38037109375,-0.0002593994140625,-0.016387939453125,-0.00152587890625
0ba18644-7d71-4d84-9122-add8b2996e62,1508492398019,36.27392578125,0.7526065111160278,2.9619317054748535,9.31831169128418,31.19444485,-0.00579833984375,-0.0162353515625,0.001434326171875,121.42624373,0,0,139.40576171875,0,355.2746276855469,-0.00579833984375,-0.0162353515625,0.001434326171875,342.1540832519531,-0.00579833984375,-0.0162353515625,0.001434326171875
0ba18644-7d71-4d84-9122-add8b2996e62,1508492399068,36.27392578125,0.8587121367454529,2.9700043201446533,9.306560516357422,31.19444485,0.0016632080078125,0.015716552734375,-0.0006866455078125,121.42624373,0,0,139.62823486328125,0,354.90655517578125,0.0016632080078125,0.015716552734375,-0.0006866455078125,342.4609680175781,0.0016632080078125,0.015716552734375,-0.0006866455078125
0ba18644-7d71-4d84-9122-add8b2996e62,1508492400089,38.1707763671875,0.8548679947853088,2.9704649448394775,9.306768417358398,31.19444858,0.0016632080078125,0.01678466796875,0.0003662109375,121.42625433,0,0,141.51490783691406,0,354.7729797363281,0.0016632080078125,0.01678466796875,0.0003662109375,342.3936767578125,0.0016632080078125,0.01678466796875,0.0003662109375
0ba18644-7d71-4d84-9122-add8b2996e62,1508492401097,38.1707763671875,0.8432456254959106,2.9635095596313477,9.310044288635254,31.19444858,-0.01324462890625,0.0242462158203125,0.001434326171875,121.42625433,0,0,141.82859802246094,0,354.7716369628906,-0.01324462890625,0.0242462158203125,0.001434326171875,342.3400573730469,-0.01324462890625,0.0242462158203125,0.001434326171875
0ba18644-7d71-4d84-9122-add8b2996e62,1508492402136,38.1707763671875,0.8322359323501587,2.9600517749786377,9.312135696411133,31.19444858,0.0005950927734375,0.0221099853515625,0.001434326171875,121.42625433,0,0,141.79466247558594,0,354.8339538574219,0.0005950927734375,0.0221099853515625,0.001434326171875,342.5037841796875,0.0005950927734375,0.0221099853515625,0.001434326171875
0ba18644-7d71-4d84-9122-add8b2996e62,1508492403175,38.1707763671875,0.8360036015510559,2.964562177658081,9.310362815856934,31.19444858,0.0016632080078125,0.001861572265625,-0.0006866455078125,121.42625433,0,0,140.9469757080078,0,354.89300537109375,0.0016632080078125,0.001861572265625,-0.0006866455078125,342.3609619140625,0.0016632080078125,0.001861572265625,-0.0006866455078125
0ba18644-7d71-4d84-9122-add8b2996e62,1508492404214,38.1707763671875,0.8513270616531372,2.9745073318481445,9.305801391601562,31.19444858,-0.006866455078125,-0.0045166015625,0.0003662109375,121.42625433,0,0,140.38279724121094,0,354.6885681152344,-0.006866455078125,-0.0045166015625,0.0003662109375,342.2618713378906,-0.006866455078125,-0.0045166015625,0.0003662109375
0ba18644-7d71-4d84-9122-add8b2996e62,1508492405270,38.1707763671875,0.8508278131484985,2.974860906600952,9.305733680725098,31.19444858,-0.0111236572265625,-0.0236968994140625,-0.0038909912109375,121.42625433,0,0,140.20359802246094,0,354.73199462890625,-0.0111236572265625,-0.0236968994140625,-0.0038909912109375,342.2706604003906,-0.0111236572265625,-0.0236968994140625,-0.0038909912109375
0ba18644-7d71-4d84-9122-add8b2996e62,1508492406310,38.1707763671875,0.8404362797737122,2.969351291656494,9.30843734741211,31.19444858,-0.0089874267578125,-0.0205078125,-0.0038909912109375,121.42625433,0,0,139.1063232421875,0,354.75189208984375,-0.0089874267578125,-0.0205078125,-0.0038909912109375,342.3800354003906,-0.0089874267578125,-0.0205078125,-0.0038909912109375
0ba18644-7d71-4d84-9122-add8b2996e62,1508492407349,38.1707763671875,0.8494488000869751,2.9720144271850586,9.306769371032715,31.19444858,-0.00152587890625,-0.0247650146484375,-0.0006866455078125,121.42625433,0,0,141.24374389648438,0,354.816162109375,-0.00152587890625,-0.0247650146484375,-0.0006866455078125,342.4052734375,-0.00152587890625,-0.0247650146484375,-0.0006866455078125
0ba18644-7d71-4d84-9122-add8b2996e62,1508492408389,38.1707763671875,0.9428956508636475,3.100386142730713,9.255752563476562,31.19444858,0.0005950927734375,0.11798095703125,-0.124267578125,121.42625433,0,0,145.66114807128906,0,353.9090881347656,0.0005950927734375,0.11798095703125,-0.124267578125,341.2337341308594,0.0005950927734375,0.11798095703125,-0.124267578125
0ba18644-7d71-4d84-9122-add8b2996e62,1508492409427,38.7725830078125,0.29968392848968506,2.3658676147460938,9.51226806640625,31.19445641,-0.3754425048828125,-0.11956787109375,0.0323333740234375,121.42626039,0,0,145.193359375,0,356.3902282714844,-0.3754425048828125,-0.11956787109375,0.0323333740234375,343.14154052734375,-0.3754425048828125,-0.11956787109375,0.0323333740234375
0ba18644-7d71-4d84-9122-add8b2996e62,1508492410466,38.7725830078125,-0.20790863037109375,3.121076822280884,9.294408798217773,31.19445641,0.14654541015625,0.0774993896484375,0.073883056640625,121.42626039,0,0,152.4568634033203,0,4.3455328941345215,0.14654541015625,0.0774993896484375,0.073883056640625,328.93609619140625,0.14654541015625,0.0774993896484375,0.073883056640625
0ba18644-7d71-4d84-9122-add8b2996e62,1508492411504,33.77496337890625,0.02574840746819973,3.2919158935546875,9.237586975097656,31.19446758,-0.02496337890625,-0.0002593994140625,0.0067596435546875,121.42627928,0.28999999165534973,0,143.07308959960938,125.19999694824219,359.977294921875,-0.02496337890625,-0.0002593994140625,0.0067596435546875,338.2393798828125,-0.02496337890625,-0.0002593994140625,0.0067596435546875
0ba18644-7d71-4d84-9122-add8b2996e62,1508492412542,30.58538818359375,0.0027697994373738766,3.453280210494995,9.178521156311035,31.19447917,-0.0004730224609375,-0.0141143798828125,-0.00921630859375,121.42630067,0.8999999761581421,0,144.04115295410156,125,359.35235595703125,-0.0004730224609375,-0.0141143798828125,-0.00921630859375,338.1990661621094,-0.0004730224609375,-0.0141143798828125,-0.00921630859375
0ba18644-7d71-4d84-9122-add8b2996e62,1508492413582,29.83990478515625,-0.1848147213459015,3.547524929046631,9.140639305114746,31.19447112,0.01763916015625,-0.005584716796875,0.004638671875,121.4263395,3.2200000286102295,0,146.03466796875,121.5999984741211,2.1817209720611572,0.01763916015625,-0.005584716796875,0.004638671875,338.406005859375,0.01763916015625,-0.005584716796875,0.004638671875
0ba18644-7d71-4d84-9122-add8b2996e62,1508492414621,27.2232666015625,-0.25662633776664734,3.5128226280212402,9.152300834655762,31.19445762,0.019775390625,-0.0343475341796875,0.0099639892578125,121.42639124,4.170000076293945,0,143.98397827148438,121.9000015258789,3.8053693771362305,0.019775390625,-0.0343475341796875,0.0099639892578125,343.8748779296875,0.019775390625,-0.0343475341796875,0.0099639892578125
0ba18644-7d71-4d84-9122-add8b2996e62,1508492415660,26.87261962890625,-0.16758522391319275,2.8522560596466064,9.381200790405273,31.19444318,0.0037994384765625,0.048736572265625,0.039794921875,121.42644078,4.340000152587891,0,133.97288513183594,119.69999694824219,1.980595588684082,0.0037994384765625,0.048736572265625,0.039794921875,346.0159912109375,0.0037994384765625,0.048736572265625,0.039794921875
0ba18644-7d71-4d84-9122-add8b2996e62,1508492416714,26.7154541015625,-0.004785474389791489,2.5227372646331787,9.476611137390137,31.19443724,-0.0196380615234375,-0.04180908203125,0.0227508544921875,121.42648467,3.759999990463257,0,133.70297241210938,116.0999984741211,359.88299560546875,-0.0196380615234375,-0.04180908203125,0.0227508544921875,346.38873291015625,-0.0196380615234375,-0.04180908203125,0.0227508544921875
0ba18644-7d71-4d84-9122-add8b2996e62,1508492417743,25.95733642578125,0.05837710574269295,2.734016180038452,9.417649269104004,31.19443345,0.018707275390625,-0.0151824951171875,0.001434326171875,121.42652101,3.299999952316284,0,135.73768615722656,114.19999694824219,358.9447937011719,0.018707275390625,-0.0151824951171875,0.001434326171875,343.452880859375,0.018707275390625,-0.0151824951171875,0.001434326171875
0ba18644-7d71-4d84-9122-add8b2996e62,1508492418767,25.8560791015625,0.1174502819776535,3.231166362762451,9.258301734924316,31.19442895,-0.0121917724609375,0.0221099853515625,0.0078277587890625,121.42655701,3.4000000953674316,0,135.3706817626953,112.80000305175781,358.9865417480469,-0.0121917724609375,0.0221099853515625,0.0078277587890625,340.73736572265625,-0.0121917724609375,0.0221099853515625,0.0078277587890625
0ba18644-7d71-4d84-9122-add8b2996e62,1508492419798,26.03936767578125,0.09952585399150848,3.374279737472534,9.207318305969238,31.19442318,-0.003662109375,-0.0087890625,-0.0006866455078125,121.42659647,3.869999885559082,0,135.8583221435547,111.80000305175781,358.65655517578125,-0.003662109375,-0.0087890625,-0.0006866455078125,337.8085632324219,-0.003662109375,-0.0087890625,-0.0006866455078125
0ba18644-7d71-4d84-9122-add8b2996e62,1508492420821,26.461669921875,0.15776096284389496,3.5590264797210693,9.136675834655762,31.19441766,0.0229644775390625,-0.0279541015625,-0.033721923828125,121.42664399,4.539999961853027,0,142.18775939941406,112.69999694824219,359.84063720703125,0.0229644775390625,-0.0279541015625,-0.033721923828125,336.77978515625,0.0229644775390625,-0.0279541015625,-0.033721923828125
0ba18644-7d71-4d84-9122-add8b2996e62,1508492421843,24.540283203125,-0.0640782043337822,3.5909152030944824,9.125328063964844,31.19439813,0.0740966796875,-0.1515350341796875,-0.017730712890625,121.42670022,5.510000228881836,0,149.50587463378906,116.9000015258789,358.6517639160156,0.0740966796875,-0.1515350341796875,-0.017730712890625,335.90313720703125,0.0740966796875,-0.1515350341796875,-0.017730712890625
0ba18644-7d71-4d84-9122-add8b2996e62,1508492422868,23.44561767578125,0.011868090368807316,3.3555614948272705,9.21468734741211,31.19436659,-0.004730224609375,-0.09613037109375,0.0216827392578125,121.42676014,6.570000171661377,0,147.004638671875,117.9000015258789,0.9779455065727234,-0.004730224609375,-0.09613037109375,0.0216827392578125,343.43780517578125,-0.004730224609375,-0.09613037109375,0.0216827392578125
0ba18644-7d71-4d84-9122-add8b2996e62,1508492423906,23.4854736328125,0.21627038717269897,3.1001510620117188,9.30121898651123,31.1943401,-0.0089874267578125,0.0327606201171875,0.0003662109375,121.42681791,6.820000171661377,0,143.12881469726562,118.30000305175781,357.5863037109375,-0.0089874267578125,0.0327606201171875,0.0003662109375,347.9661865234375,-0.0089874267578125,0.0327606201171875,0.0003662109375
0ba18644-7d71-4d84-9122-add8b2996e62,1508492424947,23.17352294921875,0.27456900477409363,2.7864184379577637,9.39845085144043,31.19431904,-0.014312744140625,-0.0087890625,0.0078277587890625,121.42688278,6.389999866485596,0,135.28465270996094,118.4000015258789,359.89129638671875,-0.014312744140625,-0.0087890625,0.0078277587890625,349.7405090332031,-0.014312744140625,-0.0087890625,0.0078277587890625
0ba18644-7d71-4d84-9122-add8b2996e62,1508492425984,22.64923095703125,0.16798971593379974,2.688800573348999,9.429343223571777,31.19430555,0.030426025390625,0.0231781005859375,0.001434326171875,121.42691808,4.889999866485596,0,162.19956970214844,118.80000305175781,359.99853515625,0.030426025390625,0.0231781005859375,0.001434326171875,344.48846435546875,0.030426025390625,0.0231781005859375,0.001434326171875
0ba18644-7d71-4d84-9122-add8b2996e62,1508492427039,23.5721435546875,0.03485196456313133,2.7033116817474365,9.42662525177002,31.19429994,0.04107666015625,0.037017822265625,0.1708221435546875,121.4269732,4.590000152587891,0,143.95782470703125,117,2.6494994163513184,0.04107666015625,0.037017822265625,0.1708221435546875,344.2439880371094,0.04107666015625,0.037017822265625,0.1708221435546875
0ba18644-7d71-4d84-9122-add8b2996e62,1508492428067,24.26226806640625,-0.06687268614768982,2.766446590423584,9.408117294311523,31.1942859,-0.01751708984375,0.0583343505859375,0.221954345703125,121.42706215,4.039999961853027,0,150.5525665283203,102.0999984741211,13.206405639648438,-0.01751708984375,0.0583343505859375,0.221954345703125,345.5382385253906,-0.01751708984375,0.0583343505859375,0.221954345703125
