track_uuid;t;alt;g_x;g_y;g_z;lat;m_x;m_y;m_z;long;speed;course;att_yaw;heading;att_roll;user_a_x;user_a_y;user_a_z;att_pitch;rot_rate_x;rot_rate_y;rot_rate_z
18561c11-dd73-4ec9-9ca0-42b13c28048f;1508913666.164;0;0.11207452842167445;-0.5998736984875737;-0.7930627161142777;0;-22.747802734375;5.99212646484375;9.80987548828125;0;0;0;98.0029525756836;(null);3.0959532260894775;0.05890993439421362;-0.016174851631631654;-0.031556742531912665;328.0022888183594;-0.2369384765625;0.437164306640625;0.0364990234375
18561c11-dd73-4ec9-9ca0-42b13c28048f;1508913666.23;0;0.11207452842167445;-0.5998736984875737;-0.7930627161142777;0;-22.747802734375;5.99212646484375;9.80987548828125;0;0;0;98.0029525756836;(null);3.0959532260894775;0.05890993439421362;-0.016174851631631654;-0.031556742531912665;328.0022888183594;-0.2369384765625;0.437164306640625;0.0364990234375
18561c11-dd73-4ec9-9ca0-42b13c28048f;1508913666.297;0;0.11207452842167445;-0.5998736984875737;-0.7930627161142777;0;-21.77734375;7.39898681640625;9.41925048828125;0;0;0;98.0029525756836;(null);3.0959532260894775;0.05890993439421362;-0.016174851631631654;-0.031556742531912665;328.0022888183594;-0.2369384765625;0.437164306640625;0.0364990234375
18561c11-dd73-4ec9-9ca0-42b13c28048f;1508913666.37;0;0.09692221879959105;-0.6300580258272132;-0.7713563588200782;0;-21.77734375;7.39898681640625;9.41925048828125;0;0;0;98.0029525756836;(null);3.0959532260894775;-0.029970565620733764;-0.029253765028350205;0.09699558725162427;328.0022888183594;0.2899932861328125;-0.0663909912109375;0.0908660888671875
18561c11-dd73-4ec9-9ca0-42b13c28048f;1508913666.431;0;0.09692221879959105;-0.6300580258272132;-0.7713563588200782;0;-22.30224609375;7.9864501953125;7.72552490234375;0;0;0;98.0029525756836;(null);3.0959532260894775;-0.029970565620733764;-0.029253765028350205;0.09699558725162427;328.0022888183594;0.2899932861328125;-0.0663909912109375;0.0908660888671875
18561c11-dd73-4ec9-9ca0-42b13c28048f;1508913666.502;0;0.09692221879959105;-0.6300580258272132;-0.7713563588200782;0;-22.30224609375;7.9864501953125;7.72552490234375;0;0;0;82.67384338378906;(null);354.9486999511719;-0.029970565620733764;-0.029253765028350205;0.09699558725162427;327.5867919921875;0.2899932861328125;-0.0663909912109375;0.0908660888671875
18561c11-dd73-4ec9-9ca0-42b13c28048f;1508913666.578;1.27740478515625;0.036470841388313135;-0.6142715045383997;-0.7891122662291234;31.19440734386444;-22.2381591796875;7.92999267578125;7.40814208984375;121.42193377017975;7.320000171661377;50.9765625;82.67384338378906;(null);354.9486999511719;0.04928159774566183;-0.028928056055185745;-0.0041375841413225445;327.5867919921875;-0.0926513671875;-0.2361907958984375;0.11175537109375
18561c11-dd73-4ec9-9ca0-42b13c28048f;1508913666.634;1.27740478515625;0.036470841388313135;-0.6142715045383997;-0.7891122662291234;31.19440734386444;-22.2381591796875;7.92999267578125;7.40814208984375;121.42193377017975;7.320000171661377;50.9765625;82.67384338378906;(null);354.9486999511719;0.04928159774566183;-0.028928056055185745;-0.0041375841413225445;327.5867919921875;-0.0926513671875;-0.2361907958984375;0.11175537109375
18561c11-dd73-4ec9-9ca0-42b13c28048f;1508913666.702;1.27740478515625;0.036470841388313135;-0.6142715045383997;-0.7891122662291234;31.19440734386444;-21.86431884765625;5.87615966796875;7.965087890625;121.42193377017975;7.320000171661377;50.9765625;82.67384338378906;(null);354.9486999511719;0.04928159774566183;-0.028928056055185745;-0.0041375841413225445;327.5867919921875;-0.0926513671875;-0.2361907958984375;0.11175537109375
18561c11-dd73-4ec9-9ca0-42b13c28048f;1508913666.772;1.27740478515625;0.020384707925271014;-0.6802028052660883;-0.7336663226692044;31.19440734386444;-21.86431884765625;5.87615966796875;7.965087890625;121.42193377017975;7.320000171661377;50.9765625;82.67384338378906;(null);354.9486999511719;0.020179677070403586;-0.05314335531117964;-0.030923376278001433;327.5867919921875;0.4468536376953125;-0.0841217041015625;-0.000213623046875
18561c11-dd73-4ec9-9ca0-42b13c28048f;1508913666.838;1.27740478515625;0.020384707925271014;-0.6802028052660883;-0.7336663226692044;31.19440734386444;-20.32318115234375;5.51605224609375;6.90460205078125;121.42193377017975;7.320000171661377;50.9765625;82.67384338378906;(null);354.9486999511719;0.020179677070403586;-0.05314335531117964;-0.030923376278001433;327.5867919921875;0.4468536376953125;-0.0841217041015625;-0.000213623046875
18561c11-dd73-4ec9-9ca0-42b13c28048f;1508913666.92;1.27740478515625;0.020384707925271014;-0.6802028052660883;-0.7336663226692044;31.19440734386444;-20.32318115234375;5.51605224609375;6.90460205078125;121.42193377017975;7.320000171661377;50.9765625;82.67384338378906;(null);354.9486999511719;0.020179677070403586;-0.05314335531117964;-0.030923376278001433;327.5867919921875;0.4468536376953125;-0.0841217041015625;-0.000213623046875
18561c11-dd73-4ec9-9ca0-42b13c28048f;1508913666.986;1.27740478515625;0.11771953835779306;-0.6495076782849369;-0.752090142697704;31.19440734386444;-22.65625;3.52325439453125;6.201171875;121.42193377017975;7.320000171661377;50.9765625;82.67384338378906;(null);354.9486999511719;0.03086540163779745;-0.022359867485202085;0.029266026555275427;327.5867919921875;-0.161956787109375;0.489410400390625;-0.2203369140625
18561c11-dd73-4ec9-9ca0-42b13c28048f;1508913667.055;1.27740478515625;0.11771953835779306;-0.6495076782849369;-0.752090142697704;31.19440734386444;-22.65625;3.52325439453125;6.201171875;121.42193377017975;7.320000171661377;50.9765625;82.67384338378906;(null);354.9486999511719;0.03086540163779745;-0.022359867485202085;0.029266026555275427;327.5867919921875;-0.161956787109375;0.489410400390625;-0.2203369140625
18561c11-dd73-4ec9-9ca0-42b13c28048f;1508913667.148;1.27740478515625;0.16608056973437874;-0.5286062007047692;-0.8332769238218969;31.19440734386444;-22.265625;7.4188232421875;4.937744140625;121.42193377017975;7.320000171661377;50.9765625;82.67384338378906;(null);354.9486999511719;0.0032129944587240412;-0.0488056941908233;-0.2406957198162468;327.5867919921875;-0.8390350341796875;0.3696746826171875;0.127471923828125
18561c11-dd73-4ec9-9ca0-42b13c28048f;1508913667.205;1.27740478515625;0.16608056973437874;-0.5286062007047692;-0.8332769238218969;31.19440734386444;-22.265625;7.4188232421875;4.937744140625;121.42193377017975;7.320000171661377;50.9765625;82.67384338378906;(null);354.9486999511719;0.0032129944587240412;-0.0488056941908233;-0.2406957198162468;327.5867919921875;-0.8390350341796875;0.3696746826171875;0.127471923828125
18561c11-dd73-4ec9-9ca0-42b13c28048f;1508913667.273;1.27740478515625;0.16608056973437874;-0.5286062007047692;-0.8332769238218969;31.19440734386444;-21.56524658203125;13.739013671875;4.97894287109375;121.42193377017975;7.320000171661377;50.9765625;82.67384338378906;(null);354.9486999511719;0.0032129944587240412;-0.0488056941908233;-0.2406957198162468;327.5867919921875;-0.8390350341796875;0.3696746826171875;0.127471923828125
18561c11-dd73-4ec9-9ca0-42b13c28048f;1508913667.36;1.27740478515625;0.20159541344156068;-0.3184808760273213;-0.9269772743692203;31.19440734386444;-20.58258056640625;19.0765380859375;7.83538818359375;121.42193377017975;7.320000171661377;50.9765625;82.67384338378906;(null);354.9486999511719;0.1514807890872566;0.11963671567488689;0.14375277927943636;327.5867919921875;-1.3008270263671875;0.4557037353515625;0.2894439697265625
18561c11-dd73-4ec9-9ca0-42b13c28048f;1508913667.425;1.27740478515625;0.20159541344156068;-0.3184808760273213;-0.9269772743692203;31.19440734386444;-20.58258056640625;19.0765380859375;7.83538818359375;121.42193377017975;7.320000171661377;50.9765625;82.67384338378906;(null);354.9486999511719;0.1514807890872566;0.11963671567488689;0.14375277927943636;327.5867919921875;-1.3008270263671875;0.4557037353515625;0.2894439697265625
18561c11-dd73-4ec9-9ca0-42b13c28048f;1508913667.511;1.27740478515625;0.20159541344156068;-0.3184808760273213;-0.9269772743692203;31.19440734386444;-21.7559814453125;17.52777099609375;8.19244384765625;121.42193377017975;7.320000171661377;50.9765625;57.03839111328125;(null);18.69938087463379;0.1514807890872566;0.11963671567488689;0.14375277927943636;340.6631164550781;-1.3008270263671875;0.4557037353515625;0.2894439697265625
18561c11-dd73-4ec9-9ca0-42b13c28048f;1508913667.572;33.9874267578125;0.1626491303346595;-0.3304726007033367;-0.9304250016504404;31.19439125061035;-21.7559814453125;17.52777099609375;8.19244384765625;121.42214298248291;5.210000038146973;79.1015625;57.03839111328125;(null);18.69938087463379;-0.013563718114580426;0.023714887852571448;0.09364390859798509;340.6631164550781;0.108367919921875;-0.273895263671875;-0.2039337158203125
18561c11-dd73-4ec9-9ca0-42b13c28048f;1508913667.641;33.9874267578125;0.1626491303346595;-0.3304726007033367;-0.9304250016504404;31.19439125061035;-23.4527587890625;15.91949462890625;8.7921142578125;121.42214298248291;5.210000038146973;79.1015625;57.03839111328125;(null);18.69938087463379;-0.013563718114580426;0.023714887852571448;0.09364390859798509;340.6631164550781;0.108367919921875;-0.273895263671875;-0.2039337158203125
18561c11-dd73-4ec9-9ca0-42b13c28048f;1508913667.709;33.9874267578125;0.1626491303346595;-0.3304726007033367;-0.9304250016504404;31.19439125061035;-23.4527587890625;15.91949462890625;8.7921142578125;121.42214298248291;5.210000038146973;79.1015625;57.03839111328125;(null);18.69938087463379;-0.013563718114580426;0.023714887852571448;0.09364390859798509;340.6631164550781;0.108367919921875;-0.273895263671875;-0.2039337158203125
18561c11-dd73-4ec9-9ca0-42b13c28048f;1508913667.776;33.9874267578125;0.1411799751982397;-0.3217206925761943;-0.9369747006163305;31.19439125061035;-21.02813720703125;15.2618408203125;9.7900390625;121.42214298248291;5.210000038146973;79.1015625;57.03839111328125;(null);18.69938087463379;0.03494600860440001;-0.030634573527744836;0.03595838741380341;340.6631164550781;0.001190185546875;-0.160919189453125;-0.1826934814453125
18561c11-dd73-4ec9-9ca0-42b13c28048f;1508913667.842;33.9874267578125;0.1411799751982397;-0.3217206925761943;-0.9369747006163305;31.19439125061035;-21.02813720703125;15.2618408203125;9.7900390625;121.42214298248291;5.210000038146973;79.1015625;57.03839111328125;(null);18.69938087463379;0.03494600860440001;-0.030634573527744836;0.03595838741380341;340.6631164550781;0.001190185546875;-0.160919189453125;-0.1826934814453125
18561c11-dd73-4ec9-9ca0-42b13c28048f;1508913667.91;33.9874267578125;0.1411799751982397;-0.3217206925761943;-0.9369747006163305;31.19439125061035;-20.40557861328125;15.9637451171875;10.89630126953125;121.42214298248291;5.210000038146973;79.1015625;57.03839111328125;(null);18.69938087463379;0.03494600860440001;-0.030634573527744836;0.03595838741380341;340.6631164550781;0.001190185546875;-0.160919189453125;-0.1826934814453125
18561c11-dd73-4ec9-9ca0-42b13c28048f;1508913667.977;33.9874267578125;0.15847616049708152;-0.32534161392523314;-0.9329500003736846;31.19439125061035;-20.40557861328125;15.9637451171875;10.89630126953125;121.42214298248291;5.210000038146973;79.1015625;57.03839111328125;(null);18.69938087463379;-0.04088572093418666;-0.038112085692736566;-0.003247650302186304;340.6631164550781;0.02740478515625;0.0903167724609375;0.048797607421875
18561c11-dd73-4ec9-9ca0-42b13c28048f;1508913668.06;33.9874267578125;0.15847616049708152;-0.32534161392523314;-0.9329500003736846;31.19439125061035;-21.47216796875;14.8590087890625;9.99298095703125;121.42214298248291;5.210000038146973;79.1015625;57.03839111328125;(null);18.69938087463379;-0.04088572093418666;-0.038112085692736566;-0.003247650302186304;340.6631164550781;0.02740478515625;0.0903167724609375;0.048797607421875
18561c11-dd73-4ec9-9ca0-42b13c28048f;1508913668.141;33.9874267578125;0.06108904371456224;-0.3845893363563382;-0.9218008664189552;31.19439125061035;-21.47216796875;14.8590087890625;9.99298095703125;121.42214298248291;5.210000038146973;79.1015625;57.03839111328125;(null);18.69938087463379;-0.02115528802482449;-0.0701352528163365;0.04650330056949537;340.6631164550781;0.342620849609375;-0.5058135986328125;0.0721282958984375
18561c11-dd73-4ec9-9ca0-42b13c28048f;1508913668.217;33.9874267578125;0.06108904371456224;-0.3845893363563382;-0.9218008664189552;31.19439125061035;-19.52972412109375;14.2791748046875;12.36114501953125;121.42214298248291;5.210000038146973;79.1015625;57.03839111328125;(null);18.69938087463379;-0.02115528802482449;-0.0701352528163365;0.04650330056949537;340.6631164550781;0.342620849609375;-0.5058135986328125;0.0721282958984375
18561c11-dd73-4ec9-9ca0-42b13c28048f;1508913668.297;33.9874267578125;0.06108904371456224;-0.3845893363563382;-0.9218008664189552;31.19439125061035;-15.8599853515625;15.37628173828125;12.50762939453125;121.42214298248291;5.210000038146973;79.1015625;57.03839111328125;(null);18.69938087463379;-0.02115528802482449;-0.0701352528163365;0.04650330056949537;340.6631164550781;0.342620849609375;-0.5058135986328125;0.0721282958984375
18561c11-dd73-4ec9-9ca0-42b13c28048f;1508913668.378;33.9874267578125;0.05047138856381786;-0.3805028419105374;-0.9241362980433873;31.19439125061035;-15.8599853515625;15.37628173828125;12.50762939453125;121.42214298248291;5.210000038146973;79.1015625;57.03839111328125;(null);18.69938087463379;-0.011009114737413367;-0.04449131537456901;0.006353417221380739;340.6631164550781;-0.01947021484375;0.0470123291015625;0.2582244873046875
18561c11-dd73-4ec9-9ca0-42b13c28048f;1508913668.461;33.9874267578125;0.05047138856381786;-0.3805028419105374;-0.9241362980433873;31.19439125061035;-15.41748046875;14.85748291015625;12.41607666015625;121.42214298248291;5.210000038146973;79.1015625;57.03839111328125;(null);18.69938087463379;-0.011009114737413367;-0.04449131537456901;0.006353417221380739;340.6631164550781;-0.01947021484375;0.0470123291015625;0.2582244873046875
18561c11-dd73-4ec9-9ca0-42b13c28048f;1508913668.543;47.58599853515625;0.08622542935974743;-0.37964142098718756;-0.9218433925083704;31.19445619;-9.92279052734375;16.83197021484375;10.00213623046875;121.42210183;0;0;49.887290954589844;(null);4.402767181396484;0.07001902984113109;-0.018297774451119558;0.011638329953563455;338.0885009765625;-0.008544921875;0.280303955078125;0.1482391357421875
18561c11-dd73-4ec9-9ca0-42b13c28048f;1508913668.613;47.58599853515625;0.08622542935974743;-0.37964142098718756;-0.9218433925083704;31.19445619;-9.92279052734375;16.83197021484375;10.00213623046875;121.42210183;0;0;49.887290954589844;(null);4.402767181396484;0.07001902984113109;-0.018297774451119558;0.011638329953563455;338.0885009765625;-0.008544921875;0.280303955078125;0.1482391357421875
18561c11-dd73-4ec9-9ca0-42b13c28048f;1508913668.698;47.58599853515625;0.08622542935974743;-0.37964142098718756;-0.9218433925083704;31.19445619;-11.4715576171875;25.4669189453125;9.31549072265625;121.42210183;0;0;49.887290954589844;(null);4.402767181396484;0.07001902984113109;-0.018297774451119558;0.011638329953563455;338.0885009765625;-0.008544921875;0.280303955078125;0.1482391357421875
18561c11-dd73-4ec9-9ca0-42b13c28048f;1508913668.802;47.58599853515625;0.07726014268641569;-0.3650748486421546;-0.928498092962771;31.19445619;-11.4715576171875;25.4669189453125;9.31549072265625;121.42210183;0;0;49.887290954589844;(null);4.402767181396484;0.0010659804149549834;-0.03015316262537119;0.02261083953234614;338.0885009765625;-0.0609588623046875;-0.07501220703125;-0.0680694580078125
18561c11-dd73-4ec9-9ca0-42b13c28048f;1508913668.864;47.58599853515625;0.07726014268641569;-0.3650748486421546;-0.928498092962771;31.19445619;-18.50738525390625;29.82330322265625;10.8978271484375;121.42210183;0;0;49.887290954589844;(null);4.402767181396484;0.0010659804149549834;-0.03015316262537119;0.02261083953234614;338.0885009765625;-0.0609588623046875;-0.07501220703125;-0.0680694580078125
18561c11-dd73-4ec9-9ca0-42b13c28048f;1508913668.984;47.58599853515625;0.08077647613019359;-0.3658151140018385;-0.9279073987688337;31.19445619;-18.50738525390625;29.82330322265625;10.8978271484375;121.42210183;0;0;49.887290954589844;(null);4.402767181396484;0.04655847744065888;-0.047810734534750175;-0.0315476437004245;338.0885009765625;0.0147857666015625;0.0262908935546875;-0.0161285400390625
18561c11-dd73-4ec9-9ca0-42b13c28048f;1508913669.049;47.58599853515625;0.08077647613019359;-0.3658151140018385;-0.9279073987688337;31.19445619;-23.077392578125;28.4271240234375;10.33477783203125;121.42210183;0;0;49.887290954589844;(null);4.402767181396484;0.04655847744065888;-0.047810734534750175;-0.0315476437004245;338.0885009765625;0.0147857666015625;0.0262908935546875;-0.0161285400390625
18561c11-dd73-4ec9-9ca0-42b13c28048f;1508913669.133;47.58599853515625;0.08077647613019359;-0.3658151140018385;-0.9279073987688337;31.19445619;-26.18865966796875;22.19696044921875;9.79461669921875;121.42210183;0;0;49.887290954589844;(null);4.402767181396484;0.04655847744065888;-0.047810734534750175;-0.0315476437004245;338.0885009765625;0.0147857666015625;0.0262908935546875;-0.0161285400390625
18561c11-dd73-4ec9-9ca0-42b13c28048f;1508913669.215;47.58599853515625;0.09162162639656844;-0.3593720222006038;-0.9294164424039879;31.19445619;-26.18865966796875;22.19696044921875;9.79461669921875;121.42210183;0;0;49.887290954589844;(null);4.402767181396484;0.005954978417377082;-0.029785827714569713;0.04392293034767618;338.0885009765625;-0.0220184326171875;0.059539794921875;-0.0037689208984375
18561c11-dd73-4ec9-9ca0-42b13c28048f;1508913669.284;47.58599853515625;0.09162162639656844;-0.3593720222006038;-0.9294164424039879;31.19445619;-23.57635498046875;18.3990478515625;10.60943603515625;121.42210183;0;0;49.887290954589844;(null);4.402767181396484;0.005954978417377082;-0.029785827714569713;0.04392293034767618;338.0885009765625;-0.0220184326171875;0.059539794921875;-0.0037689208984375
18561c11-dd73-4ec9-9ca0-42b13c28048f;1508913669.367;47.58599853515625;0.0653556779939301;-0.3678960946141457;-0.928298891807089;31.19445619;-21.91162109375;16.95404052734375;12.3779296875;121.42210183;0;0;49.887290954589844;(null);4.402767181396484;-0.013827857922534553;-0.029707976749965122;0.012080426118811782;338.0885009765625;0.061859130859375;-0.1788787841796875;-0.0857391357421875
18561c11-dd73-4ec9-9ca0-42b13c28048f;1508913669.434;47.58599853515625;0.0653556779939301;-0.3678960946141457;-0.928298891807089;31.19445619;-21.91162109375;16.95404052734375;12.3779296875;121.42210183;0;0;49.887290954589844;(null);4.402767181396484;-0.013827857922534553;-0.029707976749965122;0.012080426118811782;338.0885009765625;0.061859130859375;-0.1788787841796875;-0.0857391357421875
18561c11-dd73-4ec9-9ca0-42b13c28048f;1508913669.501;47.58599853515625;0.0653556779939301;-0.3678960946141457;-0.928298891807089;31.19445619;-20.84503173828125;16.5191650390625;14.73541259765625;121.42210183;0;0;49.887290954589844;(null);4.402767181396484;-0.013827857922534553;-0.029707976749965122;0.012080426118811782;338.0885009765625;0.061859130859375;-0.1788787841796875;-0.0857391357421875
18561c11-dd73-4ec9-9ca0-42b13c28048f;1508913669.568;47.58599853515625;0.0016898238005078569;-0.34849930782707367;-0.938031430147132;31.19445619;-20.84503173828125;16.5191650390625;14.73541259765625;121.42210183;0;0;63.02977752685547;(null);354.839599609375;-0.011047549849870253;-0.028088846985174682;-0.013291203245824695;340.0330505371094;-0.096221923828125;-0.3587493896484375;-0.037384033203125
18561c11-dd73-4ec9-9ca0-42b13c28048f;1508913669.637;47.58599853515625;0.0016898238005078569;-0.34849930782707367;-0.938031430147132;31.19445619;-19.20166015625;17.0379638671875;13.08441162109375;121.42210183;0;0;63.02977752685547;(null);354.839599609375;-0.011047549849870253;-0.028088846985174682;-0.013291203245824695;340.0330505371094;-0.096221923828125;-0.3587493896484375;-0.037384033203125
18561c11-dd73-4ec9-9ca0-42b13c28048f;1508913669.755;47.58599853515625;0.05103201282267667;-0.35161636313613576;-0.9354781131355129;31.19445619;-19.67620849609375;17.8985595703125;13.00201416015625;121.42210183;0;0;63.02977752685547;(null);354.839599609375;0.014089491902565468;-0.02169465532108229;0.0134701631507095;340.0330505371094;0.0260162353515625;0.219482421875;-0.1278839111328125
18561c11-dd73-4ec9-9ca0-42b13c28048f;1508913669.82;47.58599853515625;0.05103201282267667;-0.35161636313613576;-0.9354781131355129;31.19445619;-19.67620849609375;17.8985595703125;13.00201416015625;121.42210183;0;0;63.02977752685547;(null);354.839599609375;0.014089491902565468;-0.02169465532108229;0.0134701631507095;340.0330505371094;0.0260162353515625;0.219482421875;-0.1278839111328125
18561c11-dd73-4ec9-9ca0-42b13c28048f;1508913669.894;47.58599853515625;0.05103201282267667;-0.35161636313613576;-0.9354781131355129;31.19445619;-19.9615478515625;16.8731689453125;13.11187744140625;121.42210183;0;0;63.02977752685547;(null);354.839599609375;0.014089491902565468;-0.02169465532108229;0.0134701631507095;340.0330505371094;0.0260162353515625;0.219482421875;-0.1278839111328125
18561c11-dd73-4ec9-9ca0-42b13c28048f;1508913669.959;47.58599853515625;0.056482450086243294;-0.3628539552493971;-0.9308621348166952;31.19445619;-19.9615478515625;16.8731689453125;13.11187744140625;121.42210183;0;0;63.02977752685547;(null);354.839599609375;0.022679214574852766;-0.03013331062939702;0.016639962488291214;340.0330505371094;0.0779571533203125;-0.018280029296875;-0.1407623291015625
18561c11-dd73-4ec9-9ca0-42b13c28048f;1508913670.039;47.58599853515625;0.056482450086243294;-0.3628539552493971;-0.9308621348166952;31.19445619;-21.429443359375;15.997314453125;12.6220703125;121.42210183;0;0;63.02977752685547;(null);354.839599609375;0.022679214574852766;-0.03013331062939702;0.016639962488291214;340.0330505371094;0.0779571533203125;-0.018280029296875;-0.1407623291015625
18561c11-dd73-4ec9-9ca0-42b13c28048f;1508913670.113;11.456085205078125;0.056482450086243294;-0.3628539552493971;-0.9308621348166952;31.19460922;-21.429443359375;15.997314453125;12.6220703125;121.42210835;10.640000343322754;29.200000762939453;63.02977752685547;(null);354.839599609375;0.022679214574852766;-0.03013331062939702;0.016639962488291214;340.0330505371094;0.0779571533203125;-0.018280029296875;-0.1407623291015625
18561c11-dd73-4ec9-9ca0-42b13c28048f;1508913670.19;11.456085205078125;0.0617548580072364;-0.36835750754998653;-0.9283624376569475;31.19460922;-19.26727294921875;17.46063232421875;12.83721923828125;121.42210835;10.640000343322754;29.200000762939453;63.02977752685547;(null);354.839599609375;0.03458199452380745;-0.02445101737976074;0.012826530300841039;340.0330505371094;0.0355987548828125;0.0446624755859375;0.015716552734375
18561c11-dd73-4ec9-9ca0-42b13c28048f;1508913670.273;11.456085205078125;0.0617548580072364;-0.36835750754998653;-0.9283624376569475;31.19460922;-20.33843994140625;16.97998046875;11.04888916015625;121.42210835;10.640000343322754;29.200000762939453;63.02977752685547;(null);354.839599609375;0.03458199452380745;-0.02445101737976074;0.012826530300841039;340.0330505371094;0.0355987548828125;0.0446624755859375;0.015716552734375
18561c11-dd73-4ec9-9ca0-42b13c28048f;1508913670.339;11.456085205078125;0.0617548580072364;-0.36835750754998653;-0.9283624376569475;31.19460922;-20.33843994140625;16.97998046875;11.04888916015625;121.42210835;10.640000343322754;29.200000762939453;63.02977752685547;(null);354.839599609375;0.03458199452380745;-0.02445101737976074;0.012826530300841039;340.0330505371094;0.0355987548828125;0.0446624755859375;0.015716552734375
18561c11-dd73-4ec9-9ca0-42b13c28048f;1508913670.408;11.456085205078125;0.08116036045308016;-0.3616590645848488;-0.9295015918965241;31.19460922;-20.33843994140625;16.97998046875;11.04888916015625;121.42210835;10.640000343322754;29.200000762939453;63.02977752685547;(null);354.839599609375;0.029785505362919396;0.0019571245933065608;-0.014213445235271842;340.0330505371094;-0.0384368896484375;0.114227294921875;0.003997802734375
18561c11-dd73-4ec9-9ca0-42b13c28048f;1508913670.474;11.456085205078125;0.08116036045308016;-0.3616590645848488;-0.9295015918965241;31.19460922;-19.42901611328125;15.91339111328125;11.41815185546875;121.42210835;10.640000343322754;29.200000762939453;63.02977752685547;(null);354.839599609375;0.029785505362919396;0.0019571245933065608;-0.014213445235271842;340.0330505371094;-0.0384368896484375;0.114227294921875;0.003997802734375
18561c11-dd73-4ec9-9ca0-42b13c28048f;1508913670.58;11.456085205078125;0.0874719206167727;-0.3606814267684002;-0.9293090080728336;31.19460922;-19.8699951171875;16.8914794921875;12.49237060546875;121.42210835;10.640000343322754;29.200000762939453;59.690914154052734;(null);4.703121185302734;0.017742715319808647;-0.011791209785305724;-0.0028387381106006852;339.759521484375;-0.0039215087890625;0.0438232421875;0.012847900390625
18561c11-dd73-4ec9-9ca0-42b13c28048f;1508913670.644;11.456085205078125;0.0874719206167727;-0.3606814267684002;-0.9293090080728336;31.19460922;-19.8699951171875;16.8914794921875;12.49237060546875;121.42210835;10.640000343322754;29.200000762939453;59.690914154052734;(null);4.703121185302734;0.017742715319808647;-0.011791209785305724;-0.0028387381106006852;339.759521484375;-0.0039215087890625;0.0438232421875;0.012847900390625
18561c11-dd73-4ec9-9ca0-42b13c28048f;1508913670.724;11.456085205078125;0.0874719206167727;-0.3606814267684002;-0.9293090080728336;31.19460922;-19.6990966796875;15.15655517578125;12.1337890625;121.42210835;10.640000343322754;29.200000762939453;59.690914154052734;(null);4.703121185302734;0.017742715319808647;-0.011791209785305724;-0.0028387381106006852;339.759521484375;-0.0039215087890625;0.0438232421875;0.012847900390625
18561c11-dd73-4ec9-9ca0-42b13c28048f;1508913670.792;11.456085205078125;0.07187375000544956;-0.36533112428626235;-0.9288298353856923;31.19460922;-19.6990966796875;15.15655517578125;12.1337890625;121.42210835;10.640000343322754;29.200000762939453;59.690914154052734;(null);4.703121185302734;0.011769204723591706;-0.0102416349917042;0.0031477091263751593;339.759521484375;0.0291595458984375;-0.0867767333984375;-0.0159759521484375
18561c11-dd73-4ec9-9ca0-42b13c28048f;1508913670.86;11.456085205078125;0.07187375000544956;-0.36533112428626235;-0.9288298353856923;31.19460922;-20.855712890625;15.44647216796875;12.21771240234375;121.42210835;10.640000343322754;29.200000762939453;59.690914154052734;(null);4.703121185302734;0.011769204723591706;-0.0102416349917042;0.0031477091263751593;339.759521484375;0.0291595458984375;-0.0867767333984375;-0.0159759521484375
18561c11-dd73-4ec9-9ca0-42b13c28048f;1508913670.926;11.456085205078125;0.07187375000544956;-0.36533112428626235;-0.9288298353856923;31.19460922;-20.855712890625;15.44647216796875;12.21771240234375;121.42210835;10.640000343322754;29.200000762939453;59.690914154052734;(null);4.703121185302734;0.011769204723591706;-0.0102416349917042;0.0031477091263751593;339.759521484375;0.0291595458984375;-0.0867767333984375;-0.0159759521484375
18561c11-dd73-4ec9-9ca0-42b13c28048f;1508913670.994;11.456085205078125;0.06572805497111106;-0.37003636360168457;-0.9274215114359953;31.19460922;-19.6197509765625;16.99066162109375;12.84637451171875;121.42210835;10.640000343322754;29.200000762939453;59.690914154052734;(null);4.703121185302734;0.0070306962850142495;-0.007621001224128567;0.00240462166922433;339.759521484375;0.0274505615234375;-0.0311737060546875;-0.00030517578125
18561c11-dd73-4ec9-9ca0-42b13c28048f;1508913671.068;-0.94805908203125;0.06572805497111106;-0.37003636360168457;-0.9274215114359953;31.1947332;-19.6197509765625;16.99066162109375;12.84637451171875;121.42214039;11.149999618530273;29.399999618530273;59.690914154052734;(null);4.703121185302734;0.0070306962850142495;-0.007621001224128567;0.00240462166922433;339.759521484375;0.0274505615234375;-0.0311737060546875;-0.00030517578125
18561c11-dd73-4ec9-9ca0-42b13c28048f;1508913671.143;-0.94805908203125;0.08143595286778041;-0.3688626143397117;-0.9266425152214205;31.1947332;-19.66705322265625;15.39764404296875;14.51263427734375;121.42214039;11.149999618530273;29.399999618530273;59.690914154052734;(null);4.703121185302734;0.030726382927018767;-0.0061772307571099725;0.026245409128617267;339.759521484375;-0.002471923828125;0.0941009521484375;0.0001678466796875
18561c11-dd73-4ec9-9ca0-42b13c28048f;1508913671.212;-0.94805908203125;0.08143595286778041;-0.3688626143397117;-0.9266425152214205;31.1947332;-19.66705322265625;15.39764404296875;14.51263427734375;121.42214039;11.149999618530273;29.399999618530273;59.690914154052734;(null);4.703121185302734;0.030726382927018767;-0.0061772307571099725;0.026245409128617267;339.759521484375;-0.002471923828125;0.0941009521484375;0.0001678466796875
18561c11-dd73-4ec9-9ca0-42b13c28048f;1508913671.278;-0.94805908203125;0.08143595286778041;-0.3688626143397117;-0.9266425152214205;31.1947332;-19.28253173828125;16.26129150390625;15.01617431640625;121.42214039;11.149999618530273;29.399999618530273;59.690914154052734;(null);4.703121185302734;0.030726382927018767;-0.0061772307571099725;0.026245409128617267;339.759521484375;-0.002471923828125;0.0941009521484375;0.0001678466796875
18561c11-dd73-4ec9-9ca0-42b13c28048f;1508913671.363;-0.94805908203125;0.08794825904223383;-0.37445204598563053;-0.9238011496407644;31.1947332;-18.8995361328125;16.52984619140625;14.04876708984375;121.42214039;11.149999618530273;29.399999618530273;59.690914154052734;(null);4.703121185302734;0.034109220212819626;-0.013431894535921057;-0.0018294003545021524;339.759521484375;0.0343780517578125;0.039031982421875;-0.0143280029296875
18561c11-dd73-4ec9-9ca0-42b13c28048f;1508913671.429;-0.94805908203125;0.08794825904223383;-0.37445204598563053;-0.9238011496407644;31.1947332;-18.8995361328125;16.52984619140625;14.04876708984375;121.42214039;11.149999618530273;29.399999618530273;59.690914154052734;(null);4.703121185302734;0.034109220212819626;-0.013431894535921057;-0.0018294003545021524;339.759521484375;0.0343780517578125;0.039031982421875;-0.0143280029296875
18561c11-dd73-4ec9-9ca0-42b13c28048f;1508913671.496;-0.94805908203125;0.08794825904223383;-0.37445204598563053;-0.9238011496407644;31.1947332;-19.44580078125;15.7379150390625;13.4002685546875;121.42214039;11.149999618530273;29.399999618530273;59.690914154052734;(null);4.703121185302734;0.034109220212819626;-0.013431894535921057;-0.0018294003545021524;339.759521484375;0.0343780517578125;0.039031982421875;-0.0143280029296875
18561c11-dd73-4ec9-9ca0-42b13c28048f;1508913671.563;-0.94805908203125;0.08445866862121892;-0.36974298710725745;-0.9260206806416413;31.1947332;-19.44580078125;15.7379150390625;13.4002685546875;121.42214039;11.149999618530273;29.399999618530273;59.690914154052734;(null);4.703121185302734;-0.011468651343365104;-0.04853868971065599;0.02640753376240633;339.759521484375;-0.0135040283203125;-0.0092926025390625;0.03143310546875
18561c11-dd73-4ec9-9ca0-42b13c28048f;1508913671.63;-0.94805908203125;0.08445866862121892;-0.36974298710725745;-0.9260206806416413;31.1947332;-19.48089599609375;16.64581298828125;12.14599609375;121.42214039;11.149999618530273;29.399999618530273;57.167423248291016;(null);6.630842208862305;-0.011468651343365104;-0.04853868971065599;0.02640753376240633;342.5312194824219;-0.0135040283203125;-0.0092926025390625;0.03143310546875
18561c11-dd73-4ec9-9ca0-42b13c28048f;1508913671.698;-0.94805908203125;0.08445866862121892;-0.36974298710725745;-0.9260206806416413;31.1947332;-19.48089599609375;16.64581298828125;12.14599609375;121.42214039;11.149999618530273;29.399999618530273;57.167423248291016;(null);6.630842208862305;-0.011468651343365104;-0.04853868971065599;0.02640753376240633;342.5312194824219;-0.0135040283203125;-0.0092926025390625;0.03143310546875
18561c11-dd73-4ec9-9ca0-42b13c28048f;1508913671.772;-0.94805908203125;0.08332557824193214;-0.3680230160148776;-0.9268082404623226;31.1947332;-19.24591064453125;15.07568359375;12.7532958984375;121.42214039;11.149999618530273;29.399999618530273;57.167423248291016;(null);6.630842208862305;-0.008790164577717682;-0.08062713000239158;0.03201114888093909;342.5312194824219;0.00933837890625;0.0127105712890625;0.0533294677734375
18561c11-dd73-4ec9-9ca0-42b13c28048f;1508913671.832;-0.94805908203125;0.08332557824193214;-0.3680230160148776;-0.9268082404623226;31.1947332;-19.24591064453125;15.07568359375;12.7532958984375;121.42214039;11.149999618530273;29.399999618530273;57.167423248291016;(null);6.630842208862305;-0.008790164577717682;-0.08062713000239158;0.03201114888093909;342.5312194824219;0.00933837890625;0.0127105712890625;0.0533294677734375
18561c11-dd73-4ec9-9ca0-42b13c28048f;1508913671.916;-0.94805908203125;0.08332557824193214;-0.3680230160148776;-0.9268082404623226;31.1947332;-20.09735107421875;15.0421142578125;11.15875244140625;121.42214039;11.149999618530273;29.399999618530273;57.167423248291016;(null);6.630842208862305;-0.008790164577717682;-0.08062713000239158;0.03201114888093909;342.5312194824219;0.00933837890625;0.0127105712890625;0.0533294677734375
18561c11-dd73-4ec9-9ca0-42b13c28048f;1508913672.011;-0.94805908203125;0.10801924734699482;-0.35786202975681847;-0.9282370976039341;31.1947332;-19.6685791015625;15.51513671875;11.78741455078125;121.42214039;11.149999618530273;29.399999618530273;57.167423248291016;(null);6.630842208862305;-0.025085758189765772;-0.06285348717047243;-0.0070546597850566;342.5312194824219;-0.0352325439453125;0.10980224609375;-0.0387115478515625
18561c11-dd73-4ec9-9ca0-42b13c28048f;1508913672.084;-19.9847412109375;0.10801924734699482;-0.35786202975681847;-0.9282370976039341;31.19466404;-19.6685791015625;15.51513671875;11.78741455078125;121.42216169;10.649999618530273;30.100000381469727;57.167423248291016;(null);6.630842208862305;-0.025085758189765772;-0.06285348717047243;-0.0070546597850566;342.5312194824219;-0.0352325439453125;0.10980224609375;-0.0387115478515625
18561c11-dd73-4ec9-9ca0-42b13c28048f;1508913672.15;-19.9847412109375;0.11939594940263397;-0.3404787121986856;-0.9333683519947285;31.19466404;-20.428466796875;15.2374267578125;11.06719970703125;121.42216169;10.649999618530273;30.100000381469727;57.167423248291016;(null);6.630842208862305;-0.011637356816505899;-0.07227445135311204;0.017686279452576927;342.5312194824219;-0.077423095703125;0.0702972412109375;0.0339813232421875
18561c11-dd73-4ec9-9ca0-42b13c28048f;1508913672.217;-19.9847412109375;0.11939594940263397;-0.3404787121986856;-0.9333683519947285;31.19466404;-20.428466796875;15.2374267578125;11.06719970703125;121.42216169;10.649999618530273;30.100000381469727;57.167423248291016;(null);6.630842208862305;-0.011637356816505899;-0.07227445135311204;0.017686279452576927;342.5312194824219;-0.077423095703125;0.0702972412109375;0.0339813232421875
18561c11-dd73-4ec9-9ca0-42b13c28048f;1508913672.285;-19.9847412109375;0.11939594940263397;-0.3404787121986856;-0.9333683519947285;31.19466404;-20.38116455078125;15.7196044921875;13.63067626953125;121.42216169;10.649999618530273;30.100000381469727;57.167423248291016;(null);6.630842208862305;-0.011637356816505899;-0.07227445135311204;0.017686279452576927;342.5312194824219;-0.077423095703125;0.0702972412109375;0.0339813232421875
18561c11-dd73-4ec9-9ca0-42b13c28048f;1508913672.353;-19.9847412109375;0.053396930499952665;-0.3254425282381019;-0.9447716693488918;31.19466404;-20.38116455078125;15.7196044921875;13.63067626953125;121.42216169;10.649999618530273;30.100000381469727;57.167423248291016;(null);6.630842208862305;-0.02351903793763141;-0.05824509932070362;0.0012370518275669643;342.5312194824219;-0.0660247802734375;-0.35443115234375;0.0097503662109375
18561c11-dd73-4ec9-9ca0-42b13c28048f;1508913672.419;-19.9847412109375;0.053396930499952665;-0.3254425282381019;-0.9447716693488918;31.19466404;-19.5556640625;15.972900390625;14.44854736328125;121.42216169;10.649999618530273;30.100000381469727;57.167423248291016;(null);6.630842208862305;-0.02351903793763141;-0.05824509932070362;0.0012370518275669643;342.5312194824219;-0.0660247802734375;-0.35443115234375;0.0097503662109375
18561c11-dd73-4ec9-9ca0-42b13c28048f;1508913672.485;-19.9847412109375;0.053396930499952665;-0.3254425282381019;-0.9447716693488918;31.19466404;-19.5556640625;15.972900390625;14.44854736328125;121.42216169;10.649999618530273;30.100000381469727;57.167423248291016;(null);6.630842208862305;-0.02351903793763141;-0.05824509932070362;0.0012370518275669643;342.5312194824219;-0.0660247802734375;-0.35443115234375;0.0097503662109375
18561c11-dd73-4ec9-9ca0-42b13c28048f;1508913672.568;-19.9847412109375;0.06317349112763697;-0.32226630619594027;-0.9452571674269072;31.19466404;-19.927978515625;15.3961181640625;12.16583251953125;121.42216169;10.649999618530273;30.100000381469727;57.167423248291016;(null);6.630842208862305;0.011862808344315509;-0.06308346378559969;0.007380660699338328;342.5312194824219;0.0006103515625;0.050323486328125;-0.013092041015625
18561c11-dd73-4ec9-9ca0-42b13c28048f;1508913672.636;-19.9847412109375;0.06317349112763697;-0.32226630619594027;-0.9452571674269072;31.19466404;-19.927978515625;15.3961181640625;12.16583251953125;121.42216169;10.649999618530273;30.100000381469727;55.77676010131836;(null);3.6493871212005615;0.011862808344315509;-0.06308346378559969;0.007380660699338328;345.24853515625;0.0006103515625;0.050323486328125;-0.013092041015625
18561c11-dd73-4ec9-9ca0-42b13c28048f;1508913672.721;-19.9847412109375;0.06317349112763697;-0.32226630619594027;-0.9452571674269072;31.19466404;-19.2779541015625;16.88232421875;13.348388671875;121.42216169;10.649999618530273;30.100000381469727;55.77676010131836;(null);3.6493871212005615;0.011862808344315509;-0.06308346378559969;0.007380660699338328;345.24853515625;0.0006103515625;0.050323486328125;-0.013092041015625
18561c11-dd73-4ec9-9ca0-42b13c28048f;1508913672.803;-19.9847412109375;0.0647435139636604;-0.33742016675520914;-0.9398476931513572;31.19466404;-19.83795166015625;16.009521484375;13.8946533203125;121.42216169;10.649999618530273;30.100000381469727;55.77676010131836;(null);3.6493871212005615;-0.0034847855567932125;-0.07185021225286989;0.037478427497708064;345.24853515625;0.1038360595703125;-0.002044677734375;-0.02716064453125
18561c11-dd73-4ec9-9ca0-42b13c28048f;1508913672.871;-19.9847412109375;0.0647435139636604;-0.33742016675520914;-0.9398476931513572;31.19466404;-19.83795166015625;16.009521484375;13.8946533203125;121.42216169;10.649999618530273;30.100000381469727;55.77676010131836;(null);3.6493871212005615;-0.0034847855567932125;-0.07185021225286989;0.037478427497708064;345.24853515625;0.1038360595703125;-0.002044677734375;-0.02716064453125
18561c11-dd73-4ec9-9ca0-42b13c28048f;1508913672.937;-19.9847412109375;0.0647435139636604;-0.33742016675520914;-0.9398476931513572;31.19466404;-19.83795166015625;16.009521484375;13.8946533203125;121.42216169;10.649999618530273;30.100000381469727;55.77676010131836;(null);3.6493871212005615;-0.0034847855567932125;-0.07185021225286989;0.037478427497708064;345.24853515625;0.1038360595703125;-0.002044677734375;-0.02716064453125
18561c11-dd73-4ec9-9ca0-42b13c28048f;1508913673.005;-19.9847412109375;0.07694833132685447;-0.33803402161111634;-0.938706300696548;31.19466404;-21.3134765625;16.25518798828125;11.3616943359375;121.42216169;10.649999618530273;30.100000381469727;55.77676010131836;(null);3.6493871212005615;0.010739966314666125;-0.06800213638617067;-0.035491378939881614;345.24853515625;0.0199432373046875;0.053619384765625;-0.036376953125
18561c11-dd73-4ec9-9ca0-42b13c28048f;1508913673.077;-9.0213623046875;0.07694833132685447;-0.33803402161111634;-0.938706300696548;31.19473158;-20.8160400390625;16.31927490234375;11.42425537109375;121.42225654;10.15999984741211;39.70000076293945;55.77676010131836;(null);3.6493871212005615;0.010739966314666125;-0.06800213638617067;-0.035491378939881614;345.24853515625;0.0199432373046875;0.053619384765625;-0.036376953125
18561c11-dd73-4ec9-9ca0-42b13c28048f;1508913673.139;-9.0213623046875;0.06676807087294909;-0.3347753991886061;-0.9406514070471939;31.19473158;-20.8160400390625;16.31927490234375;11.42425537109375;121.42225654;10.15999984741211;39.70000076293945;55.77676010131836;(null);3.6493871212005615;0.013023468912864216;-0.025160312652587887;0.09094393983179208;345.24853515625;-0.0025787353515625;-0.0498199462890625;-0.002288818359375
18561c11-dd73-4ec9-9ca0-42b13c28048f;1508913673.207;-9.0213623046875;0.06676807087294909;-0.3347753991886061;-0.9406514070471939;31.19473158;-20.8160400390625;16.31927490234375;11.42425537109375;121.42225654;10.15999984741211;39.70000076293945;55.77676010131836;(null);3.6493871212005615;0.013023468912864216;-0.025160312652587887;0.09094393983179208;345.24853515625;-0.0025787353515625;-0.0498199462890625;-0.002288818359375
18561c11-dd73-4ec9-9ca0-42b13c28048f;1508913673.272;-9.0213623046875;0.06676807087294909;-0.3347753991886061;-0.9406514070471939;31.19473158;-21.76513671875;16.4825439453125;10.53619384765625;121.42225654;10.15999984741211;39.70000076293945;55.77676010131836;(null);3.6493871212005615;0.013023468912864216;-0.025160312652587887;0.09094393983179208;345.24853515625;-0.0025787353515625;-0.0498199462890625;-0.002288818359375
18561c11-dd73-4ec9-9ca0-42b13c28048f;1508913673.352;-9.0213623046875;0.06676807087294909;-0.3347753991886061;-0.9406514070471939;31.19473158;-20.7275390625;15.94696044921875;12.01934814453125;121.42225654;10.15999984741211;39.70000076293945;55.77676010131836;(null);3.6493871212005615;0.013023468912864216;-0.025160312652587887;0.09094393983179208;345.24853515625;-0.0025787353515625;-0.0498199462890625;-0.002288818359375
18561c11-dd73-4ec9-9ca0-42b13c28048f;1508913673.425;-9.0213623046875;0.04484987684658595;-0.3520267107048813;-0.935640627024125;31.19473158;-20.7275390625;15.94696044921875;12.01934814453125;121.42225654;10.15999984741211;39.70000076293945;55.77676010131836;(null);3.6493871212005615;-0.0212735150541578;-0.07552888928627481;0.025380582225566006;345.24853515625;0.1143341064453125;-0.12896728515625;-0.016510009765625
18561c11-dd73-4ec9-9ca0-42b13c28048f;1508913673.502;-9.0213623046875;0.04484987684658595;-0.3520267107048813;-0.935640627024125;31.19473158;-21.759033203125;15.3839111328125;11.8560791015625;121.42225654;10.15999984741211;39.70000076293945;55.77676010131836;(null);3.6493871212005615;-0.0212735150541578;-0.07552888928627481;0.025380582225566006;345.24853515625;0.1143341064453125;-0.12896728515625;-0.016510009765625
18561c11-dd73-4ec9-9ca0-42b13c28048f;1508913673.601;-9.0213623046875;0.060294659770264915;-0.35613592790097603;-0.9332145963396344;31.19473158;-21.759033203125;15.3839111328125;11.8560791015625;121.42225654;10.15999984741211;39.70000076293945;55.77676010131836;(null);3.6493871212005615;-0.022257341414081807;-0.03129886121165996;0.02175584131357621;345.24853515625;0.031982421875;0.0767364501953125;0.000701904296875
18561c11-dd73-4ec9-9ca0-42b13c28048f;1508913673.678;-9.0213623046875;0.060294659770264915;-0.35613592790097603;-0.9332145963396344;31.19473158;-21.98333740234375;15.72265625;11.83319091796875;121.42225654;10.15999984741211;39.70000076293945;55.77676010131836;(null);3.6493871212005615;-0.022257341414081807;-0.03129886121165996;0.02175584131357621;345.24853515625;0.031982421875;0.0767364501953125;0.000701904296875
18561c11-dd73-4ec9-9ca0-42b13c28048f;1508913673.771;-9.0213623046875;0.05899582590375627;-0.33919492546392943;-0.9395869897336375;31.19473158;-22.40753173828125;15.55328369140625;13.24615478515625;121.42225654;10.15999984741211;39.70000076293945;63.57528305053711;(null);355.4178161621094;0.04333605571668975;-0.02707036174073511;0.012014933994838169;341.0826721191406;-0.0808258056640625;-0.0050201416015625;-0.0283203125
18561c11-dd73-4ec9-9ca0-42b13c28048f;1508913673.843;-9.0213623046875;0.05899582590375627;-0.33919492546392943;-0.9395869897336375;31.19473158;-22.40753173828125;15.55328369140625;13.24615478515625;121.42225654;10.15999984741211;39.70000076293945;63.57528305053711;(null);355.4178161621094;0.04333605571668975;-0.02707036174073511;0.012014933994838169;341.0826721191406;-0.0808258056640625;-0.0050201416015625;-0.0283203125
18561c11-dd73-4ec9-9ca0-42b13c28048f;1508913673.927;-9.0213623046875;0.05899582590375627;-0.33919492546392943;-0.9395869897336375;31.19473158;-21.74072265625;16.1956787109375;13.2110595703125;121.42225654;10.15999984741211;39.70000076293945;63.57528305053711;(null);355.4178161621094;0.04333605571668975;-0.02707036174073511;0.012014933994838169;341.0826721191406;-0.0808258056640625;-0.0050201416015625;-0.0283203125
18561c11-dd73-4ec9-9ca0-42b13c28048f;1508913673.994;-9.0213623046875;0.08775689163986516;-0.34200369095315736;-0.936317151906539;31.19473158;-21.51947021484375;15.39154052734375;11.163330078125;121.42225654;10.15999984741211;39.70000076293945;63.57528305053711;(null);355.4178161621094;0.031399441008665124;-0.043806591812445186;-0.010739735194614955;341.0826721191406;0.0257568359375;0.1567840576171875;-0.012939453125
18561c11-dd73-4ec9-9ca0-42b13c28048f;1508913674.061;-7.923309326171875;0.08775689163986516;-0.34200369095315736;-0.936317151906539;31.19478942;-21.51947021484375;15.39154052734375;11.163330078125;121.42232596;9.779999732971191;41.5;63.57528305053711;(null);355.4178161621094;0.031399441008665124;-0.043806591812445186;-0.010739735194614955;341.0826721191406;0.0257568359375;0.1567840576171875;-0.012939453125
18561c11-dd73-4ec9-9ca0-42b13c28048f;1508913674.152;-7.923309326171875;0.08783151300585999;-0.3436427456992013;-0.9357099143826231;31.19478942;-21.51947021484375;15.39154052734375;11.163330078125;121.42232596;9.779999732971191;41.5;63.57528305053711;(null);355.4178161621094;0.007201177733285086;-0.008038598663952885;0.02374201404805086;341.0826721191406;0.0136566162109375;0.0001373291015625;-0.0076141357421875
18561c11-dd73-4ec9-9ca0-42b13c28048f;1508913674.213;-7.923309326171875;0.08783151300585999;-0.3436427456992013;-0.9357099143826231;31.19478942;-21.2646484375;16.05072021484375;11.8865966796875;121.42232596;9.779999732971191;41.5;63.57528305053711;(null);355.4178161621094;0.007201177733285086;-0.008038598663952885;0.02374201404805086;341.0826721191406;0.0136566162109375;0.0001373291015625;-0.0076141357421875
18561c11-dd73-4ec9-9ca0-42b13c28048f;1508913674.279;-7.923309326171875;0.08783151300585999;-0.3436427456992013;-0.9357099143826231;31.19478942;-21.67205810546875;15.91949462890625;9.70306396484375;121.42232596;9.779999732971191;41.5;63.57528305053711;(null);355.4178161621094;0.007201177733285086;-0.008038598663952885;0.02374201404805086;341.0826721191406;0.0136566162109375;0.0001373291015625;-0.0076141357421875
18561c11-dd73-4ec9-9ca0-42b13c28048f;1508913674.352;-7.923309326171875;0.10374184773892772;-0.33576006792029556;-0.9369421005249022;31.19478942;-21.67205810546875;15.91949462890625;9.70306396484375;121.42232596;9.779999732971191;41.5;63.57528305053711;(null);355.4178161621094;0.005943641370656539;-0.008122264122476382;-0.011204213512187101;341.0826721191406;-0.0404510498046875;0.083984375;-0.006072998046875
18561c11-dd73-4ec9-9ca0-42b13c28048f;1508913674.439;-7.923309326171875;0.10374184773892772;-0.33576006792029556;-0.9369421005249022;31.19478942;-21.28143310546875;15.8294677734375;10.296630859375;121.42232596;9.779999732971191;41.5;63.57528305053711;(null);355.4178161621094;0.005943641370656539;-0.008122264122476382;-0.011204213512187101;341.0826721191406;-0.0404510498046875;0.083984375;-0.006072998046875
18561c11-dd73-4ec9-9ca0-42b13c28048f;1508913674.514;-7.923309326171875;0.10374184773892772;-0.33576006792029556;-0.9369421005249022;31.19478942;-21.28143310546875;15.8294677734375;10.296630859375;121.42232596;9.779999732971191;41.5;63.57528305053711;(null);355.4178161621094;0.005943641370656539;-0.008122264122476382;-0.011204213512187101;341.0826721191406;-0.0404510498046875;0.083984375;-0.006072998046875
18561c11-dd73-4ec9-9ca0-42b13c28048f;1508913674.58;-7.923309326171875;0.08826594571678005;-0.3364643758657027;-0.9382742278429926;31.19478942;-21.38824462890625;15.96527099609375;11.1358642578125;121.42232596;9.779999732971191;41.5;63.57528305053711;(null);355.4178161621094;0.012319160967457051;-0.01858506883893694;-0.019230745276626274;341.0826721191406;0.008819580078125;-0.0870513916015625;-0.0209197998046875
18561c11-dd73-4ec9-9ca0-42b13c28048f;1508913674.649;-7.923309326171875;0.08826594571678005;-0.3364643758657027;-0.9382742278429926;31.19478942;-21.38824462890625;15.96527099609375;11.1358642578125;121.42232596;9.779999732971191;41.5;63.57528305053711;(null);355.4178161621094;0.012319160967457051;-0.01858506883893694;-0.019230745276626274;341.0826721191406;0.008819580078125;-0.0870513916015625;-0.0209197998046875
18561c11-dd73-4ec9-9ca0-42b13c28048f;1508913674.733;-7.923309326171875;0.08826594571678005;-0.3364643758657027;-0.9382742278429926;31.19478942;-21.8414306640625;17.138671875;11.06109619140625;121.42232596;9.779999732971191;41.5;60.027915954589844;(null);7.135586261749268;0.012319160967457051;-0.01858506883893694;-0.019230745276626274;340.8691101074219;0.008819580078125;-0.0870513916015625;-0.0209197998046875
18561c11-dd73-4ec9-9ca0-42b13c28048f;1508913674.799;-7.923309326171875;0.08275726620031862;-0.33267921330977457;-0.9401241613894092;31.19478942;-22.24578857421875;15.0909423828125;11.31134033203125;121.42232596;9.779999732971191;41.5;60.027915954589844;(null);7.135586261749268;0.0065473938474849775;0.005579408334226024;0.012939608826929207;340.8691101074219;-0.0198974609375;-0.029266357421875;-0.006011962890625
18561c11-dd73-4ec9-9ca0-42b13c28048f;1508913674.865;-7.923309326171875;0.08275726620031862;-0.33267921330977457;-0.9401241613894092;31.19478942;-22.24578857421875;15.0909423828125;11.31134033203125;121.42232596;9.779999732971191;41.5;60.027915954589844;(null);7.135586261749268;0.0065473938474849775;0.005579408334226024;0.012939608826929207;340.8691101074219;-0.0198974609375;-0.029266357421875;-0.006011962890625
18561c11-dd73-4ec9-9ca0-42b13c28048f;1508913674.96;-7.923309326171875;0.08275726620031862;-0.33267921330977457;-0.9401241613894092;31.19478942;-22.03521728515625;15.36865234375;11.4044189453125;121.42232596;9.779999732971191;41.5;60.027915954589844;(null);7.135586261749268;0.0065473938474849775;0.005579408334226024;0.012939608826929207;340.8691101074219;-0.0198974609375;-0.029266357421875;-0.006011962890625
18561c11-dd73-4ec9-9ca0-42b13c28048f;1508913675.033;-7.923309326171875;0.08245325210143108;-0.3365226181185975;-0.9387821080733318;31.19478942;-22.03521728515625;15.36865234375;11.4044189453125;121.42232596;9.779999732971191;41.5;60.027915954589844;(null);7.135586261749268;0.033041050239485135;-0.009933320843443578;0.012763276392099808;340.8691101074219;0.025115966796875;0.0029144287109375;-0.0142669677734375
18561c11-dd73-4ec9-9ca0-42b13c28048f;1508913675.099;-3.11773681640625;0.08245325210143108;-0.3365226181185975;-0.9387821080733318;31.19485033;-21.84906005859375;16.80450439453125;11.4593505859375;121.42240597;9.65999984741211;42.5;60.027915954589844;(null);7.135586261749268;0.033041050239485135;-0.009933320843443578;0.012763276392099808;340.8691101074219;0.025115966796875;0.0029144287109375;-0.0142669677734375
18561c11-dd73-4ec9-9ca0-42b13c28048f;1508913675.167;-3.11773681640625;0.0694970999445234;-0.33159397086318654;-0.9415801690549266;31.19485033;-21.84906005859375;16.80450439453125;11.4593505859375;121.42240597;9.65999984741211;42.5;60.027915954589844;(null);7.135586261749268;-0.017790076683978643;0.004394589638223453;-0.01973434370391223;340.8691101074219;-0.0286865234375;-0.0753326416015625;-0.003021240234375
18561c11-dd73-4ec9-9ca0-42b13c28048f;1508913675.238;-3.11773681640625;0.0694970999445234;-0.33159397086318654;-0.9415801690549266;31.19485033;-20.9136962890625;16.16973876953125;12.64190673828125;121.42240597;9.65999984741211;42.5;60.027915954589844;(null);7.135586261749268;-0.017790076683978643;0.004394589638223453;-0.01973434370391223;340.8691101074219;-0.0286865234375;-0.0753326416015625;-0.003021240234375
18561c11-dd73-4ec9-9ca0-42b13c28048f;1508913675.32;-3.11773681640625;0.0694970999445234;-0.33159397086318654;-0.9415801690549266;31.19485033;-20.9136962890625;16.16973876953125;12.64190673828125;121.42240597;9.65999984741211;42.5;60.027915954589844;(null);7.135586261749268;-0.017790076683978643;0.004394589638223453;-0.01973434370391223;340.8691101074219;-0.0286865234375;-0.0753326416015625;-0.003021240234375
18561c11-dd73-4ec9-9ca0-42b13c28048f;1508913675.404;-3.11773681640625;0.0509723564799951;-0.33443188180728833;-0.9417614644887495;31.19485033;-22.4090576171875;15.228271484375;12.48321533203125;121.42240597;9.65999984741211;42.5;60.027915954589844;(null);7.135586261749268;0.037786632168049714;-0.010876412294348891;0.03204647375612842;340.8691101074219;0.02191162109375;-0.0948333740234375;-0.0218353271484375
18561c11-dd73-4ec9-9ca0-42b13c28048f;1508913675.469;-3.11773681640625;0.0509723564799951;-0.33443188180728833;-0.9417614644887495;31.19485033;-22.4090576171875;15.228271484375;12.48321533203125;121.42240597;9.65999984741211;42.5;60.027915954589844;(null);7.135586261749268;0.037786632168049714;-0.010876412294348891;0.03204647375612842;340.8691101074219;0.02191162109375;-0.0948333740234375;-0.0218353271484375
18561c11-dd73-4ec9-9ca0-42b13c28048f;1508913675.537;-3.11773681640625;0.0509723564799951;-0.33443188180728833;-0.9417614644887495;31.19485033;-21.7193603515625;15.36102294921875;13.5223388671875;121.42240597;9.65999984741211;42.5;60.027915954589844;(null);7.135586261749268;0.037786632168049714;-0.010876412294348891;0.03204647375612842;340.8691101074219;0.02191162109375;-0.0948333740234375;-0.0218353271484375
18561c11-dd73-4ec9-9ca0-42b13c28048f;1508913675.603;-3.11773681640625;0.05065561557302669;-0.341502841638059;-0.9392377308436802;31.19485033;-21.9207763671875;14.605712890625;13.39111328125;121.42240597;9.65999984741211;42.5;60.027915954589844;(null);7.135586261749268;0.02207018282948708;-0.00392249652317592;0.020656877634476642;340.8691101074219;0.0413055419921875;-0.0016632080078125;-0.0182647705078125
18561c11-dd73-4ec9-9ca0-42b13c28048f;1508913675.67;-3.11773681640625;0.05065561557302669;-0.341502841638059;-0.9392377308436802;31.19485033;-21.9207763671875;14.605712890625;13.39111328125;121.42240597;9.65999984741211;42.5;60.027915954589844;(null);7.135586261749268;0.02207018282948708;-0.00392249652317592;0.020656877634476642;340.8691101074219;0.0413055419921875;-0.0016632080078125;-0.0182647705078125
18561c11-dd73-4ec9-9ca0-42b13c28048f;1508913675.738;-3.11773681640625;0.05065561557302669;-0.341502841638059;-0.9392377308436802;31.19485033;-21.9207763671875;14.605712890625;13.39111328125;121.42240597;9.65999984741211;42.5;66.52252197265625;(null);1.3313349485397339;0.02207018282948708;-0.00392249652317592;0.020656877634476642;340.7306213378906;0.0413055419921875;-0.0016632080078125;-0.0182647705078125
18561c11-dd73-4ec9-9ca0-42b13c28048f;1508913675.807;-3.11773681640625;0.05230539307302358;-0.3393892366058972;-0.9399131852753307;31.19485033;-20.4010009765625;15.08941650390625;11.8896484375;121.42240597;9.65999984741211;42.5;66.52252197265625;(null);1.3313349485397339;0.023596785506423638;0.00029417933249960136;0.010056787607621173;340.7306213378906;-0.0098876953125;0.0114898681640625;-0.011444091796875
18561c11-dd73-4ec9-9ca0-42b13c28048f;1508913675.883;-3.11773681640625;0.05230539307302358;-0.3393892366058972;-0.9399131852753307;31.19485033;-21.954345703125;14.4134521484375;14.166259765625;121.42240597;9.65999984741211;42.5;66.52252197265625;(null);1.3313349485397339;0.023596785506423638;0.00029417933249960136;0.010056787607621173;340.7306213378906;-0.0098876953125;0.0114898681640625;-0.011444091796875
18561c11-dd73-4ec9-9ca0-42b13c28048f;1508913675.973;-3.11773681640625;0.05441731336165447;-0.33910082311046363;-0.9398973231412926;31.19485033;-21.954345703125;14.4134521484375;14.166259765625;121.42240597;9.65999984741211;42.5;66.52252197265625;(null);1.3313349485397339;0.006467918960415587;-0.005123517951186822;-0.004668819661043128;340.7306213378906;-0.0007171630859375;0.013092041015625;0.000335693359375
18561c11-dd73-4ec9-9ca0-42b13c28048f;1508913676.04;-3.11773681640625;0.05441731336165447;-0.33910082311046363;-0.9398973231412926;31.19485033;-21.86126708984375;14.73846435546875;12.1978759765625;121.42240597;9.65999984741211;42.5;66.52252197265625;(null);1.3313349485397339;0.006467918960415587;-0.005123517951186822;-0.004668819661043128;340.7306213378906;-0.0007171630859375;0.013092041015625;0.000335693359375
18561c11-dd73-4ec9-9ca0-42b13c28048f;1508913676.112;-4.759674072265625;0.05441731336165447;-0.33910082311046363;-0.9398973231412926;31.19484111;-21.86126708984375;14.73846435546875;12.1978759765625;121.42248039;8.25;51.400001525878906;66.52252197265625;(null);1.3313349485397339;0.006467918960415587;-0.005123517951186822;-0.004668819661043128;340.7306213378906;-0.0007171630859375;0.013092041015625;0.000335693359375
18561c11-dd73-4ec9-9ca0-42b13c28048f;1508913676.175;-4.759674072265625;0.05277958451485147;-0.339261244754402;-0.9399328426438934;31.19484111;-21.79412841796875;14.58740234375;12.70904541015625;121.42248039;8.25;51.400001525878906;66.52252197265625;(null);1.3313349485397339;0.013712395210655367;-0.0019127495434819435;0.0075124234569316;340.7306213378906;0.002044677734375;-0.0052947998046875;-0.00164794921875
18561c11-dd73-4ec9-9ca0-42b13c28048f;1508913676.278;-4.759674072265625;0.05277958451485147;-0.339261244754402;-0.9399328426438934;31.19484111;-21.86737060546875;14.92462158203125;13.29345703125;121.42248039;8.25;51.400001525878906;66.52252197265625;(null);1.3313349485397339;0.013712395210655367;-0.0019127495434819435;0.0075124234569316;340.7306213378906;0.002044677734375;-0.0052947998046875;-0.00164794921875
18561c11-dd73-4ec9-9ca0-42b13c28048f;1508913676.358;-4.759674072265625;0.0526934375568312;-0.33749534159290545;-0.9405730695140604;31.19484111;-21.86737060546875;14.92462158203125;13.29345703125;121.42248039;8.25;51.400001525878906;66.52252197265625;(null);1.3313349485397339;-0.002308122965754295;-0.0052534317483707346;-0.024577841466786907;340.7306213378906;-0.010040283203125;-0.0029449462890625;-0.0040435791015625
18561c11-dd73-4ec9-9ca0-42b13c28048f;1508913676.425;-4.759674072265625;0.0526934375568312;-0.33749534159290545;-0.9405730695140604;31.19484111;-22.17254638671875;14.84527587890625;12.07733154296875;121.42248039;8.25;51.400001525878906;66.52252197265625;(null);1.3313349485397339;-0.002308122965754295;-0.0052534317483707346;-0.024577841466786907;340.7306213378906;-0.010040283203125;-0.0029449462890625;-0.0040435791015625
18561c11-dd73-4ec9-9ca0-42b13c28048f;1508913676.493;-4.759674072265625;0.0526934375568312;-0.33749534159290545;-0.9405730695140604;31.19484111;-22.17254638671875;14.84527587890625;12.07733154296875;121.42248039;8.25;51.400001525878906;66.52252197265625;(null);1.3313349485397339;-0.002308122965754295;-0.0052534317483707346;-0.024577841466786907;340.7306213378906;-0.010040283203125;-0.0029449462890625;-0.0040435791015625
18561c11-dd73-4ec9-9ca0-42b13c28048f;1508913676.577;-4.759674072265625;0.05556663080137603;-0.3356963760998784;-0.9410514636915557;31.19484111;-21.05712890625;15.26336669921875;12.2955322265625;121.42248039;8.25;51.400001525878906;66.52252197265625;(null);1.3313349485397339;0.0033087450630810795;-0.0000843709828902264;-0.0006483039077447385;340.7306213378906;-0.0103607177734375;0.0208587646484375;0.0130615234375
18561c11-dd73-4ec9-9ca0-42b13c28048f;1508913676.642;-4.759674072265625;0.05556663080137603;-0.3356963760998784;-0.9410514636915557;31.19484111;-21.05712890625;15.26336669921875;12.2955322265625;121.42248039;8.25;51.400001525878906;66.52252197265625;(null);1.3313349485397339;0.0033087450630810795;-0.0000843709828902264;-0.0006483039077447385;340.7306213378906;-0.0103607177734375;0.0208587646484375;0.0130615234375
18561c11-dd73-4ec9-9ca0-42b13c28048f;1508913676.709;-4.759674072265625;0.05556663080137603;-0.3356963760998784;-0.9410514636915557;31.19484111;-22.6318359375;14.64080810546875;11.236572265625;121.42248039;8.25;51.400001525878906;66.52252197265625;(null);1.3313349485397339;0.0033087450630810795;-0.0000843709828902264;-0.0006483039077447385;340.7306213378906;-0.0103607177734375;0.0208587646484375;0.0130615234375
