track_uuid;t;alt;g_x;g_y;g_z;lat;m_x;m_y;m_z;long;speed;course;att_yaw;heading;att_roll;user_a_x;user_a_y;user_a_z;att_pitch;rot_rate_x;rot_rate_y;rot_rate_z;name
19163110-f27d-44fd-9ea7-e2e2b02a15df;1514168501.136;;0.9902364015579224;0.13919131457805634;0.00759503897279501;0;-105.12124633789062;-63.28511047363281;-20.588760375976562;0;;;0.1460608993096687;;1.578466101675106;0.006940741557627916;-0.039047881960868835;-0.10471722483634949;-0.13964473196952745;-0.1629191460017064;0.025614017048273104;0.004375573671000188;
19163110-f27d-44fd-9ea7-e2e2b02a15df;1514168501.186;;0.9902901649475098;0.13884618878364563;0.006857932545244694;;-105.81973266601562;-63.636688232421875;-20.251235961914062;;;;0.14185189050734595;;1.5777213908043486;-0.005243823863565922;-0.09104041010141373;-0.1232062578201294;-0.13929622639807998;0.06726798702598445;0.025239576599007964;0.019433086474308203;
19163110-f27d-44fd-9ea7-e2e2b02a15df;1514168501.236;;0.9902718663215637;0.13895951211452484;0.0072076283395290375;;-105.64511108398438;-63.10931396484375;-21.095046997070312;;;;0.14411810845837922;;1.578074632055636;-0.0057289861142635345;-0.05859147384762764;-0.10135436803102493;-0.13941066158572468;0.09532492174218725;0.014694257630621205;0.03253876851469714;
19163110-f27d-44fd-9ea7-e2e2b02a15df;1514168501.286;;0.9902663826942444;0.13899528980255127;0.007263936102390289;;-105.64511108398438;-63.10931396484375;-21.432571411132812;;;;0.14386746855674767;;1.5781315311272468;-0.002168255392462015;-0.06456291675567627;-0.11525045335292816;-0.139446781116935;-0.12991538956068144;0.03883528027997148;0.0165190556095435;
19163110-f27d-44fd-9ea7-e2e2b02a15df;1514168501.336;;0.9902799725532532;0.1389206051826477;0.0068323793821036816;;-105.99435424804688;-63.46089172363281;-21.77008056640625;;;;0.14367373846051268;;1.5776956595276987;0.00532551622018218;-0.04875641688704491;-0.12745310366153717;-0.13937136371952422;0.005810218550225874;-0.016460199749452748;0.037289581583289495;
19163110-f27d-44fd-9ea7-e2e2b02a15df;1514168501.386;;0.9926220774650574;0.09439927339553833;-0.07609333097934723;;-105.12124633789062;-64.33985900878906;-21.263809204101562;;;;0.13264631608019967;;1.4942870479052448;-0.001289061619900167;-0.013161483220756054;-0.039980217814445496;-0.09454004329964018;-0.08596257893001369;-0.020380639190158395;0.02299799390948827;
19163110-f27d-44fd-9ea7-e2e2b02a15df;1514168501.436;;0.9923164248466492;0.094838447868824;-0.07945942133665085;;-104.77201843261719;-63.28511047363281;-20.926284790039062;;;;0.1310900771731652;;1.4908921375077908;-0.00006788103200960904;-0.019307434558868408;-0.04448771849274635;-0.0949811929666353;0.10011142116938666;-0.0339691523361787;0.03682725681805174;
19163110-f27d-44fd-9ea7-e2e2b02a15df;1514168501.486;;0.9918240308761597;0.09094130992889404;-0.089525006711483;;-106.16897583007812;-62.2303466796875;-22.951400756835938;;;;0.1304182859566801;;1.480777276594961;-0.004916093777865171;-0.017042994499206543;-0.0183698907494545;-0.09106713209683336;-0.04548173141248224;-0.027408987622986512;0.014340057205640666;
19163110-f27d-44fd-9ea7-e2e2b02a15df;1514168501.536;;0.9918296933174133;0.09084337204694748;-0.08956187218427658;;-106.16897583007812;-63.98826599121094;-20.588760375976562;;;;0.12991697804739397;;1.48074091666572;-0.002205673372372985;-0.014839351177215576;-0.01708178222179413;-0.09096878561445572;0.08182509186046658;-0.030508907131838747;0.02603426386828761;
19163110-f27d-44fd-9ea7-e2e2b02a15df;1514168501.586;;0.9919565916061401;0.08733606338500977;-0.09162146598100662;;-106.51821899414062;-63.28511047363281;-21.263809204101562;;;;0.13094993603095942;;1.4786932632876797;0.00041399928159080446;-0.0032143620774149895;-0.01276385597884655;-0.08744747279358667;-0.04426413416209801;-0.014325143503536222;0.01810816383199378;
19163110-f27d-44fd-9ea7-e2e2b02a15df;1514168501.636;;0.9919630885124207;0.08713729679584503;-0.0917411521077156;;-104.94662475585938;-62.0545654296875;-21.095046997070312;;;;0.1294736860634517;;1.47857422608174;0.006327989045530558;-0.023965910077095032;-0.029688255861401558;-0.08724794969613776;0.06344555191339372;-0.0032261533445219893;0.032433041019420995;
19163110-f27d-44fd-9ea7-e2e2b02a15df;1514168501.686;;0.99180668592453;0.08565083891153336;-0.09478164464235306;;-105.81973266601562;-63.98826599121094;-20.588760375976562;;;;0.1300436181082274;;1.4755210237979683;0.0030664296355098486;-0.008639727719128132;-0.01476115919649601;-0.08575590773524408;-0.04184571757619705;-0.004791026801052549;0.02425234278291559;
19163110-f27d-44fd-9ea7-e2e2b02a15df;1514168501.736;;0.9917829632759094;0.0855187475681305;-0.09514781832695007;;-106.51821899414062;-64.69143676757812;-21.601318359375;;;;0.12902972439571245;;1.4751529028510124;-0.0023878116626292467;-0.01624384894967079;-0.023031454533338547;-0.08562333339115405;-0.0002460760847233216;-0.01413818959501266;0.028867600952022912;
19163110-f27d-44fd-9ea7-e2e2b02a15df;1514168501.786;;0.9910611510276794;0.08394224941730499;-0.10368964821100235;;-106.34359741210938;-63.46089172363281;-21.77008056640625;;;;0.1288476641063143;;1.4665507249952472;0.002316565252840519;-0.0010565129341557622;-0.01830432005226612;-0.08404114697216547;0.03645894163929378;-0.02588166473782607;0.032261267129110885;
19163110-f27d-44fd-9ea7-e2e2b02a15df;1514168501.836;;0.9912394285202026;0.08136089146137238;-0.10404263436794281;;-105.47048950195312;-62.581939697265625;-22.6138916015625;;;;0.1292206008542223;;1.4662170965382535;0.001726312329992652;-0.0010538846254348755;-0.02222377061843872;-0.0814509200566656;0.0034458641344535263;-0.02126720551704577;0.025150893334708324;
19163110-f27d-44fd-9ea7-e2e2b02a15df;1514168501.886;;0.9909791350364685;0.08012831956148148;-0.10742291063070297;;-105.47048950195312;-63.28511047363281;-22.6138916015625;;;;0.12882983218506283;;1.462817177575748;-0.009823810309171677;0.007960673421621323;-0.007079113740473986;-0.08021431163220198;0.016927051888543636;-0.023603596741372287;0.023877369701432435;
19163110-f27d-44fd-9ea7-e2e2b02a15df;1514168501.936;8.57501220703125;0.9909589886665344;0.08026919513940811;-0.10750355571508408;;-106.51821899414062;-62.581939697265625;-20.588760375976562;;0.47999998927116394;111.796875;0.12895924710198967;;1.4627345638259097;-0.005454905331134796;-0.004951814655214548;0.0055442857556045055;-0.08035564021297703;-0.03075871164208818;-0.019051455490099848;0.013180516867020165;
19163110-f27d-44fd-9ea7-e2e2b02a15df;1514168501.986;;0.9909520149230957;0.08029400557279587;-0.10754954814910889;31.313595920138887;-105.99435424804688;-62.75773620605469;-21.095046997070312;121.46205295138888;;;0.12918242895381155;;1.4626879363852936;0.01313730701804161;0.00013506863615475595;0.0013636532239615917;-0.08038053615989618;0.009600962045844662;-0.020073843032581265;0.021518607923949253;
19163110-f27d-44fd-9ea7-e2e2b02a15df;1514168502.036;;0.9909709095954895;0.08031506091356277;-0.10735994577407837;;-106.16897583007812;-63.28511047363281;-23.963973999023438;;;;0.12930569634915678;;1.4628790842395185;0.0025136021431535482;-0.0024342068936675787;-0.01078877691179514;-0.08040166095664372;-0.02957839864696506;-0.000004793689962142629;0.02306057819510513;
19163110-f27d-44fd-9ea7-e2e2b02a15df;1514168502.086;;0.9909709095954895;0.08031506091356277;-0.10735994577407837;;-107.21669006347656;-62.93351745605469;-22.6138916015625;;;;0.12930569634915678;;1.4628790842395185;0.0025136021431535482;-0.0024342068936675787;-0.01078877691179514;-0.08040166095664372;0.018144649138927865;0.0073111761405945325;0.03146924302092132;
19163110-f27d-44fd-9ea7-e2e2b02a15df;1514168502.136;;0.9909674525260925;0.08020254969596863;-0.10747596621513367;;-106.86744689941406;-64.33985900878906;-22.2763671875;;;;0.1290496777509825;;1.4627629940895919;0.001754123717546463;-0.010057900100946426;-0.0005104277515783906;-0.0802887842399106;-0.002737196968383441;-0.016502544010785006;0.033685791996194266;
19163110-f27d-44fd-9ea7-e2e2b02a15df;1514168502.186;;0.9909124374389648;0.08036696165800095;-0.10785938799381256;;-106.69282531738281;-62.0545654296875;-22.10760498046875;;;;0.12988062270510772;;1.4623746204992523;0.01238343771547079;-0.007918242365121841;-0.010792972519993782;-0.0804537301483009;-0.02352769665030503;-0.017777399224605937;0.028894232562923703;
19163110-f27d-44fd-9ea7-e2e2b02a15df;1514168502.236;;0.9909031391143799;0.08037766069173813;-0.10793663561344147;;-106.16897583007812;-61.87876892089844;-23.626449584960938;;;;0.12993625381308516;;1.462296573169211;0.010897347703576088;0.004812162835150957;-0.025120075792074203;-0.08046446064647189;-0.006399309783351402;-0.043861996837496045;0.026139991363563753;
19163110-f27d-44fd-9ea7-e2e2b02a15df;1514168502.286;;0.9908627867698669;0.07733823359012604;-0.1104973629117012;;-104.59739685058594;-62.75773620605469;-21.432571411132812;;;;0.1305565623327882;;1.4597388658685277;0.016781829297542572;0.001488673035055399;-0.0038520314265042543;-0.07741553616811667;-0.023488548182280865;-0.022552447059118012;0.02279532735053324;
19163110-f27d-44fd-9ea7-e2e2b02a15df;1514168502.336;;0.9908472299575806;0.07739841938018799;-0.11059525609016418;;-106.86744689941406;-63.636688232421875;-21.263809204101562;;;;0.130650304075602;;1.459639552274591;-0.0034204390831291676;0.00783716980367899;-0.0016025957884266973;-0.07747590426993753;0.013274260137390954;-0.015305985733012405;0.022769761004068478;
19163110-f27d-44fd-9ea7-e2e2b02a15df;1514168502.386;;0.9908263683319092;0.07760050147771835;-0.11064013093709946;;-106.34359741210938;-63.10931396484375;-23.120162963867188;;;;0.13128113186508436;;1.4595925019222855;-0.0014922727132216096;0.0010432947892695665;-0.0012830436462536454;-0.0776785980527699;-0.007486412140321747;-0.009463809249705581;0.015637815604836278;
19163110-f27d-44fd-9ea7-e2e2b02a15df;1514168502.436;;0.9908003807067871;0.07782807946205139;-0.11071321368217468;;-105.47048950195312;-62.581939697265625;-22.2763671875;;;;0.13133793698235602;;1.4595167582106654;0.0025773157831281424;0.0031655719503760338;0.02207491360604763;-0.07790686649774271;0.015772837872103297;-0.0022469090116998534;0.019278356814974598;
19163110-f27d-44fd-9ea7-e2e2b02a15df;1514168502.486;;0.9908059239387512;0.07795342803001404;-0.11057543754577637;;-105.12124633789062;-62.581939697265625;-21.263809204101562;;;;0.1318750354249574;;1.459654714431982;0.00022193480981513858;-0.0026970827020704746;0.013422769494354725;-0.0780325949384804;-0.013619139498556216;0.015483352261611683;0.02197587268311586;
19163110-f27d-44fd-9ea7-e2e2b02a15df;1514168502.536;;0.9901534914970398;0.07837757468223572;-0.11598721146583557;;-105.81973266601562;-61.17559814453125;-21.9388427734375;;;;0.1373223568529802;;1.4541871135171471;0.009800744242966175;-0.016655782237648964;0.006581728346645832;-0.07845804549991707;0.005886651273511148;0.0025201493395419832;0.03145166615772679;
19163110-f27d-44fd-9ea7-e2e2b02a15df;1514168502.586;;0.9906275272369385;0.0755055621266365;-0.11382453143596649;;-104.94662475585938;-63.46089172363281;-21.77008056640625;;;;0.13793949213053228;;1.45639657258436;0.0010564406402409077;0.0018717532511800528;-0.00279837753623724;-0.07557749360520391;-0.011264106146599145;-0.0034794199641885247;0.030225546791854314;
19163110-f27d-44fd-9ea7-e2e2b02a15df;1514168502.636;7.46905517578125;0.990379273891449;0.07842692732810974;-0.1140095591545105;;-106.69282531738281;-61.702972412109375;-24.807769775390625;;0;;0.14132568744255034;;1.4561837615183288;0.0003739439125638455;0.0018495556432753801;0.00323082716204226;-0.0785075488945291;0.002161155224599302;-0.017674334890419873;0.033658894069184465;
19163110-f27d-44fd-9ea7-e2e2b02a15df;1514168502.686;;0.990379273891449;0.07842692732810974;-0.1140095591545105;;-108.26441955566406;-63.28511047363281;-23.626449584960938;;;;0.14132568744255034;;1.4561837615183288;0.0003739439125638455;0.0018495556432753801;0.00323082716204226;-0.0785075488945291;-0.011280884061466646;-0.026056634421444274;0.027558923592357974;
19163110-f27d-44fd-9ea7-e2e2b02a15df;1514168502.736;;0.9904454946517944;0.07751897722482681;-0.11405489593744278;;-105.81973266601562;-63.636688232421875;-21.9388427734375;;;;0.14167143403538385;;1.456146184714399;0.001970877405256033;-0.000019585615518735722;0.008616628125309944;-0.07759682436880282;-0.0002125202549883232;-0.022476546968050754;0.022729547271608284;
19163110-f27d-44fd-9ea7-e2e2b02a15df;1514168502.786;;0.990482747554779;0.07786048948764801;-0.11349786072969437;;-104.42277526855469;-63.98826599121094;-21.9388427734375;;;;0.14249303487758092;;1.4567055159918512;-0.008137114346027374;-0.0011850734008476138;0.010119606740772724;-0.07793937352451433;-0.01480131670644239;-0.004751079384701361;0.012082761865689504;
19163110-f27d-44fd-9ea7-e2e2b02a15df;1514168502.836;;0.9905261397361755;0.07757975161075592;-0.11331063508987427;;-106.16897583007812;-64.33985900878906;-21.9388427734375;;;;0.14259363871938852;;1.4568970403080663;-0.0005817122291773558;-0.007236733566969633;0.011534459888935089;-0.0776577828149706;0.002310292245643739;-0.005863748088136467;0.016858608648528603;
19163110-f27d-44fd-9ea7-e2e2b02a15df;1514168502.886;;0.9904455542564392;0.07780367136001587;-0.11386039853096008;;-104.77201843261719;-61.87876892089844;-22.6138916015625;;;;0.14297084803124963;;1.4563399967462913;-0.005750116426497698;-0.0027762032113969326;0.009307216852903366;-0.07788238090864473;0.002286057479724018;-0.0034738273258993584;0.020512731980226323;
19163110-f27d-44fd-9ea7-e2e2b02a15df;1514168502.936;;0.990426242351532;0.07786745578050613;-0.11398513615131378;;-106.69282531738281;-63.10931396484375;-21.095046997070312;;;;0.14326989358663128;;1.4562134842835912;0.0009831066709011793;-0.005891741719096899;0.009721835143864155;-0.07794635894871244;-0.009962619321877423;0.003617638024763637;0.021834991461450667;
19163110-f27d-44fd-9ea7-e2e2b02a15df;1514168502.986;;0.990425169467926;0.07757684588432312;-0.11419238895177841;;-105.99435424804688;-62.75773620605469;-22.44512939453125;;;;0.14380506804505136;;1.45600684394589;0.002159100491553545;-0.00731011014431715;-0.0057264394126832485;-0.07765486550268541;0.0033973946026140843;-0.016487363992571554;0.03245913999810377;
19163110-f27d-44fd-9ea7-e2e2b02a15df;1514168503.036;;0.9904078245162964;0.07724706083536148;-0.11456535756587982;;-105.99435424804688;-64.86723327636719;-22.44512939453125;;;;0.14405603708555267;;1.4556332308425504;0.0036107334308326244;0.00650842534378171;0.0015588401583954692;-0.07732409389810886;-0.013772004945126764;-0.02247734591637778;0.033651703534241253;
19163110-f27d-44fd-9ea7-e2e2b02a15df;1514168503.086;;0.9904513955116272;0.07697723060846329;-0.11437081545591354;;-105.99435424804688;-64.86723327636719;-22.10760498046875;;;;0.14423707245742734;;1.4558320759017114;0.007839699275791645;0.0006289746379479766;-0.0072416760958731174;-0.07705345231816382;0.004620584491287478;-0.029558424938789466;0.029893450603921432;
19163110-f27d-44fd-9ea7-e2e2b02a15df;1514168503.136;;0.9904465079307556;0.07713652402162552;-0.11430461704730988;;-106.86744689941406;-62.2303466796875;-23.626449584960938;;;;0.14480555444141044;;1.455897477920404;0.00819538813084364;0.010403145104646683;-0.003172872820869088;-0.07721322735749456;-0.006388124506773069;-0.036735377760444006;0.026218288299612084;
19163110-f27d-44fd-9ea7-e2e2b02a15df;1514168503.186;;0.9904037714004517;0.07776782661676407;-0.11424773931503296;;-106.69282531738281;-62.75773620605469;-22.44512939453125;;;;0.1451881894663954;;1.4559492345740481;0.0022109770216047764;0.004034539218991995;0.004308134317398071;-0.07784643147457425;0.0034868768152407467;-0.01891084058454366;0.020339626509371173;
19163110-f27d-44fd-9ea7-e2e2b02a15df;1514168503.236;;0.9904471039772034;0.07788853347301483;-0.11378903687000275;;-105.99435424804688;-64.1640625;-23.795211791992188;;;;0.14564986062254495;;1.456411284548295;0.0024575728457421064;-0.000572246965020895;0.0011486257426440716;-0.07796750532749726;-0.007488276353084802;0.00717934966663561;0.01944853280863066;
19163110-f27d-44fd-9ea7-e2e2b02a15df;1514168503.286;;0.9904237985610962;0.07789047062397003;-0.11399035900831223;;-106.69282531738281;-64.51565551757812;-22.78265380859375;;;;0.14582384555441155;;1.4562080005215523;-0.00784932542592287;-0.0022068803664296865;0.010978234931826591;-0.07796944813314964;-0.008745022071493195;0.004814196302536239;0.023053920292379935;
19163110-f27d-44fd-9ea7-e2e2b02a15df;1514168503.336;;0.9904178977012634;0.07810729742050171;-0.11389265209436417;;-105.81973266601562;-62.581939697265625;-22.951400756835938;;;;0.14642038100122176;;1.456304685753997;-0.0004887541872449219;-0.005811150651425123;0.0019236232619732618;-0.07818693319604912;-0.005054946065079402;0.0024410534551666295;0.020598752083435885;
19163110-f27d-44fd-9ea7-e2e2b02a15df;1514168503.386;;0.9904205203056335;0.07796680182218552;-0.11396630853414536;;-105.29586791992188;-63.10931396484375;-22.78265380859375;;;;0.14655820346024473;;1.4562315868077338;0.007839948870241642;0.0032252068631350994;-0.010408112779259682;-0.07804601304685072;-0.005092230320340512;-0.0034834147058236437;0.02416152898974389;
19163110-f27d-44fd-9ea7-e2e2b02a15df;1514168503.436;;0.9904425144195557;0.07822802662849426;-0.1135958805680275;;-106.51821899414062;-62.581939697265625;-22.951400756835938;;;;0.14732098950478623;;1.4566032485002687;0.010869750753045082;0.0023231226950883865;-0.008123500272631645;-0.07830803461329318;-0.010068879449371584;-0.016536099840520006;0.03128788175068692;
19163110-f27d-44fd-9ea7-e2e2b02a15df;1514168503.486;;0.9904425144195557;0.07822802662849426;-0.1135958805680275;;-105.99435424804688;-63.10931396484375;-22.44512939453125;;;;0.14732098950478623;;1.4566032485002687;0.010869750753045082;0.0023231226950883865;-0.008123500272631645;-0.07830803461329318;-0.0015233281435253242;-0.02362516834620193;0.033604032950728835;
19163110-f27d-44fd-9ea7-e2e2b02a15df;1514168503.536;;0.9904160499572754;0.07826562225818634;-0.11380062252283096;;-106.34359741210938;-63.46089172363281;-23.795211791992188;;;;0.14784431604638698;;1.4563961799108625;-0.007902603596448898;0.002682260237634182;0.01333673857152462;-0.07834574483955174;-0.0014711301861597712;-0.026029470178325468;0.026321885266016167;
19163110-f27d-44fd-9ea7-e2e2b02a15df;1514168503.586;;0.9904489517211914;0.07855243980884552;-0.11331592500209808;;-105.99435424804688;-62.75773620605469;-22.10760498046875;;;;0.14815575449351484;;1.4568829704491333;-0.006119663827121258;0.002273357706144452;0.01462214719504118;-0.07863345180501899;-0.008765528411886804;-0.02013855784707019;0.020361198114200816;
19163110-f27d-44fd-9ea7-e2e2b02a15df;1514168503.636;;0.990530252456665;0.07815635949373245;-0.11287771910429001;;-105.81973266601562;-61.527191162109375;-23.963973999023438;;;;0.14829796895013989;;1.4573289441024149;-0.0029356544837355614;-0.006745230406522751;0.012291823513805866;-0.0782361492232461;-0.000195742340120824;-0.017730261273311537;0.021572403777968853;
19163110-f27d-44fd-9ea7-e2e2b02a15df;1514168503.686;;0.9904899001121521;0.07814294099807739;-0.11324108392000198;;-103.72428894042969;-62.2303466796875;-22.951400756835938;;;;0.14903297966049056;;1.4569622250203733;-0.0028189481236040592;-0.00636559072881937;0.014074225910007954;-0.07822268767932845;-0.009962619321877423;0.003617638024763637;0.021834991461450667;
19163110-f27d-44fd-9ea7-e2e2b02a15df;1514168503.736;;0.9904661178588867;0.07809080928564072;-0.11348395049571991;;-105.64511108398438;-62.40614318847656;-22.78265380859375;;;;0.14917881508845587;;1.456717481692733;0.003842302830889821;-0.0067101940512657166;-0.006358636077493429;-0.07817039967973749;-0.00019760655288387949;-0.0070307452778091886;0.024108532084051313;
19163110-f27d-44fd-9ea7-e2e2b02a15df;1514168503.786;;0.9904194474220276;0.07795429229736328;-0.11398434638977051;;-105.64511108398438;-62.40614318847656;-22.78265380859375;;;;0.1495231259134673;;1.4562134917743952;0.004087376873940229;-0.004803658463060856;-0.008208071812987328;-0.07803346143555705;0.0034533209855057484;-0.022459769053183254;0.023928502394361954;
19163110-f27d-44fd-9ea7-e2e2b02a15df;1514168503.836;;0.990428626537323;0.07781603187322617;-0.11399901658296585;;-105.99435424804688;-62.75773620605469;-22.44512939453125;;;;0.1498185837360355;;1.4561999286727016;0.00680952426046133;0.004764530807733536;-0.01301510725170374;-0.07789477798133788;-0.0026868632237809433;-0.031981901530761574;0.023841417026716365;
19163110-f27d-44fd-9ea7-e2e2b02a15df;1514168503.886;;0.990493893623352;0.07785550504922867;-0.11340353637933731;;-106.16897583007812;-62.93351745605469;-23.626449584960938;;;;0.15040221090208727;;1.4568007932021028;0.007186776027083397;0.005381179973483086;-0.005630212370306253;-0.07793437497511017;-0.005135107213890787;-0.024858478247017625;0.025135979632603882;
19163110-f27d-44fd-9ea7-e2e2b02a15df;1514168503.936;;0.990488588809967;0.07792085409164429;-0.11340513080358505;;-105.12124633789062;-63.28511047363281;-22.6138916015625;;;;0.1506513998061886;;1.4567985937757653;0.0036673119757324457;0.010381757281720638;0.008134771138429642;-0.0779999230363357;-0.007581486991237576;-0.02249092803793718;0.025169002830120864;
19163110-f27d-44fd-9ea7-e2e2b02a15df;1514168503.986;;0.9904657006263733;0.07807443290948868;-0.11349911987781525;;-106.16897583007812;-63.636688232421875;-22.6138916015625;;;;0.15089676311484904;;1.4567023189103272;-0.0010705719469115138;0.002720846561715007;0.0010113344760611653;-0.07815397108374611;-0.005075452405473012;-0.004680771931923269;0.021729796598392536;
19163110-f27d-44fd-9ea7-e2e2b02a15df;1514168504.036;;0.9904762506484985;0.07792586088180542;-0.11350912600755692;;-106.69282531738281;-63.10931396484375;-23.120162963867188;;;;0.15145005811685935;;1.4566935473927807;0.00013957793998997658;0.0010994045296683908;0.00875755213201046;-0.0780049439336743;-0.0025973810111542812;-0.004687163518539459;0.018094848026543382;
19163110-f27d-44fd-9ea7-e2e2b02a15df;1514168504.086;;0.9905175566673279;0.07781410962343216;-0.11322446912527084;;-106.16897583007812;-63.98826599121094;-21.601318359375;;;;0.15166469197446922;;1.4569819329727949;0.00594231765717268;-0.008081442676484585;-0.0035206021275371313;-0.07789285039197318;-0.0014524880585292165;0.009622799966783311;0.031550735750277746;
19163110-f27d-44fd-9ea7-e2e2b02a15df;1514168504.136;;0.9905596375465393;0.07736282795667648;-0.11316630989313126;;-106.69282531738281;-62.75773620605469;-22.78265380859375;;;;0.15234508827727647;;1.4570446861773718;0.011897040531039238;0.006224822252988815;-0.012032009661197662;-0.077440204940711;-0.010040916257925752;0.0012804478521100976;0.031483624090807745;
19163110-f27d-44fd-9ea7-e2e2b02a15df;1514168504.186;;0.9905791282653809;0.07729309797286987;-0.11304380744695663;;-105.64511108398438;-63.81248474121094;-23.457687377929688;;;;0.1525604150169218;;1.4571689759082271;-0.002755571622401476;-0.002463985001668334;-0.008629747666418552;-0.07737026387253358;0.004652276108259421;-0.003422694632969837;0.031389880820436956;
19163110-f27d-44fd-9ea7-e2e2b02a15df;1514168504.236;;0.9905439019203186;0.0774279460310936;-0.11325902491807938;;-105.81973266601562;-61.527191162109375;-22.951400756835938;;;;0.15302072126745264;;1.4569505013510686;0.005076779052615166;0.0024975871201604605;-0.007804243825376034;-0.07750552179672064;-0.012500345524613928;-0.022497319624553373;0.02760153416979924;
19163110-f27d-44fd-9ea7-e2e2b02a15df;1514168504.286;;0.9905131459236145;0.07763290405273438;-0.11338839679956436;;-104.42277526855469;-62.93351745605469;-22.6138916015625;;;;0.15347792766079546;;1.4568180692669916;-0.003116860520094633;0.008457186631858349;0.015594824217259884;-0.07771109780535586;0.0022003036926234666;-0.02839302564577079;0.026285399959082082;
19163110-f27d-44fd-9ea7-e2e2b02a15df;1514168504.336;;0.990515947341919;0.07783268392086029;-0.11322654038667679;;-106.69282531738281;-64.51565551757812;-23.120162963867188;;;;0.1538668387229508;;1.4569796810341493;-0.002707713283598423;0.0025506161618977785;0.0034700469113886356;-0.0779114810737782;-0.008754343135308472;-0.01301193877001815;0.020439495050249144;
19163110-f27d-44fd-9ea7-e2e2b02a15df;1514168504.386;;0.9905425906181335;0.07737680524587631;-0.11330604553222656;;-105.47048950195312;-62.2303466796875;-22.2763671875;;;;0.15405358898690266;;1.4569034936181162;-0.015933183953166008;-0.008635959587991238;0.017282528802752495;-0.07745422192732261;0.0023196133094590165;-0.017755827619776298;0.013100089402099772;
19163110-f27d-44fd-9ea7-e2e2b02a15df;1514168504.436;;0.9904058575630188;0.07769627124071121;-0.11427855491638184;;-105.29586791992188;-62.75773620605469;-22.44512939453125;;;;0.15460904873409975;;1.4559187660696578;-0.006519102491438389;-0.005079695954918861;0.014760776422917843;-0.07777465597753969;-0.0050642671288946796;-0.015385081617387759;0.017984326841305097;
19163110-f27d-44fd-9ea7-e2e2b02a15df;1514168504.486;;0.9903718829154968;0.0781060978770256;-0.11429283022880554;;-105.81973266601562;-62.2303466796875;-23.288925170898438;;;;0.15483694038804496;;1.4559006430444477;0.001434081350453198;-0.01060122437775135;0.006443656049668789;-0.07818573483017699;-0.002629072628126224;-0.001104679220164868;0.022971362298587476;
19163110-f27d-44fd-9ea7-e2e2b02a15df;1514168504.536;6.1585693359375;0.9905020594596863;0.07688944041728973;-0.11398999392986298;;-106.16897583007812;-62.93351745605469;-22.6138916015625;;;;0.16176575292604697;;1.4562173369263678;-0.006645850837230682;0.0017238510772585869;0.0038214586675167084;-0.07696540285552284;-0.014877749429727664;-0.011844142632018405;0.020469855086676047;
19163110-f27d-44fd-9ea7-e2e2b02a15df;1514168504.586;;0.9905088543891907;0.07767374813556671;-0.11339783668518066;;-105.29586791992188;-62.0545654296875;-23.120162963867188;;;;0.16234720491058727;;1.4568081790685572;0.01792929880321026;-0.00014383869711309671;-0.0031639861408621073;-0.07775206778615328;-0.0038690404316671172;0.0012764531104749789;0.02541960628869732;
19163110-f27d-44fd-9ea7-e2e2b02a15df;1514168504.636;;0.9906570315361023;0.07631704956293106;-0.11302372068166733;;-105.29586791992188;-63.81248474121094;-21.432571411132812;;;;0.1647933373071124;;1.4571978503722025;0.009297202341258526;0.0038526186253875494;-0.018644319847226143;-0.07639133013720115;0.0009006810806647984;-0.02835867086770877;0.03596359367653904;
19163110-f27d-44fd-9ea7-e2e2b02a15df;1514168504.686;;0.9906824827194214;0.07676062732934952;-0.11249937117099762;;-105.47048950195312;-62.581939697265625;-21.263809204101562;;;;0.16524769246168552;;1.4577232574740653;0.005380795802921057;0.006033564452081919;-0.014392685145139694;-0.07683621175424703;-0.012517123439481427;-0.02724360531929259;0.02875867766343867;
19163110-f27d-44fd-9ea7-e2e2b02a15df;1514168504.736;;0.990646481513977;0.07707572728395462;-0.11260072141885757;;-105.81973266601562;-63.98826599121094;-22.6138916015625;;;;0.16546231736340622;;1.457618181922452;0.01197805441915989;0.010021435096859932;-0.0062194447964429855;-0.0771522458107885;0.003443999921690471;-0.028398618284059957;0.023863254947655014;
19163110-f27d-44fd-9ea7-e2e2b02a15df;1514168504.786;;0.9905756115913391;0.07730907946825027;-0.11306329071521759;;-105.47048950195312;-63.98826599121094;-22.6138916015625;;;;0.16567906748660105;;1.4571491648747572;0.005045133642852306;0.003211560659110546;-0.005131321493536234;-0.07738629466639017;0.0022506374372259644;-0.02009781148239198;0.02153938058045187;
19163110-f27d-44fd-9ea7-e2e2b02a15df;1514168504.836;;0.9906431436538696;0.07721909880638123;-0.1125313863158226;;-106.69282531738281;-64.86723327636719;-22.10760498046875;;;;0.1659733312008212;;1.457686900103764;-0.0053679076954722404;-0.0025578427594155073;0.011594477109611034;-0.07729604809663995;-0.016048741361035505;-0.0011773835179240313;0.015753396796145718;
19163110-f27d-44fd-9ea7-e2e2b02a15df;1514168504.886;;0.9906230568885803;0.07691662013530731;-0.11291418969631195;;-105.47048950195312;-62.93351745605469;-21.9388427734375;;;;0.1660033210433632;;1.4573031446467297;0.0024646136444061995;-0.00361339352093637;0.008040466345846653;-0.07699266124088767;0.00599291140100531;-0.0011006844785297492;0.016900420277642846;
19163110-f27d-44fd-9ea7-e2e2b02a15df;1514168504.936;;0.9907382130622864;0.07707537710666656;-0.11179063469171524;;-105.29586791992188;-62.0545654296875;-22.44512939453125;;;;0.1664440301281924;;1.4584358787916472;0.00610320083796978;-0.0021394717041403055;0.004490825813263655;-0.07715189777798445;-0.008739429433204028;0.002433862920223416;0.021818479862692176;
19163110-f27d-44fd-9ea7-e2e2b02a15df;1514168504.986;;0.9906922578811646;0.07733197510242462;-0.11202085018157959;;-106.69282531738281;-63.46089172363281;-21.77008056640625;;;;0.16662559806445562;;1.4582012613488962;-0.00030526521732099354;-0.0018925248878076673;0.010336295701563358;-0.07740926414532683;0.0022170816074909656;-0.011759454109353884;0.0276774342608665;
19163110-f27d-44fd-9ea7-e2e2b02a15df;1514168505.036;;0.990731418132782;0.07714676111936569;-0.11180207878351212;;-106.69282531738281;-62.75773620605469;-22.78265380859375;;;;0.1670693714615767;;1.458423705196263;-0.0010005388176068664;-0.004453892353922129;-0.019591277465224266;-0.07722349082195945;-0.00025912557406470985;-0.016508935597401197;0.030050843424345115;
19163110-f27d-44fd-9ea7-e2e2b02a15df;1514168505.086;;0.9907791018486023;0.07694984972476959;-0.11151498556137085;;-107.56593322753906;-62.93351745605469;-20.926284790039062;;;;0.1672650692234182;;1.4587152014492175;0.006291266996413469;0.003677586792036891;-0.014186869375407696;-0.07702599619783702;0.0058605522948283716;-0.037883200190268154;0.026170617716099666;
19163110-f27d-44fd-9ea7-e2e2b02a15df;1514168505.136;;0.9905778169631958;0.07734158635139465;-0.11302153766155243;;-105.64511108398438;-64.1640625;-22.44512939453125;;;;0.16753203646594997;;1.4571910238908818;0.002601495711132884;0.0074972910806536674;0.020003890618681908;-0.07741889786810724;-0.005123921937312454;-0.03556278793248212;0.021390509875516443;
19163110-f27d-44fd-9ea7-e2e2b02a15df;1514168505.186;;0.9906448721885681;0.07751647382974625;-0.11231166124343872;;-107.04206848144531;-62.0545654296875;-22.10760498046875;;;;0.16771388714574792;;1.457906071814448;0.009934942238032818;0.012159430421888828;-0.00409770617261529;-0.07759431208879053;-0.012427641226854766;-0.023723438990425855;0.017913753072417996;
19163110-f27d-44fd-9ea7-e2e2b02a15df;1514168505.236;;0.9906251430511475;0.07753095030784607;-0.11247579753398895;;-104.94662475585938;-63.81248474121094;-22.44512939453125;;;;0.16793248510787132;;1.4577402640428543;0.0018675493774935603;0.009032166562974453;0.0020021938253194094;-0.07760883165749026;0.002261822713804297;-0.01891483532617878;0.020343088618788276;
19163110-f27d-44fd-9ea7-e2e2b02a15df;1514168505.286;;0.9906224012374878;0.07691818475723267;-0.1129193902015686;;-107.74055480957031;-63.46089172363281;-22.44512939453125;;;;0.16820906459591206;;1.4572978764151305;0.003533443436026573;-0.006788786966353655;-0.011683945544064045;-0.07699423107091709;-0.002604837862206503;0.0024490429384368675;0.02059182786460168;
19163110-f27d-44fd-9ea7-e2e2b02a15df;1514168505.336;;0.9906224012374878;0.07691818475723267;-0.1129193902015686;;-106.16897583007812;-62.2303466796875;-22.951400756835938;;;;0.16820906459591206;;1.4572978764151305;0.003533443436026573;-0.006788786966353655;-0.011683945544064045;-0.07699423107091709;0.012052934461480615;-0.012934440782296844;0.022799322092168357;
19163110-f27d-44fd-9ea7-e2e2b02a15df;1514168505.386;;0.990548849105835;0.07675755769014359;-0.11367231607437134;;-105.64511108398438;-62.75773620605469;-21.77008056640625;;;;0.16864616064729465;;1.4565392304368794;-0.007867499254643917;0.0029848767444491386;-0.012243172153830528;-0.0768331293197343;-0.007547931161502577;-0.030829285410975276;0.019030949149706235;
19163110-f27d-44fd-9ea7-e2e2b02a15df;1514168505.436;;0.9906300902366638;0.0770290344953537;-0.11277651786804199;;-107.21669006347656;-62.93351745605469;-22.6138916015625;;;;0.16893976557181536;;1.457441126160063;0.003525790525600314;0.002637105295434594;-0.0022747369948774576;-0.07710541028757906;0.007107976949421487;-0.029569610215367796;0.0250491605810673;
19163110-f27d-44fd-9ea7-e2e2b02a15df;1514168505.486;;0.9905962944030762;0.07707180082798004;-0.11304382979869843;;-105.12124633789062;-63.28511047363281;-22.951400756835938;;;;0.16929143980950503;;1.4571709043296677;0.01137208566069603;-0.005523345898836851;0.005225238390266895;-0.0771483089760155;-0.018610702329691732;-0.01895877748416509;0.026448651733903938;
19163110-f27d-44fd-9ea7-e2e2b02a15df;1514168505.536;;0.9905565977096558;0.07687635719776154;-0.11352404206991196;;-105.64511108398438;-62.75773620605469;-22.78265380859375;;;;0.16912316693552987;;1.4566878584570844;0.009489198215305805;-0.0021235367748886347;-0.022645458579063416;-0.07695228084904318;-0.006345247613222793;-0.00941667129841118;0.026518426554464014;
19163110-f27d-44fd-9ea7-e2e2b02a15df;1514168505.586;;0.990553081035614;0.07679147273302078;-0.11361194401979446;;-106.69282531738281;-64.51565551757812;-22.44512939453125;;;;0.16933848688398456;;1.4565998729088199;0.0032365925144404173;-0.0020691826939582825;-0.0014241071185097098;-0.07686714921131484;-0.014942996876434606;-0.011810586802283406;0.028935245243710925;
19163110-f27d-44fd-9ea7-e2e2b02a15df;1514168505.636;;0.9905661344528198;0.07660392671823502;-0.11362423747777939;;-106.16897583007812;-61.87876892089844;-21.601318359375;;;;0.1695641098457722;;1.4565891196630647;0.004016937222331762;0.004969563335180283;-0.0016407009679824114;-0.07667904554296491;0.0034738273258993584;-0.0034506578244156687;0.02534663567482915;
19163110-f27d-44fd-9ea7-e2e2b02a15df;1514168505.686;;0.9905087351799011;0.07697091996669769;-0.11387667059898376;;-105.81973266601562;-62.93351745605469;-23.626449584960938;;;;0.16994227184176608;;1.4563310235180236;-0.006423673592507839;0.0017186584882438183;0.0009005303727462888;-0.07704712832354654;0.007124754864288986;-0.018879681599789734;0.025166605985139794;
19163110-f27d-44fd-9ea7-e2e2b02a15df;1514168505.736;;0.9904787540435791;0.07727359980344772;-0.113932304084301;;-104.94662475585938;-62.75773620605469;-23.795211791992188;;;;0.17028982049185395;;1.4562721461112729;0.0009305140702053905;0.0029571065679192543;0.0008798962808214128;-0.07735071025224885;0.0034384072834013043;-0.0022437132183917583;0.030197050968190465;
19163110-f27d-44fd-9ea7-e2e2b02a15df;1514168505.786;;0.9904733896255493;0.07710675150156021;-0.11409161239862442;;-105.81973266601562;-63.636688232421875;-22.6138916015625;;;;0.17047389061842622;;1.4561128014353328;0.00723773380741477;0.0015828266041353345;-0.010633719153702259;-0.07718335886587348;-0.011251056657257757;-0.012995959803477675;0.026493126524108263;
19163110-f27d-44fd-9ea7-e2e2b02a15df;1514168505.836;;0.9904730319976807;0.07697445899248123;-0.11418444663286209;;-106.51821899414062;-62.93351745605469;-22.2763671875;;;;0.17052347637348447;;1.4560202621330833;0.006978744175285101;0.0020965870935469866;0.0028410889208316803;-0.07705067631378265;0.00102744754855257;-0.01891403637785176;0.021555892179210362;
19163110-f27d-44fd-9ea7-e2e2b02a15df;1514168505.886;;0.9904213547706604;0.07710124552249908;-0.114546999335289;;-105.64511108398438;-64.1640625;-22.10760498046875;;;;0.1708485055340912;;1.4556530734999589;-0.004764568991959095;-0.0025468021631240845;0.0021050572395324707;-0.07717783636596637;0.0034700989003732473;-0.011769840437605194;0.02404594779843445;
19163110-f27d-44fd-9ea7-e2e2b02a15df;1514168505.936;;0.9904858469963074;0.07714851200580597;-0.1139557883143425;;-106.34359741210938;-63.10931396484375;-22.10760498046875;;;;0.17113503325697313;;1.456249563993563;0.0037616121117025614;-0.0010987053392454982;-0.00526105472818017;-0.07722524534269966;-0.00019760655288387949;-0.0070307452778091886;0.024108532084051313;
19163110-f27d-44fd-9ea7-e2e2b02a15df;1514168505.986;;0.9904527068138123;0.0774255022406578;-0.11405636370182037;;-105.81973266601562;-63.28511047363281;-22.2763671875;;;;0.17150124586013626;;1.4561455458239911;-0.015461791306734085;-0.0017113895155489445;0.0003326686273794621;-0.07750307155718736;0.009571134641635774;-0.021247231808870178;0.025133582787622812;
19163110-f27d-44fd-9ea7-e2e2b02a15df;1514168506.036;;0.9904763698577881;0.07730558514595032;-0.11393167078495026;;-105.12124633789062;-63.636688232421875;-22.2763671875;;;;0.17177951350515677;;1.456272510797614;0.011186852119863033;0.007823207415640354;-0.008306441828608513;-0.07738278774775834;-0.019832028005602072;-0.03441816129596606;0.022654446128868046;
19163110-f27d-44fd-9ea7-e2e2b02a15df;1514168506.086;;0.9904885292053223;0.0769255980849266;-0.11408262699842453;;-106.51821899414062;-64.69143676757812;-21.9388427734375;;;;0.17159805881538137;;1.4561234868414419;0.010076002217829227;-0.0020049463491886854;-0.003013350535184145;-0.07700166860895617;0.004652276108259421;-0.02125362339548637;0.027566114127301186;
19163110-f27d-44fd-9ea7-e2e2b02a15df;1514168506.136;;0.9905291199684143;0.07670175284147263;-0.11388150602579117;;-106.34359741210938;-62.75773620605469;-23.120162963867188;;;;0.17223749896814725;;1.4563285335603156;0.005900373682379723;-0.0031238782685250044;-0.0037179612554609776;-0.07677716123840526;-0.019768644771658184;-0.005921272367682178;0.020548950971051402;
19163110-f27d-44fd-9ea7-e2e2b02a15df;1514168506.186;;0.9904983639717102;0.07671424746513367;-0.11414036154747009;;-107.56593322753906;-63.28511047363281;-22.951400756835938;;;;0.17222497844170684;;1.4560670954649795;0.0007584074628539383;-0.00110694020986557;0.0010575121268630028;-0.07678969001239816;-0.00019947076564693494;-0.008218515123984528;0.024095482594709925;
19163110-f27d-44fd-9ea7-e2e2b02a15df;1514168506.236;;0.9905389547348022;0.07669228315353394;-0.11380188167095184;;-105.81973266601562;-63.636688232421875;-22.951400756835938;;;;0.17251159853992823;;1.4564090069986306;0.0068517872132360935;-0.0020767992828041315;-0.0015698435017839074;-0.07676766068808709;0.004680239299705253;-0.00938071862369511;0.026487267569710087;
19163110-f27d-44fd-9ea7-e2e2b02a15df;1514168506.286;;0.9905288219451904;0.07687224447727203;-0.11376893520355225;;-106.16897583007812;-63.28511047363281;-22.951400756835938;;;;0.1727184258294432;;1.4564406701598516;-0.004154883790761232;0.00856171827763319;-0.004852830432355404;-0.0769481537802612;-0.005120193511786344;-0.02724360531929259;0.02269119775191114;
19163110-f27d-44fd-9ea7-e2e2b02a15df;1514168506.336;;0.9903941750526428;0.07691594958305359;-0.11490535736083984;;-105.47048950195312;-61.87876892089844;-22.2763671875;;;;0.17261428791871605;;1.455292905607877;-0.0012127016671001911;0.005267884582281113;-0.006295275408774614;-0.07699199546992858;0.00589410812456337;-0.022446985879950875;0.02513091962653273;
19163110-f27d-44fd-9ea7-e2e2b02a15df;1514168506.386;;0.990351140499115;0.07680927962064743;-0.11534643173217773;;-105.81973266601562;-63.98826599121094;-21.9388427734375;;;;0.17271796677543183;;1.4548484955438217;-0.0004983204416930676;0.0009189958218485117;-0.0029245049227029085;-0.07688500456564275;-0.013669473243158713;-0.016586433585122504;0.021623536470898375;
19163110-f27d-44fd-9ea7-e2e2b02a15df;1514168506.436;;0.9904013276100159;0.07626546174287796;-0.11527665704488754;;-106.86744689941406;-63.636688232421875;-21.263809204101562;;;;0.1730610718399345;;1.4549238270578253;0.008713618852198124;-0.005174763035029173;-0.00525253638625145;-0.07633958420951294;-0.0063154202090139056;0.009587646240394265;0.026727218383926228;
19163110-f27d-44fd-9ea7-e2e2b02a15df;1514168506.486;;0.9905076026916504;0.07633016258478165;-0.11431657522916794;;-106.16897583007812;-62.93351745605469;-22.6138916015625;;;;0.17342175376353364;;1.4558925884476825;0.0025800999719649553;0.0017032924806699157;0.0058112675324082375;-0.07640447858091477;0.0010255833357895147;0.009616408380167122;0.027915787178428592;
19163110-f27d-44fd-9ea7-e2e2b02a15df;1514168506.536;;0.9904947876930237;0.0775156021118164;-0.1136278584599495;;-106.34359741210938;-62.40614318847656;-23.120162963867188;;;;0.17684907737171265;;1.4565773530889545;0.005659935064613819;0.0015706979902461171;0.009730730205774307;-0.07759344275083185;-0.0013592774203764432;-0.026086994457871177;0.011809787853956382;
19163110-f27d-44fd-9ea7-e2e2b02a15df;1514168506.586;;0.9905327558517456;0.07694587111473083;-0.1136845275759697;;-105.64511108398438;-63.81248474121094;-22.44512939453125;;;;0.17709962763616305;;1.45652522653341;-0.00000847293995320797;-0.00898322369903326;-0.0030909727793186903;-0.07702199953044342;0.002306563820117628;0.0036479980611905404;0.01938168746526967;
19163110-f27d-44fd-9ea7-e2e2b02a15df;1514168506.636;;0.9907225966453552;0.07686851173639297;-0.11207086592912674;;-105.99435424804688;-63.10931396484375;-22.78265380859375;;;;0.1785499818352227;;1.4581548347109383;-0.0727386400103569;-0.018091650679707527;0.12015794962644577;-0.07694441578419554;-0.0050978229586296775;-0.05459586761106042;0.013925669340024337;
19163110-f27d-44fd-9ea7-e2e2b02a15df;1514168506.686;;0.9907423257827759;0.07678071409463882;-0.1119568794965744;;-104.77201843261719;-63.28511047363281;-20.588760375976562;;;;0.17858422224822307;;1.458270649753263;-0.07942642271518707;-0.025801096111536026;0.12471318244934082;-0.0768563586820114;-0.002636529479178446;-0.08906675949661004;0.005074919773254996;
19163110-f27d-44fd-9ea7-e2e2b02a15df;1514168506.736;;0.9908491373062134;0.07634453475475311;-0.11130804568529129;;-105.12124633789062;-61.527191162109375;-21.9388427734375;;;;0.17885452298275634;;1.458929301481707;0.004786831326782703;-0.00012687838170677423;-0.02914918214082718;-0.07641889257648973;-0.00748081950203258;-0.13666064396963412;-0.012363991676801871;
19163110-f27d-44fd-9ea7-e2e2b02a15df;1514168506.786;;0.9909220933914185;0.07614046335220337;-0.11079725623130798;;-106.69282531738281;-63.46089172363281;-22.44512939453125;;;;0.17899123735884362;;1.4594465404047097;0.009032134898006916;0.0031289460603147745;-0.03606853634119034;-0.07621422549761443;-0.001342499505508944;-0.14021356717990885;-0.014839133593921515;
19163110-f27d-44fd-9ea7-e2e2b02a15df;1514168506.836;;0.991000235080719;0.07583300769329071;-0.11030793190002441;;-106.69282531738281;-63.81248474121094;-21.432571411132812;;;;0.17918649567341258;;1.4599429486907363;0.016522323712706566;0.008364989422261715;-0.029447317123413086;-0.07590587761725587;0.00235503335195707;-0.13189198772173824;-0.01596751494778809;
19163110-f27d-44fd-9ea7-e2e2b02a15df;1514168506.886;;0.9910820126533508;0.07553215324878693;-0.10977856069803238;;-106.16897583007812;-61.87876892089844;-22.6138916015625;;;;0.1793281108301899;;1.4604796522446004;0.023673228919506073;0.011458199471235275;-0.0306633822619915;-0.07560416158796593;-0.00014168016999221547;-0.13187600875519775;-0.009913883473928973;
19163110-f27d-44fd-9ea7-e2e2b02a15df;1514168506.936;;0.9911738634109497;0.07518167793750763;-0.10918854176998138;;-106.34359741210938;-62.40614318847656;-21.095046997070312;;;;0.17943458337380358;;1.4610778869222316;0.02728929929435253;-0.0003678402572404593;-0.04115628823637962;-0.07525268581850822;0.003567037964052132;-0.11048416729913628;-0.009689378994035292;
19163110-f27d-44fd-9ea7-e2e2b02a15df;1514168506.986;;0.9912450909614563;0.07503712922334671;-0.10863944888114929;;-106.16897583007812;-63.28511047363281;-20.926284790039062;;;;0.17965324141191882;;1.4616330462133995;0.03400816395878792;0.003896581707522273;-0.021609622985124588;-0.07510772529465358;0.0022730079903826297;-0.08905557422003171;0.0038517298845816023;
19163110-f27d-44fd-9ea7-e2e2b02a15df;1514168507.036;;0.991346001625061;0.07491087913513184;-0.10780318826436996;;-105.99435424804688;-63.81248474121094;-20.419998168945312;;;;0.17983445398142553;;1.4624776911809714;0.0175956841558218;-0.0029046533163636923;-0.011932485736906528;-0.07498111968210448;0.008433698540062932;-0.03674975883033043;0.010455304123542081;
19163110-f27d-44fd-9ea7-e2e2b02a15df;1514168507.086;;0.9913517236709595;0.07496121525764465;-0.10771483182907104;;-104.24815368652344;-62.75773620605469;-21.432571411132812;;;;0.1800804603002704;;1.4625664028288858;0.0030635076109319925;-0.0010476401075720787;-0.012860174290835857;-0.07503160028175489;-0.0050773166182360675;-0.029643113461453985;0.016618391518203456;
19163110-f27d-44fd-9ea7-e2e2b02a15df;1514168507.136;;0.9912112355232239;0.07529262453317642;-0.10877174884080887;;-105.99435424804688;-64.1640625;-20.757522583007812;;;;0.17998069129125707;;1.4614974544814172;-0.0019992131274193525;0.0003299367381259799;-0.012108437716960907;-0.07536394342901273;-0.00018455706354249122;-0.01654728511709834;0.02037611181630526;
19163110-f27d-44fd-9ea7-e2e2b02a15df;1514168507.186;;0.9908244609832764;0.0769679918885231;-0.11109764128923416;;-106.69282531738281;-63.46089172363281;-21.095046997070312;;;;0.18019716382686266;;1.4591362514985884;-0.007197214290499687;-0.009325776249170303;0.017530685290694237;-0.07704418839877919;-0.003910053112454338;0.010807374019650557;0.03278005090945832;
19163110-f27d-44fd-9ea7-e2e2b02a15df;1514168507.236;;0.9908452033996582;0.07693429291248322;-0.11093676835298538;;-105.81973266601562;-63.98826599121094;-20.588760375976562;;;;0.18014684448994522;;1.4592989153755496;-0.014786209911108017;-0.01559395994991064;0.017690299078822136;-0.0770103933682805;-0.008795355816095692;0.02623719674335165;0.03417288415956976;
19163110-f27d-44fd-9ea7-e2e2b02a15df;1514168507.286;;0.9908658862113953;0.07682672888040543;-0.11082620918750763;;-105.64511108398438;-63.10931396484375;-21.095046997070312;;;;0.18018462543407998;;1.4594114168612735;-0.023733315989375114;-0.014982863329350948;0.014436455443501472;-0.07690250600674578;0.0034179009430076943;0.026296318919551406;0.03897562886941866;
19163110-f27d-44fd-9ea7-e2e2b02a15df;1514168507.336;;0.9908930659294128;0.07679674029350281;-0.11060318350791931;;-105.99435424804688;-63.10931396484375;-21.77008056640625;;;;0.18046990222767556;;1.4596367498648959;-0.024554023519158363;-0.015608997084200382;0.04074840620160103;-0.07687243167269481;-0.010078200513186862;0.03696148013699173;0.043968523281099216;
19163110-f27d-44fd-9ea7-e2e2b02a15df;1514168507.386;;0.9909422993659973;0.07677145302295685;-0.11017940938472748;;-108.78826904296875;-63.46089172363281;-20.757522583007812;;;;0.18064752357312952;;1.4600646338025247;-0.031027138233184814;-0.014500346034765244;0.03249691426753998;-0.07684707046551367;-0.003992078474028778;0.035812858758840556;0.04877552904869224;
19163110-f27d-44fd-9ea7-e2e2b02a15df;1514168507.436;;0.9909658432006836;0.07675713300704956;-0.10997765511274338;;-104.59739685058594;-62.40614318847656;-21.432571411132812;;;;0.18089805765502343;;1.4602683530616813;-0.0259847491979599;-0.014775929041206837;0.023979054763913155;-0.07683270709340471;-0.013801832349335652;0.029842051594882905;0.04873797847732212;
19163110-f27d-44fd-9ea7-e2e2b02a15df;1514168507.486;;0.9915814995765686;0.0736064687371254;-0.1065276712179184;;-105.99435424804688;-64.1640625;-21.095046997070312;;;;0.18119341736822211;;1.4637747149754137;0.0050157466903328896;0.009904883801937103;-0.016259871423244476;-0.073673097018697;-0.0016333166965455967;0.013281983304552184;0.05577671323840155;
19163110-f27d-44fd-9ea7-e2e2b02a15df;1514168507.536;;0.9915925860404968;0.07354094088077545;-0.10647083073854446;;-104.77201843261719;-62.93351745605469;-20.926284790039062;;;;0.18144330258974325;;1.4638325669063301;-0.0014801907818764448;-0.003289478365331888;-0.002995652612298727;-0.07360739158014357;-0.010130398470552414;0.015591210285759893;0.04615231537496419;
19163110-f27d-44fd-9ea7-e2e2b02a15df;1514168507.586;;0.9915770292282104;0.07356338948011398;-0.10659927129745483;;-105.81973266601562;-64.33985900878906;-21.601318359375;;;;0.18146593166738886;;1.4637028497934774;0.00013743658200837672;0.0011741522466763854;-0.012220948003232479;-0.0736299025256222;-0.010087521577002139;-0.004639226618918033;0.036255742448120735;
19163110-f27d-44fd-9ea7-e2e2b02a15df;1514168507.636;;0.9915756583213806;0.07356718927621841;-0.10660907626152039;;-106.34359741210938;-63.46089172363281;-21.095046997070312;;;;0.18156952338505866;;1.4636929339009739;0.006669533438980579;0.012736520729959011;-0.0224040187895298;-0.0736337081942347;-0.00025539714853859894;-0.020077038825889362;0.02880235350531597;
19163110-f27d-44fd-9ea7-e2e2b02a15df;1514168507.686;;0.9915636777877808;0.07366471737623215;-0.10665406286716461;;-105.12124633789062;-63.28511047363281;-22.2763671875;;;;0.1817012920418658;;1.4636467919981844;0.00826853234320879;0.018788281828165054;-0.01849849708378315;-0.07373150722059549;-0.006358297102564181;-0.023674703142477403;0.025152491231362373;
19163110-f27d-44fd-9ea7-e2e2b02a15df;1514168507.736;;0.9915454387664795;0.07368281483650208;-0.10681071877479553;;-106.51821899414062;-63.636688232421875;-20.926284790039062;;;;0.1818123102908612;;1.4634886609247226;-0.002516481326892972;0.019395794719457626;-0.019287873059511185;-0.07374965453370459;0.00474735095917525;-0.037944719211448985;0.011661982413456983;
19163110-f27d-44fd-9ea7-e2e2b02a15df;1514168507.786;;0.9915471076965332;0.07375386357307434;-0.10674577206373215;;-106.16897583007812;-63.98826599121094;-21.601318359375;;;;0.1820744047381449;;1.4635535838769715;0.014602169394493103;0.024894200265407562;-0.026860132813453674;-0.07382089415085097;-0.004974784916268017;-0.04158312989271524;0.0007664577617248048;
19163110-f27d-44fd-9ea7-e2e2b02a15df;1514168507.836;;0.9899545907974243;0.08109568804502487;-0.11581647396087646;;-105.99435424804688;-63.10931396484375;-22.78265380859375;;;;0.1814907538613873;;1.4543340335098915;-0.0010782097233459353;-0.012629510834813118;0.024019669741392136;-0.08118483810272988;0.008500810199532928;-0.03559554481389009;0.002002963455848595;
19163110-f27d-44fd-9ea7-e2e2b02a15df;1514168507.886;;0.990347683429718;0.07753022015094757;-0.11489326506853104;;-105.12124633789062;-63.636688232421875;-21.263809204101562;;;;0.18173299467572657;;1.4552995831664444;0.001290459418669343;0.004546810407191515;-0.003225071122869849;-0.07760809912725386;-0.00005219795736555307;-0.027313912772070684;0.000909203196153052;
19163110-f27d-44fd-9ea7-e2e2b02a15df;1514168507.936;;0.9901741743087769;0.07811641693115234;-0.11598710715770721;;-107.04206848144531;-61.702972412109375;-21.432571411132812;;;;0.18174537409780434;;1.4541896389525113;-0.0005043278215453029;-0.002997396746650338;0.003682478331029415;-0.07819608237933956;0.00474735095917525;-0.020113790448932453;0.015485749106592754;
19163110-f27d-44fd-9ea7-e2e2b02a15df;1514168507.986;;0.9902316331863403;0.07788384705781937;-0.1156521588563919;;-105.99435424804688;-63.81248474121094;-22.44512939453125;;;;0.1820784059374589;;1.4545300285592875;-0.00469695869833231;-0.01262201089411974;0.0061551304534077644;-0.07796280476482916;-0.005135107213890787;-0.01891483532617878;0.026410568530315804;
19163110-f27d-44fd-9ea7-e2e2b02a15df;1514168508.036;;0.9902744293212891;0.07764873653650284;-0.11544348299503326;;-105.12124633789062;-62.581939697265625;-21.263809204101562;;;;0.1820860883216312;;1.4547429031970307;-0.0037632128223776817;-0.023815730586647987;0.013896252028644085;-0.07772697841184636;-0.0014879081010272703;0.004886101651968378;0.03512656214592714;
19163110-f27d-44fd-9ea7-e2e2b02a15df;1514168508.086;;0.9901546239852905;0.0775243490934372;-0.1165490597486496;;-105.99435424804688;-63.10931396484375;-21.77008056640625;;;;0.18222358042257786;;1.4536275350765515;0.00574070168659091;0.001058418769389391;-0.006040077190846205;-0.07760221111997023;-0.013911820902355924;0.013256416958087424;0.05943935868558752;
19163110-f27d-44fd-9ea7-e2e2b02a15df;1514168508.136;;0.9907898902893066;0.07308594882488251;-0.11399025470018387;;-104.24815368652344;-63.81248474121094;-20.082489013671875;;;;0.18268674588322795;;1.4562500740493793;-0.016577281057834625;-0.019603895023465157;0.01300752442330122;-0.07315116820731847;-0.004152400771651548;0.01687565287950511;0.06549751753329977;
19163110-f27d-44fd-9ea7-e2e2b02a15df;1514168508.186;;0.9907863736152649;0.0737365186214447;-0.11360154300928116;;-105.81973266601562;-61.87876892089844;-21.601318359375;;;;0.1829231493611511;;1.456636887716585;0.007306291256099939;0.0074554989114403725;-0.0056916531175374985;-0.07380350080642041;-0.006578274208604727;0.02636502847567545;0.06439949621586011;
19163110-f27d-44fd-9ea7-e2e2b02a15df;1514168508.236;;0.9911625385284424;0.07243955880403519;-0.1111275851726532;;-106.16897583007812;-63.28511047363281;-21.263809204101562;;;;0.18312536069452595;;1.4591441877499467;0.008456004783511162;0.016442878171801567;-0.012926296330988407;-0.07250306453506616;-0.006578274208604727;0.02636502847567545;0.06439949621586011;
19163110-f27d-44fd-9ea7-e2e2b02a15df;1514168508.286;;0.9910150766372681;0.07336042076349258;-0.1118362620472908;;-104.59739685058594;-64.51565551757812;-21.095046997070312;;;;0.1833506251884589;;1.4584215414989046;0.0007451599813066423;0.005573303904384375;-0.0035355130676180124;-0.07342638202268131;-0.008879245390433188;-0.0034378746511832888;0.038684012730054985;
19163110-f27d-44fd-9ea7-e2e2b02a15df;1514168508.336;;0.9910370111465454;0.0732470154762268;-0.11171695590019226;;-105.81973266601562;-63.636688232421875;-22.2763671875;;;;0.18340042832142373;;1.4585428816773065;0.014151066541671753;0.013377131894230843;-0.01628895103931427;-0.07331267126677253;-0.00637507501743168;-0.01059006007470009;0.030133401418137574;
19163110-f27d-44fd-9ea7-e2e2b02a15df;1514168508.386;;0.9910410046577454;0.0732557624578476;-0.11167565733194351;;-104.77201843261719;-63.28511047363281;-20.926284790039062;;;;0.18349487672038942;;1.4585844759325348;0.016481652855873108;0.0201890729367733;-0.022235402837395668;-0.07332143793876078;-0.0014319817181356065;-0.018917232171159853;0.02277215784904955;
19163110-f27d-44fd-9ea7-e2e2b02a15df;1514168508.436;;0.9909919500350952;0.07344873994588852;-0.11198297142982483;;-105.99435424804688;-62.0545654296875;-22.10760498046875;;;;0.1835711120347893;;1.4582727650241234;0.022725680842995644;0.025947004556655884;-0.02806215174496174;-0.0735149421393284;-0.0001062601274941616;-0.026097380786122486;0.008178301391524333;
19163110-f27d-44fd-9ea7-e2e2b02a15df;1514168508.486;;0.9912574887275696;0.07191484421491623;-0.1106201782822609;;-105.12124633789062;-63.98826599121094;-20.588760375976562;;;;0.18383135463793124;;1.4596603473917322;0.011321242898702621;0.022811707109212875;-0.02153613418340683;-0.07197697757064299;-0.00011371697854638347;-0.03679210309166269;0.006851514536446856;
19163110-f27d-44fd-9ea7-e2e2b02a15df;1514168508.536;;0.9912571907043457;0.0719229206442833;-0.11061739176511765;;-105.99435424804688;-65.21881103515625;-21.095046997070312;;;;0.1839166520273386;;1.4596630928786385;0.01615854911506176;0.02368864417076111;-0.022881735116243362;-0.0719850721094709;0.004814462618645246;-0.04273414811584749;0.0019350528480515745;
19163110-f27d-44fd-9ea7-e2e2b02a15df;1514168508.586;;0.9908952713012695;0.07370344549417496;-0.11266971379518509;;-106.16897583007812;-62.93351745605469;-21.601318359375;;;;0.18382455996948818;;1.4575776118698804;0.010417037643492222;0.004192672669887543;-0.006913399323821068;-0.07377033646477342;0.00484615423561719;-0.040372989493383235;-0.0016668725262805953;
19163110-f27d-44fd-9ea7-e2e2b02a15df;1514168508.636;;0.9911734461784363;0.07197468727827072;-0.11133182793855667;;-105.29586791992188;-63.10931396484375;-22.10760498046875;;;;0.18420794690283274;;1.4589419000934676;0.007880470715463161;0.01796061545610428;-0.018642576411366463;-0.07203697718644499;0.0011318434632836762;-0.04155356880461536;0.003167830116649254;
19163110-f27d-44fd-9ea7-e2e2b02a15df;1514168508.686;;0.9913418889045715;0.07130303233861923;-0.11025963723659515;;-105.47048950195312;-61.87876892089844;-22.2763671875;;;;0.18428670237723319;;1.4600289589511612;0.00470611359924078;0.008424139581620693;-0.02015720121562481;-0.07136358774203762;0.0023046996073545728;-0.04508891515169555;0.009171926794232897;
19163110-f27d-44fd-9ea7-e2e2b02a15df;1514168508.736;;0.9891610145568848;0.08221546560525894;-0.12165994197130203;;-108.26441955566406;-63.28511047363281;-22.951400756835938;;;;0.18459640151053655;;1.4484178742480411;0.012120740488171577;0.011854966171085835;-0.01783592440187931;-0.08230837003379886;-0.0026868632237809433;-0.020094615689083883;0.02639059482214021;
19163110-f27d-44fd-9ea7-e2e2b02a15df;1514168508.786;;0.9905358552932739;0.07489833235740662;-0.11501704901456833;;-106.34359741210938;-63.10931396484375;-21.77008056640625;;;;0.1852485326715388;;1.4551980193143437;0.012821055017411709;0.02168980985879898;-0.01858893781900406;-0.07496853344902388;-0.003837348814695174;-0.026080602871254986;0.015444736425805534;
19163110-f27d-44fd-9ea7-e2e2b02a15df;1514168508.836;;0.9903558492660522;0.07541321218013763;-0.11622411012649536;;-106.34359741210938;-62.40614318847656;-21.432571411132812;;;;0.1851894500127767;;1.4539747645917511;0.005447928328067064;0.017940053716301918;-0.009325270541012287;-0.0754848777081761;0.0011020160590747888;-0.03678331466006543;0.008057393878034735;
19163110-f27d-44fd-9ea7-e2e2b02a15df;1514168508.886;;0.9902255535125732;0.0767076313495636;-0.11648765951395035;;-106.51821899414062;-63.636688232421875;-22.6138916015625;;;;0.18590290062208156;;1.4536970059844831;-0.01160307414829731;-0.01886156015098095;0.013918091543018818;-0.076783058430862;-0.00770266082083618;0.001345961614926047;0.04598879728403332;
19163110-f27d-44fd-9ea7-e2e2b02a15df;1514168508.936;;0.9902899265289307;0.07636264711618423;-0.11616674065589905;;-105.64511108398438;-63.10931396484375;-21.77008056640625;;;;0.18595019670716148;;1.4540242041109095;-0.010461988858878613;-0.025062592700123787;0.014863679185509682;-0.07643706016174118;-0.00902651819871457;0.027544808838580553;0.0644194699240357;
19163110-f27d-44fd-9ea7-e2e2b02a15df;1514168508.986;;0.9903015494346619;0.07627187669277191;-0.11612717807292938;;-106.16897583007812;-63.28511047363281;-21.263809204101562;;;;0.18607760418991123;;1.4540649704015771;-0.010443111881613731;-0.01938711106777191;0.021446378901600838;-0.07634602250242503;-0.004113252303627383;0.029931533807509566;0.06322237901404508;
19163110-f27d-44fd-9ea7-e2e2b02a15df;1514168509.036;;0.9903128743171692;0.0761718899011612;-0.11609566956758499;;-105.47048950195312;-62.581939697265625;-22.2763671875;;;;0.1861798344389903;;1.4540976849419862;-0.004244172479957342;-0.00881959404796362;0.015647074207663536;-0.07624574008485742;-0.004034955367579054;0.02038143813848542;0.05102456858926416;
19163110-f27d-44fd-9ea7-e2e2b02a15df;1514168509.086;;0.9903136491775513;0.0760926678776741;-0.1161409243941307;;-106.86744689941406;-62.93351745605469;-22.2763671875;;;;0.18617406962078925;;1.4540526960339093;0.002026401460170746;-0.001950206933543086;0.007666170131415129;-0.0761662871339761;-0.005211539937176061;0.0037103160306983947;0.04117060623986197;
19163110-f27d-44fd-9ea7-e2e2b02a15df;1514168509.136;;0.9901766180992126;0.0774998664855957;-0.11637916415929794;;-105.99435424804688;-63.46089172363281;-21.095046997070312;;;;0.18625730973035654;;1.4537993461415322;0.016308408230543137;0.014968394301831722;-0.008788656443357468;-0.07757765579190984;-0.0075870796295267415;-0.002279665893107828;0.030228209952944392;
19163110-f27d-44fd-9ea7-e2e2b02a15df;1514168509.186;;0.9896431565284729;0.0802324116230011;-0.11903438717126846;;-107.04206848144531;-62.75773620605469;-21.432571411132812;;;;0.18603036585152627;;1.4510912804232061;0.01977151446044445;0.01643202267587185;-0.019851140677928925;-0.08031873823520472;-0.0038746330699562835;-0.008230499348889886;0.02410586892296123;
19163110-f27d-44fd-9ea7-e2e2b02a15df;1514168509.236;;0.9899107217788696;0.07826049625873566;-0.11811940371990204;;-106.34359741210938;-62.0545654296875;-22.44512939453125;;;;0.18623841575085748;;1.4520345567204807;0.01784081570804119;0.01732056587934494;-0.01968267746269703;-0.07834060175989158;-0.008700280965179863;-0.026115756597644032;0.010621219059454018;
