track_uuid;t;alt;g_x;g_y;g_z;lat;m_x;m_y;m_z;long;speed;course;att_yaw;heading;att_roll;user_a_x;user_a_y;user_a_z;att_pitch;rot_rate_x;rot_rate_y;rot_rate_z;name
ef8a6cb6-5892-472f-85fe-7f014f5dbda9;1514167415.389;0;0.9721512198448181;0.08276602625846863;-0.2192526012659073;31.31347601996528;-108.26441955566406;-120.94486999511719;-18.563644409179688;121.44952718098958;0;0;0.03919159423176043;;1.3489742173283126;0.00810384750366211;0.0003333305648993701;-0.00921731535345316;-0.08286081584341597;-0.010294449193701295;-0.017608821127603924;0.060299027085465105;
ef8a6cb6-5892-472f-85fe-7f014f5dbda9;1514167415.439;;0.9721218943595886;0.08287472277879715;-0.21934153139591217;;-109.3121337890625;-117.78062438964844;-17.551071166992188;;;;0.03930586126953112;;1.3488806917557232;0.012176752090454102;0.015147741883993149;-0.006091864313930273;-0.08296988223150045;-0.00904702453910818;-0.027126159915220098;0.05535380325729697;
ef8a6cb6-5892-472f-85fe-7f014f5dbda9;1514167415.489;;0.97214275598526;0.08281092345714569;-0.21927353739738464;;-108.962890625;-119.89012145996094;-17.888595581054688;;;;0.039332692358230004;;1.3489518427189242;0.010309687815606594;0.011366317979991436;0.010411296971142292;-0.08290586774241285;-0.011223093465811925;-0.02489762671504179;0.02031592437566947;
ef8a6cb6-5892-472f-85fe-7f014f5dbda9;1514167415.539;;0.9722275137901306;0.08274100720882416;-0.2189236730337143;;-108.26441955566406;-120.24169921875;-18.226119995117188;;;;0.03967869501665936;;1.3493130266668643;-0.0018906168406829238;0.010047685354948044;0.029119547456502914;-0.0828357086283503;-0.007329818268225087;0.007097856937279185;-0.0011102718584540343;
ef8a6cb6-5892-472f-85fe-7f014f5dbda9;1514167415.589;;0.9743947982788086;0.0756610706448555;-0.21173132956027985;;-107.04206848144531;-119.01116943359375;-16.032241821289062;;;;0.04049234972207257;;1.3568273963379622;0.009827617555856705;-0.0217365100979805;-0.007476361468434334;-0.0757334459940926;-0.008651811433340421;0.0166535452445925;0.013509683577753959;
ef8a6cb6-5892-472f-85fe-7f014f5dbda9;1514167415.639;;0.9729446172714233;0.07511314749717712;-0.21848763525485992;;-107.39131164550781;-119.36274719238281;-17.719833374023438;;;;0.040327209894522514;;1.3498975981306172;-0.010282853618264198;-0.015954820439219475;-0.03468623757362366;-0.07518396143665693;-0.0027278759045681637;-0.040281909384102525;0.027378094954341594;
ef8a6cb6-5892-472f-85fe-7f014f5dbda9;1514167415.689;;0.9729806780815125;0.07949794828891754;-0.21676893532276154;;-107.91517639160156;-120.59329223632812;-17.21356201171875;;;;0.04075276614083478;;1.3515877811970387;0.020274991169571877;0.026138652116060257;0.036135412752628326;-0.07958192308447934;0.004490089597873595;-0.005716741595964092;0.051922586508838874;
ef8a6cb6-5892-472f-85fe-7f014f5dbda9;1514167415.739;;0.9729597568511963;0.07959131896495819;-0.21682843565940857;;-108.26441955566406;-120.59329223632812;-17.21356201171875;;;;0.04094043907486185;;1.3515249591196228;-0.010374295525252819;0.02323765493929386;0.011109407991170883;-0.07967559395405736;-0.007713846097414514;-0.047386157907997904;0.03698837806400153;
ef8a6cb6-5892-472f-85fe-7f014f5dbda9;1514167415.789;;0.9730429649353027;0.07974425703287125;-0.21639849245548248;;-108.962890625;-119.89012145996094;-17.21356201171875;;;;0.04100372940387179;;1.3519641112997374;-0.0012564320350065827;0.0054150475189089775;0.015852229669690132;-0.07982901566454695;0.0035017905173451904;-0.015352324735979785;0.019169433526390358;
ef8a6cb6-5892-472f-85fe-7f014f5dbda9;1514167415.839;;0.97303307056427;0.0796893984079361;-0.2164628654718399;;-108.26441955566406;-119.53854370117188;-18.226119995117188;;;;0.04123031241500313;;1.3518989238976202;0.005879250355064869;-0.020668398588895798;0.008607659488916397;-0.07977398045461571;-0.003744138176542401;0.003589674833317805;0.00972426640431533;
ef8a6cb6-5892-472f-85fe-7f014f5dbda9;1514167415.889;;0.9730110764503479;0.07956527173519135;-0.2166074514389038;;-107.39131164550781;-119.01116943359375;-17.719833374023438;;;;0.04146645606473318;;1.3517525287831886;0.007305073086172342;-0.023351894691586494;-0.02280295081436634;-0.0796494628355414;0.006002232464820587;0.004838164752346952;0.016965667724349785;
ef8a6cb6-5892-472f-85fe-7f014f5dbda9;1514167415.939;;0.9726437330245972;0.08039925992488861;-0.2179451435804367;;-108.43902587890625;-119.71432495117188;-18.394882202148438;;;;0.041739006079427925;;1.3503624853384675;0.0018282909877598286;0.01132131740450859;0.00632099574431777;-0.08048613177906548;-0.003956658431530724;-0.006999586293055262;0.03500299147134746;
ef8a6cb6-5892-472f-85fe-7f014f5dbda9;1514167415.989;;0.9727907776832581;0.07840189337730408;-0.21801675856113434;;-108.26441955566406;-119.53854370117188;-17.888595581054688;;;;0.041807635582200256;;1.3503246366163895;-0.002896341495215893;0.02750936523079872;-0.043366316705942154;-0.07848243500507504;-0.0028751487128495456;-0.00335558297349984;0.05438814104603423;
ef8a6cb6-5892-472f-85fe-7f014f5dbda9;1514167416.039;;0.9729128479957581;0.0785384476184845;-0.2174220234155655;;-108.08979797363281;-119.71432495117188;-16.707275390625;;;;0.042005465547119425;;1.3509335661551716;0.057162243872880936;0.0350479818880558;0.050475627183914185;-0.07861941293713101;-0.0186330728828484;-0.015381086875752641;0.03011582455494305;
ef8a6cb6-5892-472f-85fe-7f014f5dbda9;1514167416.089;;0.9735497236251831;0.07817467302083969;-0.21468526124954224;;-109.661376953125;-120.59329223632812;-17.551071166992188;;;;0.04232104649921689;;1.3537519671484204;-0.007759872358292341;-0.009098133072257042;-0.01585977151989937;-0.07825451523468348;0.0035036547301082457;0.015553659714389776;0.02555542750429136;
ef8a6cb6-5892-472f-85fe-7f014f5dbda9;1514167416.139;;0.9735425114631653;0.07823152095079422;-0.21469692885875702;;-107.04206848144531;-120.76908874511719;-17.0447998046875;;;;0.04248321812330781;;1.3537389783036153;0.002257040236145258;-0.00769014423713088;-0.02733794040977955;-0.07831154350042548;-0.00017710021249026935;0.01792200887179724;0.02680125426223043;
ef8a6cb6-5892-472f-85fe-7f014f5dbda9;1514167416.189;;0.9734749794006348;0.07849257439374924;-0.21490797400474548;;-109.3121337890625;-119.89012145996094;-17.21356201171875;;;;0.04290558351247429;;1.3535176505929964;0.0036063608713448048;-0.00789016205817461;-0.0022398000583052635;-0.07857340122432285;0.01690095290986086;-0.028345088746149365;0.026243854646076845;
ef8a6cb6-5892-472f-85fe-7f014f5dbda9;1514167416.239;;0.9734262824058533;0.07873545587062836;-0.21503949165344238;;-108.962890625;-119.89012145996094;-17.21356201171875;;;;0.0428124957571515;;1.3533783139447313;-0.010322040878236294;-0.009582621976733208;0.029828323051333427;-0.07881703321488599;0.0021667478628884683;-0.04382923995608807;0.027325098048649014;
ef8a6cb6-5892-472f-85fe-7f014f5dbda9;1514167416.289;;0.9734060168266296;0.0790494754910469;-0.21501581370830536;;-107.56593322753906;-120.59329223632812;-16.20098876953125;;;;0.043067208113653103;;1.3533971090389167;-0.003084430703893304;0.0014101187698543072;-0.022975584492087364;-0.07913203232850491;-0.018601381265876456;-0.06056907161999914;0.016317187998915492;
ef8a6cb6-5892-472f-85fe-7f014f5dbda9;1514167416.339;;0.9746679067611694;0.07648993283510208;-0.21017102897167206;;-107.74055480957031;-121.47224426269531;-17.0447998046875;;;;0.04319086650174771;;1.3584147543890894;-0.02204638160765171;-0.013700013980269432;0.02817952260375023;-0.07656471453825181;0.002332662798800405;-0.06887786790493736;0.00044554685037025653;
ef8a6cb6-5892-472f-85fe-7f014f5dbda9;1514167416.389;;0.9746734499931335;0.07651526480913162;-0.21013586223125458;;-107.21669006347656;-121.64804077148438;-17.551071166992188;;;;0.04348207825548836;;1.3584504052752353;-0.018542464822530746;-0.027473514899611473;0.02411598339676857;-0.07659012333778498;-0.0086275766674207;-0.0392291618051942;-0.0016157398333510738;
ef8a6cb6-5892-472f-85fe-7f014f5dbda9;1514167416.439;;0.9731665253639221;0.07704391330480576;-0.21682052314281464;;-107.04206848144531;-120.41749572753906;-16.032241821289062;;;;0.04322469822276663;;1.3515778167744503;0.01244442444294691;-0.021486660465598106;0.0003898268623743206;-0.07712033457058741;0.01464472283434573;-0.023697872643961095;0.0021161478021769625;
ef8a6cb6-5892-472f-85fe-7f014f5dbda9;1514167416.489;;0.9731497764587402;0.07837177067995071;-0.21641969680786133;;-107.91517639160156;-121.29646301269531;-15.525955200195312;;;;0.04355838050426039;;1.351966604707608;0.009455272927880287;-0.025622135028243065;-0.01746695674955845;-0.07845221832337196;-0.0025955167983912255;-0.009443036593202963;0.016833308618172848;
ef8a6cb6-5892-472f-85fe-7f014f5dbda9;1514167416.539;;0.9731122851371765;0.07840999960899353;-0.21657422184944153;;-109.3121337890625;-120.59329223632812;-15.863479614257812;;;;0.04376424636432067;;1.3518071261899485;0.011079640127718449;-0.005686614662408829;-0.01778547838330269;-0.07849056992112442;0.0007739146127770266;0.0038021950883061284;0.05929341745785118;
ef8a6cb6-5892-472f-85fe-7f014f5dbda9;1514167416.589;;0.9730674624443054;0.07855546474456787;-0.21672256290912628;;-108.43902587890625;-120.41749572753906;-17.719833374023438;;;;0.04383421730064453;;1.3516521281277438;0.005234495736658573;0.020519845187664032;-0.015088967978954315;-0.07863648696593106;-0.013984525200115087;-0.015235678280234314;0.06275419529440915;
ef8a6cb6-5892-472f-85fe-7f014f5dbda9;1514167416.639;;0.9730648994445801;0.07868772000074387;-0.21668626368045807;;-108.962890625;-120.94486999511719;-16.53851318359375;;;;0.04393463908468192;;1.3516871131406138;0.015307902358472347;0.02253909222781658;-0.027713745832443237;-0.07876914745462688;-0.012614062503160313;-0.029571208112021845;0.04082599319480571;
ef8a6cb6-5892-472f-85fe-7f014f5dbda9;1514167416.689;;0.9730985164642334;0.07865069806575775;-0.21654875576496124;;-106.86744689941406;-119.89012145996094;-17.551071166992188;;;;0.04423150830633839;;1.351829067171081;0.003113040467724204;0.007210507523268461;0.006404710002243519;-0.07873201469219694;-0.009861951832672427;0.002377137589004728;0.008519186011054475;
ef8a6cb6-5892-472f-85fe-7f014f5dbda9;1514167416.739;;0.9731588959693909;0.07854528725147247;-0.21631577610969543;;-108.78826904296875;-119.36274719238281;-16.707275390625;;;;0.044363935457366555;;1.352070341222423;0.008194934576749802;-0.027809813618659973;0.002341832034289837;-0.07862627499417849;0.009755691705178265;0.019074624991583536;0.009855826562165245;
ef8a6cb6-5892-472f-85fe-7f014f5dbda9;1514167416.789;;0.9727833867073059;0.08768757432699203;-0.21448388695716858;;-108.6136474609375;-121.29646301269531;-16.87603759765625;;;;0.0448028029472515;;1.3537837034460138;0.008188871666789055;-0.012431222945451736;-0.028710754588246346;-0.08780033676316946;0.0010013485698697935;0.006062686221565386;0.03029532161241439;
ef8a6cb6-5892-472f-85fe-7f014f5dbda9;1514167416.839;;0.9727428555488586;0.08768150210380554;-0.21467003226280212;;-107.74055480957031;-120.76908874511719;-16.3697509765625;;;;0.04482321231771261;;1.3535924650094049;-0.002100797602906823;-0.02603600174188614;0.006555419880896807;-0.08779424558840387;-0.005237638915858838;-0.0307493905782729;0.03716414669594676;
ef8a6cb6-5892-472f-85fe-7f014f5dbda9;1514167416.889;;0.9727187752723694;0.0878613144159317;-0.21470563113689423;;-107.21669006347656;-119.89012145996094;-17.21356201171875;;;;0.044921382116039674;;1.3535523656057327;-0.00843964796513319;-0.014603866264224052;0.012496096082031727;-0.08797475057258396;-0.00524882419243717;-0.025988723813647256;0.03963502755532228;
ef8a6cb6-5892-472f-85fe-7f014f5dbda9;1514167416.939;;0.9727375507354736;0.08811428397893906;-0.21451710164546967;;-108.26441955566406;-120.94486999511719;-18.901153564453125;;;;0.045035908327968735;;1.3537412344457542;0.0003917529829777777;0.016683079302310944;0.02201222814619541;-0.08822870836183931;-0.017352092398520286;-0.02134949719472922;0.021581724841784132;
ef8a6cb6-5892-472f-85fe-7f014f5dbda9;1514167416.989;;0.9727044701576233;0.08830158412456512;-0.2145901620388031;;-108.08979797363281;-120.41749572753906;-16.032241821289062;;;;0.04516067760735791;;1.3536624675139914;0.010526172816753387;0.0006571607664227486;-0.015664946287870407;-0.08841673980967082;-0.0013555489948503321;0.006006759838673722;0.018208831321198774;
ef8a6cb6-5892-472f-85fe-7f014f5dbda9;1514167417.039;;0.9726738333702087;0.08839112520217896;-0.21469184756278992;;-107.21669006347656;-120.94486999511719;-18.226119995117188;;;;0.04529057792700901;;1.3535561523532573;0.001630342798307538;-0.0014465464046224952;-0.022170361131429672;-0.08850662977033628;-0.0063210128473030714;-0.01775023498148713;0.02158971432505437;
ef8a6cb6-5892-472f-85fe-7f014f5dbda9;1514167417.089;;0.9726613759994507;0.08845414221286774;-0.21472236514091492;;-108.78826904296875;-119.01116943359375;-16.707275390625;;;;0.04539286868058714;;1.353523548287237;0.019709205254912376;-0.03335465118288994;-0.00038084827247075737;-0.0885698938450488;-0.0063210128473030714;-0.01775023498148713;0.02158971432505437;
ef8a6cb6-5892-472f-85fe-7f014f5dbda9;1514167417.139;;0.9725937247276306;0.0887371078133583;-0.21491210162639618;;-107.91517639160156;-120.24169921875;-17.888595581054688;;;;0.04564403899836433;;1.3533228813691176;-0.0042557064443826675;0.003609082894399762;0.009101488627493382;-0.08885398061973689;-0.0002535329357755435;-0.018889268979714022;0.028815402994657357;
ef8a6cb6-5892-472f-85fe-7f014f5dbda9;1514167417.189;;0.9721482992172241;0.07682115584611893;-0.2214183360338211;;-107.74055480957031;-119.71432495117188;-16.707275390625;;;;0.0451710838346274;;1.3468546452126429;0.003529125126078725;-0.011452504433691502;-0.00007827659283066168;-0.0768969135994276;-0.011251056657257757;-0.01893960272431652;0.025218537626396337;
ef8a6cb6-5892-472f-85fe-7f014f5dbda9;1514167417.239;;0.9725765585899353;0.07157117128372192;-0.22129689157009125;;-107.56593322753906;-120.24169921875;-17.21356201171875;;;;0.04540479882564048;;1.3470687083813626;-0.0008511519408784807;-0.013679331168532372;0.002180632669478655;-0.07163241914557453;0.0008708536764559109;-0.02953205964399768;0.0395785685402126;
ef8a6cb6-5892-472f-85fe-7f014f5dbda9;1514167417.289;;0.9723409414291382;0.07711503654718399;-0.22046835720539093;;-109.48675537109375;-120.41749572753906;-17.38232421875;;;;0.04560446428765395;;1.3478265755415626;0.0027414271607995033;0.011950512416660786;0.008630615659058094;-0.07719167237523603;-0.011247328231731647;-0.028451348873643527;0.022695458809655268;
ef8a6cb6-5892-472f-85fe-7f014f5dbda9;1514167417.339;;0.9719944596290588;0.07814870774745941;-0.2216292768716812;;-107.91517639160156;-120.24169921875;-16.53851318359375;;;;0.04734143520702354;;1.3466140660692438;-0.003152931109070778;-0.001992088509723544;-0.015629708766937256;-0.07822846947650682;-0.0026626284578612222;-0.010597250609643305;0.025285649285866334;
ef8a6cb6-5892-472f-85fe-7f014f5dbda9;1514167417.389;;0.9720050096511841;0.07820890098810196;-0.22156187891960144;;-107.74055480957031;-120.06591796875;-17.0447998046875;;;;0.0474274794571049;;1.3466823182763181;0.016154194250702858;-0.002754188608378172;-0.01899290643632412;-0.07828885047855881;-0.006362025528090292;-0.008219314072311553;0.028950158945815367;
ef8a6cb6-5892-472f-85fe-7f014f5dbda9;1514167417.439;;0.9732224941253662;0.07633700221776962;-0.21681922674179077;;-108.43902587890625;-117.95640563964844;-18.394882202148438;;;;0.048572885088381396;;1.3515912984584104;0.010389522649347782;0.022158486768603325;0.000525841664057225;-0.07641133574616227;-0.0040125848144223885;-0.03074539583663778;0.03716068458652966;
ef8a6cb6-5892-472f-85fe-7f014f5dbda9;1514167417.489;;0.9732136726379395;0.07659388333559036;-0.2167685478925705;;-108.26441955566406;-120.94486999511719;-16.87603759765625;;;;0.04871366335858721;;1.351638970665713;-0.004661996848881245;0.013265124522149563;0.022600453346967697;-0.07666897661317731;-0.002653307394045945;-0.03437661598296082;0.01897795224401366;
ef8a6cb6-5892-472f-85fe-7f014f5dbda9;1514167417.539;;0.9732359051704407;0.07663874328136444;-0.21665269136428833;;-107.74055480957031;-121.12066650390625;-15.357192993164062;;;;0.0487683200534647;;1.3517572498525066;-0.003433035220950842;-0.0003447995986789465;0.014473767019808292;-0.07671396835890101;-0.002535861989973451;-0.018983544882302826;0.0070541810954018866;
ef8a6cb6-5892-472f-85fe-7f014f5dbda9;1514167417.589;;0.9729001522064209;0.07226431369781494;-0.21964329481124878;;-108.43902587890625;-121.12066650390625;-15.694717407226562;;;;0.048660579049331396;;1.3487572947105857;0.013534797355532646;-0.007170320022851229;-0.00875023566186428;-0.07232735655025103;-0.0024967135219492857;-0.005927663954298368;0.004779042576147193;
ef8a6cb6-5892-472f-85fe-7f014f5dbda9;1514167417.639;;0.9717565178871155;0.07883406430482864;-0.22242842614650726;;-107.39131164550781;-119.71432495117188;-15.694717407226562;;;;0.04854089506201509;;1.3457794286182603;0.018813535571098328;0.000511636957526207;-0.02442820556461811;-0.07891594749449372;-0.0012977583991956127;0.007165767545076206;0.010965832104510272;
ef8a6cb6-5892-472f-85fe-7f014f5dbda9;1514167417.689;;0.9729897379875183;0.07913803309202194;-0.21685972809791565;;-107.21669006347656;-120.24169921875;-16.53851318359375;;;;0.04909683846749059;;1.3515008621176432;0.008302987553179264;-0.011312716640532017;-0.020429695025086403;-0.07922086920119616;-0.0015792545264169883;-0.005765477443912543;0.0446838483498945;
ef8a6cb6-5892-472f-85fe-7f014f5dbda9;1514167417.739;;0.9729423522949219;0.07918628305196762;-0.21705470979213715;;-107.21669006347656;-120.24169921875;-15.188430786132812;;;;0.04918254144494726;;1.3512996153165338;0.010547657497227192;0.006613889709115028;-0.016282685101032257;-0.0792692754385356;-0.00170602099430476;-0.021153754854608398;0.057816960949511255;
ef8a6cb6-5892-472f-85fe-7f014f5dbda9;1514167417.789;;0.9729101657867432;0.07937106490135193;-0.21713140606880188;;-107.04206848144531;-119.71432495117188;-17.0447998046875;;;;0.04932455865794489;;1.3512174887425965;-0.004160165786743164;0.005696683656424284;0.0005328849074430764;-0.07945463731290973;-0.006578274208604727;-0.03307140073271299;0.05165360723874087;
ef8a6cb6-5892-472f-85fe-7f014f5dbda9;1514167417.839;;0.9729388356208801;0.07944764196872711;-0.21697506308555603;;-109.48675537109375;-120.06591796875;-15.694717407226562;;;;0.049320044235402184;;1.3513768296781992;0.007285831030458212;0.020665276795625687;-0.0031176460906863213;-0.07953145792294442;-0.005181712532967174;-0.024834509797206913;0.03118268688762879;
ef8a6cb6-5892-472f-85fe-7f014f5dbda9;1514167417.889;;0.9729644060134888;0.0794629380106926;-0.21685461699962616;;-107.56593322753906;-121.64804077148438;-15.863479614257812;;;;0.04942395541953894;;1.3515003337885105;0.015515214763581753;0.022847242653369904;0.020275624468922615;-0.07954680354097318;-0.0013760553352439424;-0.03677692307344924;0.011692342449883887;
ef8a6cb6-5892-472f-85fe-7f014f5dbda9;1514167417.939;;0.9729959964752197;0.07937203347682953;-0.21674595773220062;;-109.661376953125;-120.59329223632812;-16.53851318359375;;;;0.04955257646520694;;1.3516136292299785;-0.005466744303703308;-0.0022998894564807415;0.0076547120697796345;-0.0794556078810249;-0.000031691616971942935;-0.02613573030581963;-0.001496430216515524;
ef8a6cb6-5892-472f-85fe-7f014f5dbda9;1514167417.989;;0.9729922413825989;0.0792093276977539;-0.21682243049144745;;-107.21669006347656;-119.18695068359375;-17.21356201171875;;;;0.04967587291290175;;1.3515379263545708;-0.010574648156762123;-0.020264623686671257;0.0036418787203729153;-0.07929239257873757;0.0036453349001004613;-0.018992333313900087;-0.0002191781577135213;
ef8a6cb6-5892-472f-85fe-7f014f5dbda9;1514167418.039;;0.9730207920074463;0.0786457285284996;-0.21689939498901367;;-109.661376953125;-118.83537292480469;-14.850906372070312;;;;0.050159289280381915;;1.3514688092737621;0.007249565329402685;-0.018678685650229454;0.008983101695775986;-0.07872702514288017;-0.0013779195480069979;-0.014190121236269206;0.016777648551390193;
ef8a6cb6-5892-472f-85fe-7f014f5dbda9;1514167418.089;;0.9730368852615356;0.07840410619974136;-0.21691472828388214;;-107.39131164550781;-119.71432495117188;-16.707275390625;;;;0.05028661404781844;;1.3514573090213848;0.002121812431141734;-0.02649371139705181;0.0009571514092385769;-0.07848465938974286;-0.0027800738619337168;-0.00815939294778477;0.04103318712761388;
ef8a6cb6-5892-472f-85fe-7f014f5dbda9;1514167418.139;;0.973031222820282;0.07842772454023361;-0.2169317752122879;;-107.39131164550781;-120.41749572753906;-16.032241821289062;;;;0.05042505485628571;;1.351439371269843;0.012228826060891151;0.007341925986111164;-0.002047079848125577;-0.07850835142680473;-0.00538491172414022;0.00023329291149094128;0.06289960388992748;
ef8a6cb6-5892-472f-85fe-7f014f5dbda9;1514167418.189;;0.9703451991081238;0.08093474060297012;-0.22777129709720612;;-108.43902587890625;-121.12066650390625;-17.0447998046875;;;;0.0495844943888232;;1.3402381214210402;-0.0015036516124382615;-0.0067465114407241344;0.002444732468575239;-0.08102336500591285;-0.010286992342649074;-0.0009704559012248744;0.0629004028382545;
ef8a6cb6-5892-472f-85fe-7f014f5dbda9;1514167418.239;;0.9699519872665405;0.08098966628313065;-0.22942055761814117;;-107.91517639160156;-119.18695068359375;-15.525955200195312;;;;0.04947752344400074;;1.3385370744752438;0.03305397182703018;0.016285119578242302;-0.007960470393300056;-0.08107846481254748;-0.011284612486992756;0.03694789801543233;0.041553302488506354;
ef8a6cb6-5892-472f-85fe-7f014f5dbda9;1514167418.289;;0.9700669050216675;0.08108268678188324;-0.228901207447052;;-107.91517639160156;-119.89012145996094;-17.21356201171875;;;;0.04965737568156561;;1.3390706818938931;0.013453595340251923;-0.001904825447127223;0.014911996200680733;-0.081171792291061;-0.012431369652380876;0.04522473636728959;0.0331827208662783;
ef8a6cb6-5892-472f-85fe-7f014f5dbda9;1514167418.339;;0.9701361656188965;0.08107832074165344;-0.22860918939113617;;-107.91517639160156;-121.29646301269531;-16.87603759765625;;;;0.04965836346041461;;1.339371790218582;0.007616538554430008;-0.011910229921340942;0.0036946390755474567;-0.08116741735717088;-0.0038541267295626735;0.04049682648407192;0.031896946691988046;
ef8a6cb6-5892-472f-85fe-7f014f5dbda9;1514167418.389;;0.9701760411262512;0.08105559647083282;-0.2284477949142456;;-108.6136474609375;-120.24169921875;-16.87603759765625;;;;0.049716788171158516;;1.3395385811117633;0.015450142323970795;-0.017670584842562675;-0.000464620505226776;-0.08114461805309191;-0.011277155635940533;0.04764262032097253;0.04288008934358383;
ef8a6cb6-5892-472f-85fe-7f014f5dbda9;1514167418.439;;0.970303475856781;0.08093699812889099;-0.22794826328754425;;-107.39131164550781;-119.36274719238281;-15.694717407226562;;;;0.04998435636140946;;1.3400557182010422;-0.02456371672451496;-0.02446421980857849;0.06940940767526627;-0.08102562536351958;-0.005222725213754394;0.03818919739951826;0.0500144315877971;
ef8a6cb6-5892-472f-85fe-7f014f5dbda9;1514167418.489;;0.9703676104545593;0.08103445917367935;-0.22764036059379578;;-108.26441955566406;-119.53854370117188;-14.850906372070312;;;;0.050086470665992394;;1.3403711569480041;0.02067548595368862;-0.0034129980485886335;0.008478360250592232;-0.08112340930927509;-0.005174255681914952;0.0274657129542052;0.041431596026689735;
ef8a6cb6-5892-472f-85fe-7f014f5dbda9;1514167418.539;;0.970402181148529;0.08103062957525253;-0.2274944931268692;;-107.21669006347656;-120.94486999511719;-16.87603759765625;;;;0.0501717236600942;;1.3405215611495422;-0.019810091704130173;-0.011542106047272682;0.05397152528166771;-0.08111956933594279;-0.007646734437944516;0.0013171994751531911;0.038732748578003434;
ef8a6cb6-5892-472f-85fe-7f014f5dbda9;1514167418.589;;0.9704096913337708;0.0811598002910614;-0.22741615772247314;;-107.91517639160156;-120.94486999511719;-16.53851318359375;;;;0.050230790261471446;;1.3405998068887601;0.0201451163738966;-0.0033247163519263268;-0.0004891041317023337;-0.08124916481833454;-0.00028336033998443093;-0.0022317289934864017;0.03625414455146669;
ef8a6cb6-5892-472f-85fe-7f014f5dbda9;1514167418.639;;0.9703748226165771;0.08139169216156006;-0.22748200595378876;;-107.56593322753906;-118.48377990722656;-15.188430786132812;;;;0.05025379414500709;;1.3405274972252974;0.001457431586459279;-0.0021985757630318403;0.014606622979044914;-0.08148182564268779;-0.006382531868483902;0.00248978930311508;0.03390497015390779;
ef8a6cb6-5892-472f-85fe-7f014f5dbda9;1514167418.689;;0.9703670740127563;0.08155631273984909;-0.2274560034275055;;-108.43902587890625;-121.47224426269531;-15.019668579101562;;;;0.05018101991165879;;1.3405511298466881;0.023498840630054474;0.013597496785223484;0.06539235264062881;-0.08164699694050905;0.0009622001018456288;0.004894091135238616;0.03511963792709293;
ef8a6cb6-5892-472f-85fe-7f014f5dbda9;1514167418.739;;0.9704376459121704;0.08167407661676407;-0.22711265087127686;;-108.26441955566406;-120.59329223632812;-16.20098876953125;;;;0.050092209843320544;;1.340902701669998;0.031774889677762985;-0.0011839624494314194;0.06253132224082947;-0.0817651536019336;-0.006319148634540016;-0.004675179293634103;0.024151941609819604;
ef8a6cb6-5892-472f-85fe-7f014f5dbda9;1514167418.789;;0.9704782962799072;0.08193031698465347;-0.22684641182422638;;-108.26441955566406;-120.24169921875;-16.53851318359375;;;;0.05017194535696131;;1.3411720927668727;0.028178926557302475;-0.0033017846290022135;0.07482308894395828;-0.08202225910222363;-0.003796336133907954;0.01788126250711903;0.019555591884451846;
ef8a6cb6-5892-472f-85fe-7f014f5dbda9;1514167418.839;;0.9704917669296265;0.08244350552558899;-0.22660274803638458;;-106.69282531738281;-120.41749572753906;-15.694717407226562;;;;0.05040600849565903;;1.3414132532181393;-0.004183168988674879;-0.005981716327369213;0.0032293368130922318;-0.0825371888066245;-0.003796336133907954;0.005993976665441342;0.017006414089027998;
ef8a6cb6-5892-472f-85fe-7f014f5dbda9;1514167418.889;;0.9704649448394775;0.08261342346668243;-0.22665558755397797;;-107.21669006347656;-120.24169921875;-16.53851318359375;;;;0.050581464562224336;;1.3413555024743733;0.009698598645627499;0.0011420719092711806;0.023316962644457817;-0.08270768476906856;-0.0074975974169000795;-0.022534071247596467;0.014284929771076026;
ef8a6cb6-5892-472f-85fe-7f014f5dbda9;1514167418.939;;0.9704447388648987;0.08265584707260132;-0.22672677040100098;;-107.39131164550781;-119.36274719238281;-16.3697509765625;;;;0.050545459572892346;;1.3412813287228607;0.025984695181250572;-0.013441979885101318;0.011242088861763477;-0.08275025443846443;0.004799548916540803;0.013143765243977073;0.015851134808151625;
ef8a6cb6-5892-472f-85fe-7f014f5dbda9;1514167418.989;;0.9704594016075134;0.08272647112607956;-0.22663825750350952;;-107.21669006347656;-119.18695068359375;-15.525955200195312;;;;0.050583076159658624;;1.3413711780755957;0.013686728663742542;-0.02404117025434971;0.02308601886034012;-0.08282112156302417;-0.014875885216964608;0.019061841818351154;0.026855849064577053;
ef8a6cb6-5892-472f-85fe-7f014f5dbda9;1514167419.039;;0.9778618216514587;0.08766072988510132;-0.1900046318769455;;-107.74055480957031;-119.36274719238281;-17.38232421875;;;;0.05398688391104643;;1.3788815018584653;0.004971987567842007;-0.007353723049163818;0.019792813807725906;-0.08777338848997948;0.0021872542032820783;0.022729014639390265;0.0389399425108116;
ef8a6cb6-5892-472f-85fe-7f014f5dbda9;1514167419.089;;0.9778295159339905;0.0879124104976654;-0.19005484879016876;;-107.56593322753906;-119.53854370117188;-15.525955200195312;;;;0.05402049108754382;;1.3788258220531933;-0.005539473611861467;0.0046931784600019455;0.01027581375092268;-0.08802604373747697;-0.002834136032062325;-0.012886503882675418;0.047027696425273234;
ef8a6cb6-5892-472f-85fe-7f014f5dbda9;1514167419.139;;0.9777450561523438;0.08819400519132614;-0.19035880267620087;;-106.69282531738281;-121.47224426269531;-16.707275390625;;;;0.05419541159049053;;1.3785101106362383;-0.003883324097841978;0.011033903807401657;0.03397153317928314;-0.088308736393081;0.003384345113272696;-0.048576324599154314;0.02726943798186636;
ef8a6cb6-5892-472f-85fe-7f014f5dbda9;1514167419.189;;0.9776870608329773;0.08840923011302948;-0.19055674970149994;;-107.04206848144531;-119.71432495117188;-16.707275390625;;;;0.05439233432216366;;1.3783039258296539;0.012379496358335018;0.01927204616367817;0.04546092823147774;-0.08852480655848767;-0.0000671116594699968;-0.024928785699795716;0.0033539850768457926;
ef8a6cb6-5892-472f-85fe-7f014f5dbda9;1514167419.239;;0.9777305126190186;0.08855462819337845;-0.1902657002210617;;-106.69282531738281;-120.76908874511719;-16.3697509765625;;;;0.05474619019936583;;1.378599073395048;0.01366349682211876;0.012870537117123604;0.008136842399835587;-0.08867078171827003;-0.007357781459670919;-0.010718690755350918;-0.0013060141985748585;
ef8a6cb6-5892-472f-85fe-7f014f5dbda9;1514167419.289;;0.977794349193573;0.08850869536399841;-0.18995878100395203;;-108.08979797363281;-120.41749572753906;-15.694717407226562;;;;0.055024363078016385;;1.3789137714803228;0.018955472856760025;-0.018531886860728264;0.002855439903214574;-0.08862466322563703;-0.008759935773597639;0.013142966295650049;0.026773291070784598;
ef8a6cb6-5892-472f-85fe-7f014f5dbda9;1514167419.339;;0.9777637124061584;0.08845850080251694;-0.19014017283916473;;-107.39131164550781;-121.12066650390625;-16.707275390625;;;;0.05552480809860106;;1.378729130631146;0.004978631157428026;-0.020511111244559288;-0.012633881531655788;-0.08857426968668035;-0.01385589451946426;-0.01649055978587965;0.04581036549099802;
ef8a6cb6-5892-472f-85fe-7f014f5dbda9;1514167419.389;;0.977720320224762;0.0885738879442215;-0.19030936062335968;;-106.34359741210938;-121.12066650390625;-16.707275390625;;;;0.05607172106788524;;1.378554103183231;-0.0014629819197580218;-0.0038570931646972895;-0.026487471535801888;-0.08869011597525192;-0.004109523878101273;-0.03307299862936704;0.0492280001178967;
ef8a6cb6-5892-472f-85fe-7f014f5dbda9;1514167419.439;;0.974662184715271;0.08582696318626404;-0.20656098425388336;;-108.08979797363281;-121.12066650390625;-16.3697509765625;;;;0.05573906553213214;;1.3619555556759173;-0.006476718932390213;0.01898566074669361;-0.004895320162177086;-0.08593268560572291;-0.017413611419701113;0.004834170010711833;0.03517156956834948;
ef8a6cb6-5892-472f-85fe-7f014f5dbda9;1514167419.489;;0.9746933579444885;0.08611361682415009;-0.20629434287548065;;-107.21669006347656;-119.53854370117188;-17.21356201171875;;;;0.05655380840920953;;1.3622238544848306;0.008522015996277332;-0.0015799219254404306;0.019023297354578972;-0.08622040066348176;-0.01730735129220695;-0.022561235490715273;0.015521968097417831;
ef8a6cb6-5892-472f-85fe-7f014f5dbda9;1514167419.539;;0.9746652245521545;0.08622921258211136;-0.20637857913970947;;-107.74055480957031;-120.06591796875;-18.394882202148438;;;;0.057252784949949447;;1.3621353064293398;0.013066640123724937;-0.005372894462198019;0.0566897876560688;-0.08633643464807933;-0.013703029072893712;-0.02607900497460094;0.023937823458177233;
ef8a6cb6-5892-472f-85fe-7f014f5dbda9;1514167419.589;;0.9746394753456116;0.08642784506082535;-0.20641760528087616;;-107.91517639160156;-119.89012145996094;-16.53851318359375;;;;0.05941865174759308;;1.362091617447061;0.0028386216145008802;0.011716693639755249;0.05981123074889183;-0.0865358064178399;-0.024655811688062596;-0.015453791173511804;0.016830379140973763;
ef8a6cb6-5892-472f-85fe-7f014f5dbda9;1514167419.639;;0.9768341183662415;0.08905047178268433;-0.1945894956588745;;-106.34359741210938;-120.41749572753906;-23.795211791992188;;;;0.13769224034485109;;1.3741660351274667;0.08412472158670425;0.08418254554271698;0.204828143119812;-0.08916859054779723;-0.19055263810458659;0.018744659332522718;0.09144602761448684;
ef8a6cb6-5892-472f-85fe-7f014f5dbda9;1514167419.689;;0.9770519137382507;0.08778372406959534;-0.19407135248184204;;-105.81973266601562;-121.99961853027344;-22.951400756835938;;;;0.14777263278234995;;1.3747188756421893;0.04495132341980934;0.07278451323509216;0.19645175337791443;-0.08789686018346618;-0.20649325512536487;-0.00864035984065308;0.0875628724290423;
ef8a6cb6-5892-472f-85fe-7f014f5dbda9;1514167419.739;;0.9866068363189697;0.11547242105007172;-0.11520872265100479;;-103.54966735839844;-122.87858581542969;-27.5079345703125;;;;0.25570634297093836;;1.4545501170789792;0.03060505911707878;0.019018543884158134;0.05522634834051132;-0.11573059193015187;-0.1966424885692708;-0.012200473585871006;0.08023997837965141;
ef8a6cb6-5892-472f-85fe-7f014f5dbda9;1514167419.789;;0.9876943826675415;0.11014220863580704;-0.11103379726409912;;-103.89891052246094;-123.23016357421875;-27.5079345703125;;;;0.264950152598552;;1.4588491720526644;0.012687097303569317;0.003856193507090211;0.035746991634368896;-0.11036612619349953;-0.17574572875985503;-0.03237738095263834;0.06665652523970227;
ef8a6cb6-5892-472f-85fe-7f014f5dbda9;1514167419.839;;0.9879472851753235;0.1081940308213234;-0.11069919914007187;;-103.02581787109375;-121.64804077148438;-27.33917236328125;;;;0.27374073193923787;;1.4592120586350295;0.02129959873855114;0.024847347289323807;-0.00017109366308432072;-0.10840623911612289;-0.1770378945207615;-0.015704660948197266;0.07893609470994863;
ef8a6cb6-5892-472f-85fe-7f014f5dbda9;1514167419.889;;0.9893128871917725;0.10679593682289124;-0.09927060455083847;;-103.02581787109375;-121.64804077148438;-29.701812744140625;;;;0.28316096478090524;;1.4707880981184156;0.008398298174142838;0.0017245898488909006;-0.03171085566282272;-0.10699999339226729;-0.1608717077556535;-0.005077849250454083;0.0499843378674792;
ef8a6cb6-5892-472f-85fe-7f014f5dbda9;1514167419.939;;0.9892354011535645;0.11104332655668259;-0.09530305862426758;;-104.24815368652344;-121.47224426269531;-29.533065795898438;;;;0.29146327566404445;;1.4747526178028914;0.027579765766859055;0.0063120294362306595;-0.042529620230197906;-0.1112728080493422;-0.14149454766423694;-0.02272981358771729;0.07512937224778936;
ef8a6cb6-5892-472f-85fe-7f014f5dbda9;1514167419.989;;0.9882336854934692;0.11174669116735458;-0.10443533211946487;;-102.67657470703125;-122.70278930664062;-29.701812744140625;;;;0.30475540840330007;;1.4655083377319273;0.03364735096693039;0.019036393612623215;-0.0021778831724077463;-0.11198058027097015;-0.14775217727759613;-0.03575773132427591;0.08951523582417939;
ef8a6cb6-5892-472f-85fe-7f014f5dbda9;1514167420.039;;0.9892329573631287;0.10858312249183655;-0.0981225073337555;;-101.803466796875;-122.1754150390625;-29.870574951171875;;;;0.3114545101603781;;1.471929227112307;-0.008886188268661499;-0.016954101622104645;-0.04613403603434563;-0.10879763540806248;-0.1181607291412897;-0.03932583455276408;0.06399682625904013;
ef8a6cb6-5892-472f-85fe-7f014f5dbda9;1514167420.089;;0.9900882244110107;0.10401638597249985;-0.0943714901804924;;-101.97808837890625;-120.59329223632812;-30.376861572265625;;;;0.32255535076210773;;1.4757671792633031;0.012170122005045414;0.0005215708515606821;0.05414937809109688;-0.10420487305781584;-0.11558571868329207;-0.019173694584134482;0.0521183288489597;
ef8a6cb6-5892-472f-85fe-7f014f5dbda9;1514167420.139;;0.9902026653289795;0.10321390628814697;-0.09405099600553513;;-101.97808837890625;-120.59329223632812;-30.376861572265625;;;;0.32673868833274067;;1.476098855082244;-0.014662491157650948;-0.050998345017433167;0.0033680389169603586;-0.10339804950111083;-0.07507317954878868;-0.047615456077853724;0.03476011117993223;
ef8a6cb6-5892-472f-85fe-7f014f5dbda9;1514167420.189;;0.9907107353210449;0.09779930859804153;-0.09448502957820892;;-100.75575256347656;-122.1754150390625;-29.533065795898438;;;;0.3306915779329586;;1.4757129569621419;0.039379533380270004;-0.037481315433979034;-0.007047016639262438;-0.09795588729829874;-0.08613595071697784;-0.04168859107188238;0.04090322486641801;
ef8a6cb6-5892-472f-85fe-7f014f5dbda9;1514167420.239;;0.9908790588378906;0.09644310176372528;-0.09411366283893585;;-99.88264465332031;-121.99961853027344;-29.026779174804688;;;;0.33418500153192493;;1.4761004354761387;0.033580757677555084;-0.02111046016216278;-0.04663344472646713;-0.09659324051176126;-0.08503952729619221;-0.010711500220407705;0.06421653704897166;
ef8a6cb6-5892-472f-85fe-7f014f5dbda9;1514167420.289;;0.9912105202674866;0.0899590477347374;-0.09700056910514832;;-99.70803833007812;-121.12066650390625;-29.533065795898438;;;;0.33568978154992657;;1.4732462211409334;0.01876874268054962;-0.0322045274078846;0.01829570345580578;-0.09008082503324304;-0.05164242196216254;0.033214412483250244;0.03195367202320673;
ef8a6cb6-5892-472f-85fe-7f014f5dbda9;1514167420.339;;0.9912990927696228;0.08934535086154938;-0.0966615155339241;;-99.53341674804688;-120.94486999511719;-30.714385986328125;;;;0.3378216866302964;;1.473593681219355;0.021457215771079063;-0.029225723817944527;-0.010546782054007053;-0.08946464829647345;-0.04059270028331477;0.0011422297915349852;0.021895445218195465;
ef8a6cb6-5892-472f-85fe-7f014f5dbda9;1514167420.389;;0.9913137555122375;0.08920064568519592;-0.09664548188447952;;-100.58113098144531;-119.18695068359375;-29.364303588867188;;;;0.3390937328851062;;1.4736111324077648;0.030643682926893234;-0.07252280414104462;0.017025187611579895;-0.08931936440265266;0.01686366865459975;-0.052100485669656166;0.02598286485924908;
ef8a6cb6-5892-472f-85fe-7f014f5dbda9;1514167420.439;;0.9922381043434143;0.07711941748857498;-0.09755070507526398;;-98.66030883789062;-119.36274719238281;-30.208099365234375;;;;0.340202643825358;;1.4727974494586502;0.02820867858827114;-0.060044847428798676;0.002732634311541915;-0.07719606872558693;-0.014814366195783779;0.016652746296265477;0.018364359928859403;
ef8a6cb6-5892-472f-85fe-7f014f5dbda9;1514167420.489;;0.9921666979789734;0.0749063491821289;-0.0999719500541687;;-100.05726623535156;-120.06591796875;-29.533065795898438;;;;0.339979621935489;;1.470374024076431;0.016042590141296387;-0.0014352872967720032;0.034328680485486984;-0.07497657488069312;-0.01363778162618677;0.021436582562374813;0.025669144482837747;
ef8a6cb6-5892-472f-85fe-7f014f5dbda9;1514167420.539;;0.9919102191925049;0.07613163441419601;-0.10157759487628937;;-99.18417358398438;-121.29646301269531;-29.026779174804688;;;;0.3382163804278976;;1.4687460346186776;-0.027768416330218315;0.015436366200447083;-0.02291887439787388;-0.07620537036613274;0.04499703609408782;-0.013947240944853978;0.03962357596263494;
ef8a6cb6-5892-472f-85fe-7f014f5dbda9;1514167420.589;;0.9919763207435608;0.07617133110761642;-0.10090073943138123;;-98.31106567382812;-120.41749572753906;-28.858016967773438;;;;0.33714942670532216;;1.4694280828214084;0.013745758682489395;-0.061492372304201126;0.018045589327812195;-0.07624518431275423;0.0035111115811604678;-0.021300761346780772;0.01668550317767345;
ef8a6cb6-5892-472f-85fe-7f014f5dbda9;1514167420.639;;0.9924198985099792;0.07043202221393585;-0.10070835798978806;;-98.31106567382812;-120.41749572753906;-28.858016967773438;;;;0.3348184943417368;;1.4696649490870677;0.03623615577816963;0.0065485755912959576;0.07771337032318115;-0.07049038798713622;0.05851737231620209;-0.056720537528725634;0.02460361373069704;
ef8a6cb6-5892-472f-85fe-7f014f5dbda9;1514167420.689;;0.992426335811615;0.07032696902751923;-0.10071837157011032;;-97.78721618652344;-118.83537292480469;-28.351730346679688;;;;0.3317592900189501;;1.469655611061942;0.003560655051842332;-0.057829998433589935;-0.0010729993227869272;-0.0703850673044282;0.040389501092141726;0.01203828707548518;0.007272293988679375;
ef8a6cb6-5892-472f-85fe-7f014f5dbda9;1514167420.739;;0.9928720593452454;0.06834050267934799;-0.09764561802148819;;-98.13644409179688;-119.18695068359375;-27.67669677734375;;;;0.3267664836746113;;1.4727649408122674;0.061784934252500534;0.003757266327738762;-0.025935299694538116;-0.06839381142329665;0.030566697727493465;0.05124587727584974;0.01861469707132685;
ef8a6cb6-5892-472f-85fe-7f014f5dbda9;1514167420.789;;0.9925132989883423;0.06721427291631699;-0.10197815299034119;;-97.61259460449219;-119.36274719238281;-28.858016967773438;;;;0.32204294887576584;;1.468408236198687;-0.015386249870061874;-0.03695610165596008;0.0014074540231376886;-0.06726498839317441;0.11004794151258131;0.017108146842669026;0.030104639278364716;
ef8a6cb6-5892-472f-85fe-7f014f5dbda9;1514167420.839;;0.9923827648162842;0.06896228343248367;-0.10208196192979813;;-96.91410827636719;-117.25323486328125;-28.520492553710938;;;;0.3185139749423006;;1.4682913458943627;0.015475545078516006;-0.006721681449562311;0.017929701134562492;-0.06901706327472937;0.06369535642364316;-0.06397978202806362;-0.012978116624174144;
ef8a6cb6-5892-472f-85fe-7f014f5dbda9;1514167420.889;;0.9930180311203003;0.0690620094537735;-0.0956331118941307;;-97.61259460449219;-116.90165710449219;-28.1829833984375;;;;0.3153103484098906;;1.4747869027679372;0.0858546793460846;-0.01336743589490652;0.0763002261519432;-0.06911703003203659;0.11865314762684534;-0.023296001635468137;0.017543307364787975;
ef8a6cb6-5892-472f-85fe-7f014f5dbda9;1514167420.939;;0.9932876229286194;0.06895714998245239;-0.09286917001008987;;-96.56486511230469;-117.25323486328125;-26.495376586914062;;;;0.3074861022290554;;1.477570591315999;0.0342240147292614;0.0007907786639407277;0.03812068700790405;-0.0690119191925965;0.06120796396550915;-0.004532167543096847;0.004612062375799224;
ef8a6cb6-5892-472f-85fe-7f014f5dbda9;1514167420.989;;0.9934872984886169;0.06534317880868912;-0.09334488213062286;;-97.26335144042969;-116.90165710449219;-26.832901000976562;;;;0.302463091893844;;1.4771145517579132;0.021267956122756004;-0.039723679423332214;-0.007439411245286465;-0.06538977056501698;0.08692477903185931;-0.028218055962152586;0.0006503439381973499;
ef8a6cb6-5892-472f-85fe-7f014f5dbda9;1514167421.039;;0.9944756627082825;0.05689424276351929;-0.08821158111095428;;-95.51715087890625;-116.55007934570312;-27.17041015625;;;;0.2928535359094758;;1.4823262695637025;-0.04783560335636139;0.08685880154371262;-0.0074304621666669846;-0.05692498234979642;0.07900959795603481;0.051693288338983054;0.09103669975494165;
ef8a6cb6-5892-472f-85fe-7f014f5dbda9;1514167421.089;;0.9945050477981567;0.055052004754543304;-0.08904481679201126;;-94.64404296875;-117.07745361328125;-28.01422119140625;;;;0.2863586184685402;;1.4814976331006067;-0.056547291576862335;-0.11123485863208771;0.058801863342523575;-0.05507984885192484;0.11358888049795066;-0.06839929785705011;0.029154689717533454;
ef8a6cb6-5892-472f-85fe-7f014f5dbda9;1514167421.139;;0.9944462180137634;0.05450531467795372;-0.09003317356109619;;-96.56486511230469;-116.198486328125;-27.5079345703125;;;;0.27973180444868384;;1.4805064937334735;0.00018273286696057767;0.010161436162889004;-0.01397069450467825;-0.05453233971664469;0.18819227843044936;-0.04075062573595647;0.051011785416031775;
ef8a6cb6-5892-472f-85fe-7f014f5dbda9;1514167421.189;;0.9943875670433044;0.053925368934869766;-0.09102480113506317;;-95.342529296875;-115.67111206054688;-26.326614379882812;;;;0.27382392161070374;;1.479512168749484;-0.01658906228840351;-0.14820942282676697;-0.025384536013007164;-0.05395153988606984;0.08432180538241586;-0.06024310070257344;0.013607687905868875;
ef8a6cb6-5892-472f-85fe-7f014f5dbda9;1514167421.239;;0.9942963123321533;0.05424933135509491;-0.09182477742433548;;-94.9932861328125;-116.022705078125;-26.326614379882812;;;;0.2666829882185431;;1.4787060229132603;-0.013949663378298283;-0.062168657779693604;-0.002398240612819791;-0.05427597689905033;0.14834712746511983;-0.020973192532701024;-0.020003269263694164;
ef8a6cb6-5892-472f-85fe-7f014f5dbda9;1514167421.289;;0.9942014813423157;0.05558973178267479;-0.09205008298158646;;-96.21563720703125;-116.198486328125;-25.145294189453125;;;;0.2598327061197435;;1.4784725830027248;0.04632586985826492;-0.03404432535171509;-0.030188120901584625;-0.05561840243671273;0.1215525311056146;-0.05799219694923847;-0.04814649039921552;
ef8a6cb6-5892-472f-85fe-7f014f5dbda9;1514167421.339;;0.9937774538993835;0.059689562767744064;-0.09403986483812332;;-93.59632873535156;-113.91319274902344;-24.301483154296875;;;;0.24657909962365962;;1.4764485737942816;-0.005236821249127388;-0.09922508895397186;0.022415097802877426;-0.059725063837946776;0.13996189845689636;-0.07815791903942747;-0.056885653516310544;
ef8a6cb6-5892-472f-85fe-7f014f5dbda9;1514167421.389;;0.9936511516571045;0.06093950569629669;-0.09457171708345413;;-94.29481506347656;-114.61636352539062;-23.626449584960938;;;;0.23910081091124846;;1.475906180335939;0.0364392064511776;0.02101544290781021;-0.06447060406208038;-0.06097728674788539;0.1764301611600054;-0.08026980578386031;-0.02073537224735695;
ef8a6cb6-5892-472f-85fe-7f014f5dbda9;1514167421.439;;0.9935491681098938;0.061295852065086365;-0.09540873020887375;;-94.46943664550781;-114.0889892578125;-21.77008056640625;;;;0.23231808586235794;;1.4750616837497061;-0.01736816018819809;0.012617713771760464;-0.06772299855947495;-0.06133430163830704;0.13953872215968274;-0.062486813920965195;0.001332379493366643;
ef8a6cb6-5892-472f-85fe-7f014f5dbda9;1514167421.489;;0.9934648871421814;0.061518747359514236;-0.096141017973423;;-94.9932861328125;-113.91319274902344;-20.251235961914062;;;;0.22520506086038194;;1.474323289571833;0.017948757857084274;-0.022334173321723938;-0.030720511451363564;-0.06155761852796324;0.17124844862703822;0.019712185756548505;0.037213681492222234;
ef8a6cb6-5892-472f-85fe-7f014f5dbda9;1514167421.539;12.58184814453125;0.9935338497161865;0.05887668952345848;-0.09707736223936081;;-93.94557189941406;-114.26478576660156;-20.251235961914062;;3.240000009536743;78.3984375;0.2102605571715874;;1.4733963406712385;0.04426216706633568;-0.03295201063156128;-0.0529928132891655;-0.05891076016329251;0.13908199003273417;0.020959077778923606;0.07843435516057769;
ef8a6cb6-5892-472f-85fe-7f014f5dbda9;1514167421.589;;0.9940741658210754;0.05233718454837799;-0.09527527540922165;;-93.77095031738281;-116.198486328125;-18.732406616210938;;;;0.20290052744570952;;1.475244964104387;0.025335019454360008;-0.03921462222933769;-0.02574215456843376;-0.052361108343093044;0.17040928656755427;0.13481640491475425;0.011877432145644394;
ef8a6cb6-5892-472f-85fe-7f014f5dbda9;1514167421.639;;0.9942112565040588;0.052621543407440186;-0.09367462992668152;;-93.77095031738281;-114.0889892578125;-18.732406616210938;;;;0.19527526608404533;;1.4768536200764801;0.029729776084423065;-0.04844063147902489;-0.14985564351081848;-0.05264585957082683;0.14830611478433262;0.09554330095157375;0.010299775515881454;
ef8a6cb6-5892-472f-85fe-7f014f5dbda9;1514167421.689;;0.9942582845687866;0.05291631072759628;-0.09300737828016281;;-94.29481506347656;-116.37428283691406;-16.87603759765625;;;;0.18147632615704928;;1.4775232735317467;-0.07963119447231293;-0.12148930877447128;-0.05106615275144577;-0.052941039166431336;0.1262346346180829;0.08240592729421287;0.010218549102634037;
ef8a6cb6-5892-472f-85fe-7f014f5dbda9;1514167421.739;;0.9942957758903503;0.05436805635690689;-0.09176068753004074;;-94.9932861328125;-116.022705078125;-16.87603759765625;;;;0.17421385034009224;;1.478769881681384;0.03240710496902466;-0.07344154268503189;0.08407025039196014;-0.05439487602575259;0.15938939229291538;-0.022134597084084582;-0.022466160639799445;
ef8a6cb6-5892-472f-85fe-7f014f5dbda9;1514167421.789;;0.9942432045936584;0.05654284730553627;-0.09101250022649765;;-97.08872985839844;-116.37428283691406;-16.20098876953125;;;;0.1676816020560799;;1.4795112607794596;0.02992667257785797;-0.04033801332116127;0.12824390828609467;-0.05657301805791102;0.11293427550200918;0.021646705972382062;-0.025479793729333112;
ef8a6cb6-5892-472f-85fe-7f014f5dbda9;1514167421.839;;0.9944353103637695;0.058237962424755096;-0.08778834342956543;;-96.73948669433594;-117.78062438964844;-14.513397216796875;;;;0.1550227353241165;;1.482744996286952;0.06235792860388756;0.0894976332783699;0.012623620219528675;-0.058270933328579765;0.12866610069332526;0.052705289553213165;0.006257363297250178;
ef8a6cb6-5892-472f-85fe-7f014f5dbda9;1514167421.889;;0.9945385456085205;0.05871158838272095;-0.08629024773836136;;-97.43797302246094;-117.42903137207031;-15.525955200195312;;;;0.1486576504916621;;1.484248966584906;0.013472306542098522;-0.05553775653243065;0.06421077996492386;-0.05874537178098652;0.13354767497144052;0.005181712532967174;-0.001534513420103657;
ef8a6cb6-5892-472f-85fe-7f014f5dbda9;1514167421.939;13.74639892578125;0.9923349022865295;0.07100780308246613;-0.10114022344350815;31.313482801649304;-100.75575256347656;-124.98808288574219;-10.294387817382812;121.44966824001736;4.260000228881836;84.0234375;0.05880741941302425;;1.469225599670825;0.00948089174926281;-0.05092723295092583;-0.034098491072654724;-0.07106761075331439;-0.004972920703504961;-0.010677145442345682;0.00715245173962581;
ef8a6cb6-5892-472f-85fe-7f014f5dbda9;1514167421.989;;0.9923621416091919;0.07080846279859543;-0.10101193934679031;;-104.24815368652344;-124.28492736816406;-11.30694580078125;;;;0.05635856303890041;;1.4693563159564378;0.052498627454042435;0.0013656060909852386;0.009367602877318859;-0.07086776994258315;0.04254692789121492;-0.04961708795315728;0.031982966795197604;
ef8a6cb6-5892-472f-85fe-7f014f5dbda9;1514167422.039;;0.992268443107605;0.07109247148036957;-0.10173145681619644;;-104.24815368652344;-129.91026306152344;-16.032241821289062;;;;0.03380527449672903;;1.46862916214188;-0.006352260708808899;-0.00413690647110343;0.11192430555820465;-0.07115249683673489;0.005800897486410597;-0.07589183526787904;0.02575303405717524;
ef8a6cb6-5892-472f-85fe-7f014f5dbda9;1514167422.089;13.67071533203125;0.9922545552253723;0.07110315561294556;-0.10185957700014114;;-106.16897583007812;-127.97654724121094;-16.87603759765625;;6.260000228881836;87.5390625;0.03173339449635074;;1.4684999660915328;-0.020864717662334442;-0.013348632492125034;-0.05872391536831856;-0.071163201343127;0.019423765410492923;-0.03550686154959045;0.01527456043214947;
ef8a6cb6-5892-472f-85fe-7f014f5dbda9;1514167422.139;;0.9923661351203918;0.07081318646669388;-0.10096931457519531;;-104.94662475585938;-128.15234375;-16.707275390625;;;;0.030613954562612757;;1.4693992324373522;0.013661012053489685;-0.07821369916200638;-0.06381037086248398;-0.0708725034846046;0.040465933815427;-0.03436143596474737;-0.01258609931171448;
ef8a6cb6-5892-472f-85fe-7f014f5dbda9;1514167422.189;;0.9923694133758545;0.07106199860572815;-0.10076220333576202;;-104.42277526855469;-127.97654724121094;-16.87603759765625;;;;0.0302390403542251;;1.4696061395437223;-0.009657689370214939;0.0180645864456892;-0.04611898213624954;-0.07112194344660928;-0.012166651440027;-0.00008309062601047223;-0.010849451964873809;
ef8a6cb6-5892-472f-85fe-7f014f5dbda9;1514167422.239;;0.9923737049102783;0.07112972438335419;-0.10067275911569595;;-103.72428894042969;-126.57022094726562;-18.226119995117188;;;;0.028219203673542505;;1.4696957766632899;-0.00892949104309082;-0.030983848497271538;-0.05072500556707382;-0.0711898416420166;0.03810344361241771;-0.0439243148070039;-0.025986326968666183;
ef8a6cb6-5892-472f-85fe-7f014f5dbda9;1514167422.289;;0.992359459400177;0.07147712260484695;-0.10056760162115097;;-103.37504577636719;-126.57022094726562;-16.87603759765625;;;;0.027090857488541967;;1.4697992297260754;0.025310281664133072;-0.0042774127796292305;-0.07548826932907104;-0.07153812341309138;0.04660425381195064;-0.026027073333344395;-0.012512063433410277;
ef8a6cb6-5892-472f-85fe-7f014f5dbda9;1514167422.339;;0.992297351360321;0.07186930626630783;-0.10089973360300064;;-101.803466796875;-124.98808288574219;-18.394882202148438;;;;0.026536550596298565;;1.4694616569239747;-0.044024646282196045;0.01608235575258732;-0.04801073670387268;-0.07193131813726807;0.028206071737247228;-0.04628387553281411;-0.013891314561962314;
ef8a6cb6-5892-472f-85fe-7f014f5dbda9;1514167422.389;;0.992261528968811;0.07130766659975052;-0.1016475185751915;;-103.54966735839844;-124.63650512695312;-17.719833374023438;;;;0.02564071344869824;;1.4687121727913848;-0.05070272088050842;-0.04999114200472832;-0.016013002023100853;-0.07136823569399992;0.08052360503574485;-0.09704239432917934;0.021678930221572024;
ef8a6cb6-5892-472f-85fe-7f014f5dbda9;1514167422.439;;0.9922094941139221;0.07060521095991135;-0.10264117270708084;;-101.97808837890625;-125.51547241210938;-17.551071166992188;;;;0.025372688536303523;;1.4677159027739375;-0.08374697715044022;0.025937149301171303;-0.009907661005854607;-0.07066400259228553;0.023050458182962832;-0.09015146500859932;0.009826531790174373;
ef8a6cb6-5892-472f-85fe-7f014f5dbda9;1514167422.489;;0.9923370480537415;0.07081712037324905;-0.10125301778316498;;-102.501953125;-124.28492736816406;-16.707275390625;;;;0.02343448335418784;;1.4691133235841145;-0.011578360572457314;-0.006989608518779278;-0.01762828603386879;-0.07087644860780902;0.02549310953478351;-0.035458125701642;0.02251329859109385;
ef8a6cb6-5892-472f-85fe-7f014f5dbda9;1514167422.539;;0.9923273324966431;0.07076960802078247;-0.1013815850019455;;-100.93037414550781;-123.75755310058594;-19.238677978515625;;;;0.02367795200934906;;1.4689841119974318;-0.01986939087510109;-0.004271803889423609;0.04829632490873337;-0.07082881678110592;-0.016110260382216336;-0.0998102176500987;0.002576874670760671;
ef8a6cb6-5892-472f-85fe-7f014f5dbda9;1514167422.589;;0.9923850297927856;0.07048307359218597;-0.10101521015167236;;-99.53341674804688;-123.75755310058594;-19.238677978515625;;;;0.022604942931018574;;1.469355373036148;-0.04901040717959404;-0.022906167432665825;-0.07232467830181122;-0.07054156090674384;0.039263250267147214;-0.031999478393956095;-0.014975221125624565;
ef8a6cb6-5892-472f-85fe-7f014f5dbda9;1514167422.639;;0.9924770593643188;0.07012981921434402;-0.10035479813814163;;-100.05726623535156;-122.87858581542969;-17.719833374023438;;;;0.021617301300022842;;1.470023352207793;-0.03683437034487724;-0.043716855347156525;0.033109258860349655;-0.07018742987960144;0.06248708023707421;-0.05329384815412067;-0.012857209110684546;
ef8a6cb6-5892-472f-85fe-7f014f5dbda9;1514167422.689;;0.9924754500389099;0.07033085078001022;-0.10023050010204315;;-99.88264465332031;-123.40596008300781;-18.226119995117188;;;;0.02225440988153984;;1.470147165839364;-0.010404471307992935;0.029583701863884926;0.010905598290264606;-0.07038896108545038;0.08686512422344153;-0.09000126272311884;-0.004865595311574768;
ef8a6cb6-5892-472f-85fe-7f014f5dbda9;1514167422.739;;0.9927546381950378;0.06951411068439484;-0.09801020473241806;;-100.40650939941406;-122.1754150390625;-17.719833374023438;;;;0.019992447933039052;;1.4723897058135387;-0.020632455125451088;-0.0031078583560884;-0.04061589762568474;-0.06957021669609967;0.0427445344440988;-0.06636091435870346;0.0027760791202985978;
ef8a6cb6-5892-472f-85fe-7f014f5dbda9;1514167422.789;;0.9928240776062012;0.06964628398418427;-0.0972098782658577;;-99.88264465332031;-121.29646301269531;-17.888595581054688;;;;0.020503060838688122;;1.473194939059399;-0.018733488395810127;0.04911287501454353;-0.010822282172739506;-0.06970270803483564;-0.04785727110483292;-0.03339896954679274;0.0033976609187230922;
ef8a6cb6-5892-472f-85fe-7f014f5dbda9;1514167422.839;13.459228515625;0.9929293394088745;0.06935897469520569;-0.09633587300777435;31.313482545413947;-99.35879516601562;-120.76908874511719;-17.38232421875;121.4496763641862;7.179999828338623;89.296875;0.019583826884868014;;1.4740771668268255;-0.0209139846265316;-0.011253507807850838;-0.06766554713249207;-0.0694147065787817;0.024163659518615953;-0.012822588016513516;0.04090482276307206;
ef8a6cb6-5892-472f-85fe-7f014f5dbda9;1514167422.889;;0.9929969310760498;0.06901835650205612;-0.09588314592838287;;-99.35879516601562;-120.06591796875;-18.732406616210938;;;;0.018933927455303305;;1.4745353948680457;0.01022268459200859;0.04212666302919388;-0.08192749321460724;-0.06907326936538723;-0.06508632546099154;0.05336255771024472;0.032213596545598466;
ef8a6cb6-5892-472f-85fe-7f014f5dbda9;1514167422.939;;0.9931154847145081;0.06915640085935593;-0.09454619884490967;;-100.58113098144531;-120.24169921875;-17.551071166992188;;;;0.017685453532973232;;1.4758807680678359;0.06987277418375015;-0.03862356022000313;-0.04229464381933212;-0.06921164081369337;0.048584580398533556;0.04316877600574842;0.06321705269186492;
ef8a6cb6-5892-472f-85fe-7f014f5dbda9;1514167422.989;;0.9931676983833313;0.06892017275094986;-0.09416994452476501;;-99.00955200195312;-119.01116943359375;-15.357192993164062;;;;0.017583402996733055;;1.476261185910812;0.04833623394370079;0.07683178782463074;-0.0931163802742958;-0.06897484896816415;-0.010260893363966296;0.09886932283697371;0.08092734025700087;
ef8a6cb6-5892-472f-85fe-7f014f5dbda9;1514167423.039;;0.9931600689888;0.0694531574845314;-0.09385781735181808;;-98.31106567382812;-117.95640563964844;-17.0447998046875;;;;0.016020637153935438;;1.4765719495159204;-0.02830108255147934;-0.0550488606095314;0.05401712283492088;-0.0695091164172122;0.04754781178616571;0.0323693914693681;0.036497557475099925;
ef8a6cb6-5892-472f-85fe-7f014f5dbda9;1514167423.089;;0.9931333661079407;0.06938755512237549;-0.09418872743844986;31.313478190104167;-99.18417358398438;-119.18695068359375;-16.87603759765625;121.449814453125;;;0.016151939131618855;;1.4762391934844052;0.006912423297762871;0.04259669780731201;0.03274155408143997;-0.06944335636636241;-0.017339042909178898;-0.054640608717373744;0.012750948983190385;
ef8a6cb6-5892-472f-85fe-7f014f5dbda9;1514167423.139;;0.9930740594863892;0.06941574066877365;-0.09479191899299622;;-98.13644409179688;-119.53854370117188;-14.850906372070312;;;;0.015385674928463175;;1.4756316252369066;-0.07193140685558319;0.012478183023631573;0.11638316512107849;-0.06947160798878045;0.06990638071792596;-0.10442068212924388;-0.032788573024946574;
ef8a6cb6-5892-472f-85fe-7f014f5dbda9;1514167423.189;;0.9930565357208252;0.06932714581489563;-0.09503880143165588;;-98.83493041992188;-118.48377990722656;-14.513397216796875;;;;0.014315312131148483;;1.4753836064747492;-0.017974190413951874;-0.02080420032143593;0.030783964321017265;-0.06938280191275553;0.011047857466084712;-0.10458366758795673;-0.025366343066895735;
ef8a6cb6-5892-472f-85fe-7f014f5dbda9;1514167423.239;;0.9930480718612671;0.06809522211551666;-0.0960128903388977;;-97.61259460449219;-118.65957641601562;-15.019668579101562;;;;0.014167726241372875;;1.4744108808182421;0.01864011585712433;-0.006251349113881588;0.1165817603468895;-0.0681479553599206;0.0022636869265673524;-0.14254356681761915;-0.006410228743820726;
ef8a6cb6-5892-472f-85fe-7f014f5dbda9;1514167423.289;;0.993050754070282;0.06805084645748138;-0.09601683169603348;;-97.43797302246094;-120.24169921875;-13.500823974609375;;;;0.013527624796154743;;1.4744072064340437;0.002997196512296796;0.046008605509996414;0.003502818290144205;-0.0681034766725294;0.03158668842499381;-0.0972357398243191;0.013352024441221268;
ef8a6cb6-5892-472f-85fe-7f014f5dbda9;1514167423.339;;0.993026852607727;0.06840873509645462;-0.09601015597581863;;-98.31106567382812;-118.65957641601562;-13.332077026367188;;;;0.01333164942762569;;1.4744115661638677;-0.05209360271692276;0.02538703940808773;0.02159309573471546;-0.0684622042972073;-0.007713846097414514;-0.11870987295806402;0.02169331129145845;
ef8a6cb6-5892-472f-85fe-7f014f5dbda9;1514167423.389;;0.9930608868598938;0.06838151067495346;-0.09567717462778091;;-98.48568725585938;-119.18695068359375;-13.500823974609375;;;;0.012757688074962548;;1.474747058593685;0.07589362561702728;0.06342390924692154;-0.08840479701757431;-0.0684349159786213;0.004460262193664708;-0.16142484631406295;0.022398250032002427;
ef8a6cb6-5892-472f-85fe-7f014f5dbda9;1514167423.439;;0.9931212663650513;0.06784703582525253;-0.09543062001466751;;-98.48568725585938;-119.18695068359375;-13.500823974609375;;;;0.012712814442388481;;1.474998842367415;0.054287828505039215;0.03791163116693497;-0.18990874290466309;-0.0678991981811416;-0.023468041841887256;-0.05703612211790002;0.012742160551593123;
ef8a6cb6-5892-472f-85fe-7f014f5dbda9;1514167423.489;;0.9932259917259216;0.06700126826763153;-0.09493675082921982;;-99.00955200195312;-120.06591796875;-12.994552612304688;;;;0.011622318825781682;;1.4755015982255693;0.09217746555805206;0.0008850818849168718;-0.2534977197647095;-0.06705150309662977;-0.002608566287732614;0.059509932454474626;0.033311617863038136;
