track_uuid;t;alt;g_x;g_y;g_z;lat;m_x;m_y;m_z;long;speed;course;att_yaw;heading;att_roll;user_a_x;user_a_y;user_a_z;att_pitch;rot_rate_x;rot_rate_y;rot_rate_z;name
508a8d84-4700-4ffa-9dad-735cf46b6d83;1513934189.114;0;-0.991320013999939;-0.08241342753171921;-0.10243367403745651;31.195255533854166;-85.38919067382812;-78.2274169921875;-22.44512939453125;121.4229296875;0;0;0.07109146158260102;;-1.4678311657471466;-0.037595391273498535;0.010208837687969208;0.07269429415464401;0.08250700535328073;-0.010096842640817416;-0.028409004612311266;0.03236672830827802;
508a8d84-4700-4ffa-9dad-735cf46b6d83;1513934189.164;;-0.9913456439971924;-0.08224200457334518;-0.10232341289520264;;-86.61152648925781;-77.70004272460938;-21.263809204101562;;;;0.07131065986810109;;-1.467943862113662;-0.002459294395521283;-0.035006530582904816;0.06469523906707764;0.0823349982548487;-0.02480122028358092;-0.018945195362605683;0.03493135243802433;
508a8d84-4700-4ffa-9dad-735cf46b6d83;1513934189.214;;-0.9913617372512817;-0.08204663544893265;-0.10232407599687576;;-86.26228332519531;-78.75480651855469;-20.251235961914062;;;;0.07136514272316923;;-1.4679448574103784;-0.002580503933131695;0.026855593547225;0.06062180548906326;0.08213896531944676;-0.019805929026919293;-0.017789383449511295;0.022837138979647485;
508a8d84-4700-4ffa-9dad-735cf46b6d83;1513934189.264;;-0.9913408756256104;-0.0820910632610321;-0.10249053686857224;;-84.69070434570312;-79.63375854492188;-19.744964599609375;;;;0.07150865115403696;;-1.4677765645141772;0.0028154924511909485;0.016951294615864754;0.042676083743572235;0.08218354705749861;-0.010042780470688807;-0.005850964914904087;0.030195985703754435;
508a8d84-4700-4ffa-9dad-735cf46b6d83;1513934189.314;;-0.9914189577102661;-0.08152001351118088;-0.10219075530767441;;-85.56381225585938;-79.10638427734375;-21.601318359375;;;;0.07140424035508339;;-1.4680838086150694;-0.018468743190169334;0.012367178685963154;0.04068257659673691;0.08161057227608667;-0.02477325709213509;-0.018959576432492114;0.03130332808500938;
508a8d84-4700-4ffa-9dad-735cf46b6d83;1513934189.364;;-0.9934808015823364;-0.07798562943935394;-0.08315134048461914;;-84.34146118164062;-78.57901000976562;-20.082489013671875;;;;0.07282165715847976;;-1.4872939696508192;-0.020404700189828873;0.008130894042551517;-0.02045583724975586;0.07806489604252971;-0.029675337710643943;-0.02016332524520793;0.031304127033336404;
508a8d84-4700-4ffa-9dad-735cf46b6d83;1513934189.414;;-0.9934811592102051;-0.077916719019413;-0.08321164548397064;;-84.34146118164062;-79.28218078613281;-20.082489013671875;;;;0.07263953950447993;;-1.4872337184562758;-0.01549101248383522;-0.015512843616306782;0.02321408875286579;0.0779957769569902;-0.016171779403397167;-0.03202104999878574;0.025088841681309478;
508a8d84-4700-4ffa-9dad-735cf46b6d83;1513934189.464;16.049072265625;-0.9934588670730591;-0.07877431064844131;-0.08266883343458176;;-85.56381225585938;-76.64529418945312;-22.6138916015625;;3.4100000858306885;282.65625;0.06866728795637628;;-1.4877744556055212;-0.010828876867890358;0.017342424020171165;-0.021808093413710594;0.07885600851929168;-0.0002684466378799872;-0.004616856065761368;0.033809362670773946;
508a8d84-4700-4ffa-9dad-735cf46b6d83;1513934189.514;;-0.9934074282646179;-0.07835234701633453;-0.08368173986673355;;-85.21456909179688;-77.70004272460938;-23.288925170898438;;;;0.0679666840178363;;-1.4867576442026444;-0.009919009171426296;0.044767752289772034;-0.01261647418141365;0.07843273896002823;-0.0014468954202400501;-0.016532105098884888;0.02521693972974229;
508a8d84-4700-4ffa-9dad-735cf46b6d83;1513934189.564;;-0.992185652256012;-0.07299362123012543;-0.10119055211544037;;-84.51608276367188;-78.0516357421875;-22.6138916015625;;;;0.06455852660572506;;-1.4691602243552613;0.01302917581051588;0.030452115461230278;0.04389379918575287;0.07305859424796228;-0.008717058880047363;-0.01303111352986672;0.015602129246229217;
508a8d84-4700-4ffa-9dad-735cf46b6d83;1513934189.614;;-0.9898254871368408;-0.0652569979429245;-0.12643995881080627;;-80.15058898925781;-79.63375854492188;-21.432571411132812;;;;0.060480390191362615;;-1.443744750907916;0.008059723302721977;0.0395001620054245;-0.10114488750696182;0.06530340178207113;0.01084652248767472;0.040544763383693345;0.03185540137898281;
508a8d84-4700-4ffa-9dad-735cf46b6d83;1513934189.664;;-0.9898097515106201;-0.06517589092254639;-0.12660495936870575;;-80.15058898925781;-80.68850708007812;-19.744964599609375;;;;0.05963224092362332;;-1.4435787287364255;-0.02116134576499462;0.0014399269130080938;-0.06109340488910675;0.06522212069142728;0.001090830782496456;0.027413781312948655;0.023274163714529485;
508a8d84-4700-4ffa-9dad-735cf46b6d83;1513934189.714;;-0.9898538589477539;-0.06455479562282562;-0.12657800316810608;;-78.05514526367188;-82.79801940917969;-20.082489013671875;;;;0.05895416706262914;;-1.4436111280926232;0.0163583867251873;0.05123387277126312;-0.09165319055318832;0.06459971556416332;0.008290154157307661;0.002552107272622934;0.037491449193917496;
508a8d84-4700-4ffa-9dad-735cf46b6d83;1513934189.764;;-0.9898876547813416;-0.06456951797008514;-0.12630605697631836;;-79.80134582519531;-81.04010009765625;-20.082489013671875;;;;0.05815967013460328;;-1.443885741863841;0.016971999779343605;0.006219908129423857;-0.01860666275024414;0.0646144694947902;0.0011169297611792325;0.008380701634370354;0.015809323179037382;
508a8d84-4700-4ffa-9dad-735cf46b6d83;1513934189.814;;-0.9899312853813171;-0.06470931321382523;-0.12589190900325775;;-79.97596740722656;-81.91905212402344;-20.588760375976562;;;;0.05741580771701992;;-1.4443029601564124;0.016954591497778893;0.035885460674762726;-0.03563763573765755;0.06475455746095851;-0.0196549277931118;0.02492718780314167;0.012422847536892623;
508a8d84-4700-4ffa-9dad-735cf46b6d83;1513934189.864;;-0.9898594617843628;-0.06485603749752045;-0.12638036906719208;;-80.32521057128906;-82.97380065917969;-21.263809204101562;;;;0.05540631983135322;;-1.4438082994888084;-0.034920841455459595;0.04155586659908295;-0.02043970488011837;0.06490159159117949;-0.02079795653297381;0.02963592292651077;0.002803775995635422;
508a8d84-4700-4ffa-9dad-735cf46b6d83;1513934189.914;;-0.9897772073745728;-0.06505253911018372;-0.12692201137542725;;-81.023681640625;-82.27064514160156;-20.926284790039062;;;;0.054485802602786654;;-1.4432594377164838;0.010773326270282269;0.042377982288599014;-0.028061507269740105;0.06509851171263227;-0.04052186019831867;-0.0012716594205128362;0.012194614631472832;
508a8d84-4700-4ffa-9dad-735cf46b6d83;1513934189.964;;-0.9888672232627869;-0.04764797165989876;-0.14096535742282867;;-79.27748107910156;-82.27064514160156;-19.576202392578125;;;;0.053006232283754014;;-1.4291979810022477;0.04326483607292175;-0.02336643449962139;-0.03625022619962692;0.047666017933360914;-0.029580262859728115;0.004751079384701361;0.024322117603475666;
508a8d84-4700-4ffa-9dad-735cf46b6d83;1513934190.014;;-0.988926887512207;-0.04708979278802872;-0.14073432981967926;;-79.10285949707031;-81.74325561523438;-19.744964599609375;;;;0.05109300036642452;;-1.4294353656083016;-0.006892199628055096;0.002152660395950079;-0.05943046137690544;0.04710721488585561;-0.05404219642043294;-0.0060475062033519345;0.01701786568171534;
508a8d84-4700-4ffa-9dad-735cf46b6d83;1513934190.064;;-0.9888985753059387;-0.046728793531656265;-0.14105314016342163;;-78.75363159179688;-82.44642639160156;-19.407440185546875;;;;0.0503030855200329;;-1.4291153987910212;0.008704503066837788;-0.005013760179281235;-0.07008271664381027;0.04674581612270665;-0.038258173271751315;-0.013055081979677434;0.03382534163731442;
508a8d84-4700-4ffa-9dad-735cf46b6d83;1513934190.114;;-0.988879919052124;-0.04626675695180893;-0.14133618772029877;31.19526774185196;-79.80134582519531;-81.39167785644531;-19.407440185546875;121.42283292781498;;;0.04948729173263315;;-1.4288322579582928;0.08114980161190033;0.004762851633131504;-0.02866198867559433;0.04628328057118604;-0.03314730082378024;0.0141933170295773;0.012343485336408262;
508a8d84-4700-4ffa-9dad-735cf46b6d83;1513934190.164;;-0.9888811111450195;-0.046418070793151855;-0.14127832651138306;31.195270182291665;-78.22976684570312;-80.1611328125;-21.263809204101562;121.42281358506945;;;0.04755768739606309;;-1.4288897648690797;-0.05242445692420006;0.012329934164881706;-0.06561560183763504;0.04643475449811648;-0.010093114215291304;-0.03792075076163827;0.02984364949153695;
508a8d84-4700-4ffa-9dad-735cf46b6d83;1513934190.214;;-0.9888381361961365;-0.04636383801698685;-0.14159619808197021;;-79.62672424316406;-81.21588134765625;-22.6138916015625;;;;0.04700319839080603;;-1.428568659475988;0.041374173015356064;0.03510285168886185;-0.13408434391021729;0.04638046531531824;-0.00013795174446610455;-0.022514896487747897;0.013054815663568425;
508a8d84-4700-4ffa-9dad-735cf46b6d83;1513934190.264;;-0.9887651205062866;-0.04669501632452011;-0.14199699461460114;;-81.19830322265625;-79.98533630371094;-22.78265380859375;;;;0.04646891334523132;;-1.4281611134116279;0.03347335383296013;0.04382636398077011;-0.12805305421352386;0.04671200324282789;-0.00013795174446610455;-0.022514896487747897;0.013054815663568425;
508a8d84-4700-4ffa-9dad-735cf46b6d83;1513934190.314;;-0.9885838031768799;-0.04702046886086464;-0.14314739406108856;;-80.32521057128906;-80.1611328125;-19.913726806640625;;;;0.04526298961721763;;-1.42699534053915;-0.009798782877624035;-0.004966225475072861;-0.07047566026449203;0.04703781256343079;-0.03443200973363447;0.005898901814525513;0.018302308275460557;
508a8d84-4700-4ffa-9dad-735cf46b6d83;1513934190.364;;-0.9825384020805359;-0.03691773861646652;-0.18236061930656433;;-80.32521057128906;-80.86430358886719;-23.626449584960938;;;;0.04283220142792517;;-1.3872830051283864;0.029581235721707344;-0.016961047425866127;-0.06304648518562317;0.0369261280645847;-0.04179165540606845;-0.017894844628678432;0.014434066792120464;
508a8d84-4700-4ffa-9dad-735cf46b6d83;1513934190.414;;-0.9762489795684814;-0.029670128598809242;-0.21461038291454315;;-80.67445373535156;-80.1611328125;-20.588760375976562;;;;0.04071691680733204;;-1.354406637718695;-0.009102585725486279;-0.04682218283414841;0.02666788548231125;0.02967448299491049;-0.02590696476818182;-0.008311992078246311;0.02174950399045912;
508a8d84-4700-4ffa-9dad-735cf46b6d83;1513934190.464;;-0.9763121604919434;-0.02926594577729702;-0.21437843143939972;;-81.3729248046875;-80.1611328125;-21.263809204101562;;;;0.040147426964982184;;-1.3546468567868066;-0.003637811169028282;-0.02177470363676548;-0.013069083914160728;0.02927012486426677;-0.027130154656855216;-0.019015502815383778;0.019216837793793767;
508a8d84-4700-4ffa-9dad-735cf46b6d83;1513934190.514;;-0.9763121604919434;-0.02926594577729702;-0.21437843143939972;;-82.24603271484375;-79.63375854492188;-22.44512939453125;;;;0.040147426964982184;;-1.3546468567868066;-0.003637811169028282;-0.02177470363676548;-0.013069083914160728;0.02927012486426677;-0.02342516494833698;-0.017830129814189508;0.0155914766018689;
508a8d84-4700-4ffa-9dad-735cf46b6d83;1513934190.564;;-0.9762924909591675;-0.02812722697854042;-0.21462006866931915;;-83.99223327636719;-79.63375854492188;-23.120162963867188;;;;0.03954666294044061;;-1.3544065328005395;0.07907572388648987;-0.03905722126364708;-0.04044584929943085;0.02813093768149794;-0.022272815144659692;0.007174555976673468;0.030374151180680736;
508a8d84-4700-4ffa-9dad-735cf46b6d83;1513934190.614;;-0.9762592315673828;-0.02770925499498844;-0.21482589840888977;;-83.46836853027344;-78.75480651855469;-23.963973999023438;;;;0.03896751955606596;;-1.3541982751339696;0.043855637311935425;-0.01722787879407406;0.023495938628911972;0.027712802751805092;0.00241282394761179;0.023801735926474183;0.009928797176033417;
508a8d84-4700-4ffa-9dad-735cf46b6d83;1513934190.664;16.07745361328125;-0.975928008556366;-0.027894962579011917;-0.21630151569843292;;-83.46836853027344;-79.80955505371094;-22.951400756835938;;4.630000114440918;;0.037834466267579095;;-1.352685377936093;-0.061166081577539444;-0.00686455937102437;-0.020148685202002525;0.027898581165584597;0.015946209659067456;0.04877925747421835;0.007746070346604472;
508a8d84-4700-4ffa-9dad-735cf46b6d83;1513934190.714;;-0.9757757782936096;-0.027759118005633354;-0.217004656791687;;-84.51608276367188;-80.1611328125;-22.951400756835938;;;;0.037249777730824066;;-1.3519656690580895;-0.05724422261118889;0.023959679529070854;-0.05301487073302269;0.027762683438870905;0.0023401196498526265;0.025027855292346666;0.01961657827341466;
508a8d84-4700-4ffa-9dad-735cf46b6d83;1513934190.764;;-0.975776731967926;-0.027522724121809006;-0.21703054010868073;;-83.81761169433594;-78.75480651855469;-19.913726806640625;;;;0.03662550026248858;;-1.3519406074671971;0.0020981517154723406;-0.017933208495378494;-0.03312205523252487;0.027526200289740326;-0.007594536480578964;-0.02486167404032572;0.02635224530244307;
508a8d84-4700-4ffa-9dad-735cf46b6d83;1513934190.814;;-0.9757764935493469;-0.028206635266542435;-0.21694374084472656;;-83.64299011230469;-79.63375854492188;-18.732406616210938;;;;0.03624425567015374;;-1.3520253077182043;0.03559096157550812;-0.0030586239881813526;0.03914833441376686;0.02821037648237789;-0.013475595115800945;-0.017874870920502838;-0.003785683489547637;
508a8d84-4700-4ffa-9dad-735cf46b6d83;1513934190.864;;-0.9758486747741699;-0.029006481170654297;-0.21651330590248108;;-83.81761169433594;-78.75480651855469;-20.588760375976562;;;;0.03574427341162431;;-1.3524613317872498;0.013247954659163952;-0.024963855743408203;0.013113646768033504;0.029010550973576684;-0.01719363431366057;-0.0036000611615691143;0.004846686867835206;
508a8d84-4700-4ffa-9dad-735cf46b6d83;1513934190.914;;-0.9758113026618958;-0.028628863394260406;-0.21673189103603363;;-83.99223327636719;-79.98533630371094;-20.082489013671875;;;;0.035410709427626565;;-1.3522397539412216;-0.03454942628741264;-0.031963787972927094;-0.04756559804081917;0.028632776043978587;-0.01005396574726714;0.010796987691399248;0.0352160443585538;
508a8d84-4700-4ffa-9dad-735cf46b6d83;1513934190.964;;-0.9758346080780029;-0.02686970680952072;-0.2168521136045456;;-82.59526062011719;-80.33692932128906;-19.407440185546875;;;;0.035032671157198304;;-1.352127404635074;0.03407740592956543;0.02618306130170822;-0.024282533675432205;0.026872941807775486;-0.04436666586406606;-0.06776519920150224;0.019939619713641273;
508a8d84-4700-4ffa-9dad-735cf46b6d83;1513934191.014;;-0.9755895137786865;-0.02632218971848488;-0.2180190235376358;;-82.59526062011719;-80.68850708007812;-19.407440185546875;;;;0.03383605134043535;;-1.35093469925144;0.011783336289227009;-0.03510969504714012;0.033296115696430206;0.02632522970337788;-0.024886974070681474;-0.04980803660331596;0.03942943151916816;
508a8d84-4700-4ffa-9dad-735cf46b6d83;1513934191.064;;-0.9755296111106873;-0.025156907737255096;-0.2184242159128189;;-81.19830322265625;-80.68850708007812;-19.069915771484375;;;;0.03368044752108535;;-1.35052605589265;-0.020472602918744087;0.038599900901317596;-0.1107383742928505;0.025159561482730613;-0.019999807154277065;-0.05810644656000287;0.03932423665611003;
508a8d84-4700-4ffa-9dad-735cf46b6d83;1513934191.114;;-0.9754226207733154;-0.02560199797153473;-0.21884986758232117;;-81.19830322265625;-83.14959716796875;-20.082489013671875;;;;0.033797095044795666;;-1.350087170950862;0.10258936136960983;-0.04417644441127777;-0.025519633665680885;0.025604795800134892;0.08320860404676274;-0.0068118334362046755;0.010570352682633505;
508a8d84-4700-4ffa-9dad-735cf46b6d83;1513934191.164;;-0.9755591750144958;-0.026491697877645493;-0.21813412010669708;;-81.19830322265625;-81.39167785644531;-21.095046997070312;;;;0.03362416870197856;;-1.3508157160327066;-0.007915560156106949;-0.030698243528604507;-0.06616763770580292;0.026494798057405688;0.07344172706500614;-0.0032948629006460334;0.007009173672979547;
508a8d84-4700-4ffa-9dad-735cf46b6d83;1513934191.214;;-0.9757620692253113;-0.026755699887871742;-0.21719227731227875;;-81.19830322265625;-81.39167785644531;-21.095046997070312;;;;0.03335949617120223;;-1.351779477233013;0.012734130024909973;-0.04424344748258591;0.019041646271944046;0.0267588924414571;0.01337492762659595;0.01911537135626175;0.01710148893994383;
508a8d84-4700-4ffa-9dad-735cf46b6d83;1513934191.264;;-0.9757073521614075;-0.02671363763511181;-0.21744310855865479;;-80.84906005859375;-83.14959716796875;-20.757522583007812;;;;0.033436344041713036;;-1.3515226673729615;0.05535825341939926;-0.05907127261161804;-0.04729688540101051;0.02671681669145398;0.003485012602477691;0.03339417585683059;0.0317978770994371;
508a8d84-4700-4ffa-9dad-735cf46b6d83;1513934191.314;;-0.9755381941795349;-0.026518648490309715;-0.21822455525398254;;-81.72216796875;-82.97380065917969;-20.251235961914062;;;;0.033299890487868;;-1.35072284949147;0.032590825110673904;-0.040757350623607635;-0.032095879316329956;0.026521757801968183;-0.00881213373096319;0.003659982286095897;0.03150626096007342;
508a8d84-4700-4ffa-9dad-735cf46b6d83;1513934191.364;;-0.9755592346191406;-0.025556182488799095;-0.21824534237384796;;-82.420654296875;-82.97380065917969;-20.926284790039062;;;;0.03264096344303589;;-1.350707150046138;0.07294084131717682;0.00877151358872652;-0.02781788818538189;0.02555896436092287;-0.02735945282671104;-0.01652012087397953;0.0494764730476011;
508a8d84-4700-4ffa-9dad-735cf46b6d83;1513934191.414;;-0.9755635261535645;-0.0259143877774477;-0.2181839793920517;;-79.80134582519531;-83.14959716796875;-20.419998168945312;;;;0.03213700751843392;;-1.350767987578042;-0.007270335219800472;-0.0252941083163023;0.008375631645321846;0.025917289374884325;-0.02700898082725661;0.004696750898463745;0.008593754521576694;
508a8d84-4700-4ffa-9dad-735cf46b6d83;1513934191.464;;-0.9755907654762268;-0.026439901441335678;-0.21799908578395844;;-81.54754638671875;-82.79801940917969;-21.095046997070312;;;;0.031870411714974005;;-1.3509544312459691;0.0006456905975937843;-0.03334403410553932;-0.002078426070511341;0.026442983788225877;-0.03105884989694011;-0.037916756020003155;0.04804262711670243;
508a8d84-4700-4ffa-9dad-735cf46b6d83;1513934191.514;;-0.9755478501319885;-0.02643119916319847;-0.21819214522838593;;-81.89678955078125;-84.55593872070312;-21.432571411132812;;;;0.03203352483289163;;-1.3507565909477188;0.05475620925426483;-0.01937568560242653;-0.09381957352161407;0.026434278137034677;-0.0028509139469298245;-0.029520075419092323;0.04563566212348882;
508a8d84-4700-4ffa-9dad-735cf46b6d83;1513934191.564;;-0.9544325470924377;-0.030221907421946526;-0.29689258337020874;;-80.15058898925781;-82.44642639160156;-21.77008056640625;;;;0.029741148031491905;;-1.269217393690539;0.037699732929468155;0.023721663281321526;-0.018567632883787155;0.03022651073369667;-0.02466699696464093;-0.040411339013080375;0.012928315511789662;
508a8d84-4700-4ffa-9dad-735cf46b6d83;1513934191.614;;-0.9541944861412048;-0.030692657455801964;-0.29760846495628357;;-80.32521057128906;-81.91905212402344;-20.926284790039062;;;;0.03009824227981175;;-1.2684627551104029;0.010392628610134125;-0.009437956847250462;-0.03774919733405113;0.030697479193125318;-0.027249464273690766;-0.04153998668305596;0.02985297055535223;
508a8d84-4700-4ffa-9dad-735cf46b6d83;1513934191.664;;-0.9538347125053406;-0.030624397099018097;-0.2987666428089142;;-80.32521057128906;-81.91905212402344;-23.626449584960938;;;;0.030859071995378295;;-1.2672494060289992;0.01464097574353218;-0.0429687425494194;-0.03469892963767052;0.030629186913129436;0.02182913250705249;0.007318366675537746;0.030249515241665026;
508a8d84-4700-4ffa-9dad-735cf46b6d83;1513934191.714;16.1318359375;-0.9510821104049683;-0.039758339524269104;-0.30636921525001526;;-84.34146118164062;-83.14959716796875;-21.432571411132812;;3.450000047683716;280.8984375;0.09914910919755426;;-1.2591651567970206;-0.03753483667969704;-0.0900634378194809;-0.06763896346092224;0.039768820879516144;0.12567723500192932;0.0006703176463729442;0.06494784108430743;
508a8d84-4700-4ffa-9dad-735cf46b6d83;1513934191.764;;-0.9509143233299255;-0.039534397423267365;-0.3069184720516205;;-84.69070434570312;-82.79801940917969;-21.095046997070312;;;;0.10747728902612667;;-1.258590471584582;-0.003324550110846758;-0.06540029495954514;-0.07420030236244202;0.03954470168016263;0.16224802940700644;0.010392986154034226;0.09034454418763006;
508a8d84-4700-4ffa-9dad-735cf46b6d83;1513934191.814;;-0.9455298781394958;-0.13366398215293884;-0.2968284785747528;31.19529269748264;-83.11912536621094;-85.08331298828125;-16.20098876953125;121.42267686631945;;;0.2737679611588127;;-1.2666108813281396;-0.001857791212387383;-0.03633418679237366;0.11135789006948471;0.1340652227826949;0.3409288280042378;0.04672915606707535;0.12046409716809922;
508a8d84-4700-4ffa-9dad-735cf46b6d83;1513934191.864;;-0.9459562301635742;-0.1338297575712204;-0.29539185762405396;;-84.86532592773438;-84.73171997070312;-16.53851318359375;;;;0.28964724683524384;;-1.2681228298472167;-0.05122086778283119;-0.017766308039426804;-0.009753393940627575;0.13423250643401546;0.3567519996209436;0.011171960772882404;0.12607431232046015;
508a8d84-4700-4ffa-9dad-735cf46b6d83;1513934191.914;;-0.9501988291740417;-0.13725155591964722;-0.27979305386543274;;-81.54754638671875;-84.90751647949219;-14.344635009765625;;;;0.32502454458293056;;-1.284432246768738;-0.04375866800546646;-0.029862698167562485;-0.03435490280389786;0.13768617754366325;0.36298912289390917;0.0051907672806734435;0.11027031546360293;
508a8d84-4700-4ffa-9dad-735cf46b6d83;1513934191.964;;-0.9508370161056519;-0.13726389408111572;-0.2776104211807251;;-83.11912536621094;-84.73171997070312;-12.825790405273438;;;;0.3425101149677629;;-1.2867279836237984;-0.052672483026981354;-0.02153431996703148;-0.028618210926651955;0.13769863455609374;0.3592282068024993;-0.019740415264103344;0.11605336977070999;
508a8d84-4700-4ffa-9dad-735cf46b6d83;1513934192.014;;-0.9514568448066711;-0.13732218742370605;-0.2754495441913605;;-83.29374694824219;-85.25910949707031;-14.007110595703125;;;;0.36060067669229834;;-1.288997488075892;-0.019337810575962067;-0.017112014815211296;0.017713330686092377;0.1377574831098803;0.3629760734045678;-0.0031236216425539385;0.1101789690382132;
508a8d84-4700-4ffa-9dad-735cf46b6d83;1513934192.064;;-0.9520173072814941;-0.13745421171188354;-0.27343985438346863;;-82.94450378417969;-85.96226501464844;-11.64447021484375;;;;0.37972054433529695;;-1.2911037631421194;-0.03363941237330437;-0.022152721881866455;-0.0006537852459587157;0.13789076882019033;0.38614770541712923;-0.010126403728917295;0.12212830653328974;
508a8d84-4700-4ffa-9dad-735cf46b6d83;1513934192.114;;-0.952469527721405;-0.13722412288188934;-0.2719768285751343;;-82.94450378417969;-85.96226501464844;-11.64447021484375;;;;0.400097229728713;;-1.292649369441503;-0.03169187903404236;-0.015836797654628754;0.047748927026987076;0.13765847250410182;0.4118067298878247;0.00663420059149639;0.13433170959635984;
508a8d84-4700-4ffa-9dad-735cf46b6d83;1513934192.164;;-0.952907919883728;-0.13671483099460602;-0.2706945240497589;;-83.29374694824219;-87.01702880859375;-12.319503784179688;;;;0.42096009844874205;;-1.294015615110883;0.004116433206945658;-0.02934657782316208;0.022800227627158165;0.13714433488998976;0.41052947782902266;0.020921793523662496;0.14416649718591346;
508a8d84-4700-4ffa-9dad-735cf46b6d83;1513934192.214;;-0.954094648361206;-0.13612009584903717;-0.2667858302593231;;-82.94450378417969;-85.61068725585938;-11.64447021484375;;;;0.4610762299089194;;-1.2981381992315302;-0.06149981543421745;-0.001010641921311617;0.003419137792661786;0.13654399371596096;0.389668138062105;-0.01954467292398252;0.14015364605538205;
508a8d84-4700-4ffa-9dad-735cf46b6d83;1513934192.264;;-0.949914276599884;-0.12421818822622299;-0.28676238656044006;;-83.11912536621094;-84.73171997070312;-9.450576782226562;;;;0.47804739834761895;;-1.2776134663388758;0.0052731828764081;-0.04925898462533951;0.02067963220179081;0.12453987734427727;0.38977812661512523;-0.0029590382871870417;0.12945226584711664;
508a8d84-4700-4ffa-9dad-735cf46b6d83;1513934192.314;;-0.9504061937332153;-0.12451938539743423;-0.28499650955200195;;-84.16685485839844;-85.08331298828125;-8.438018798828125;;;;0.4982839042971648;;-1.2794605175305345;0.015469654463231564;-0.037956200540065765;-0.04517315328121185;0.12484343186351929;0.38112817939454785;0.020825919724419644;0.14424958781192393;
508a8d84-4700-4ffa-9dad-735cf46b6d83;1513934192.364;;-0.9515043497085571;-0.12324248254299164;-0.2818700969219208;;-83.81761169433594;-85.43489074707031;-6.41290283203125;;;;0.5408204284331104;;-1.282796063229602;0.008663778193295002;-0.13260163366794586;-0.055715348571538925;0.12355662018996759;0.4176766032464683;0.022238992998815686;0.17076428594086182;
508a8d84-4700-4ffa-9dad-735cf46b6d83;1513934192.414;;-0.95242840051651;-0.12145009636878967;-0.27951744198799133;;-82.76988220214844;-84.73171997070312;-8.100494384765625;;;;0.5629143560218032;;-1.2853330816391586;0.035512518137693405;-0.11033090949058533;-0.06067727133631706;0.12175065954362539;0.41987504272632875;-0.01922908833480813;0.19448745861517866;
508a8d84-4700-4ffa-9dad-735cf46b6d83;1513934192.464;;-0.9534255266189575;-0.11935869604349136;-0.2770076394081116;;-83.46836853027344;-86.1380615234375;-5.73785400390625;;;;0.5854496311524748;;-1.288041467764575;0.05506433919072151;-0.08939679712057114;0.007003365084528923;0.11964393938854768;0.4149524557674263;-0.009723733772097315;0.19944306877159812;
508a8d84-4700-4ffa-9dad-735cf46b6d83;1513934192.514;;-0.9549530148506165;-0.11657168716192245;-0.2729024887084961;;-84.34146118164062;-85.61068725585938;-5.9066162109375;;;;0.6314323765115247;;-1.2924397838933543;0.0184906218200922;0.018808629363775253;-0.0176859013736248;0.11683733287849767;0.43351655277804163;-0.020459202442315732;0.17266817980415947;
508a8d84-4700-4ffa-9dad-735cf46b6d83;1513934192.564;;-0.9554951190948486;-0.11583571881055832;-0.27131375670433044;;-84.51608276367188;-85.43489074707031;-4.7252960205078125;;;;0.6548066632862232;;-1.2941276843793788;-0.03034471720457077;0.01860671490430832;-0.06880466639995575;0.11609634052209063;0.42867785539347664;-0.04071520569345842;0.16036677241297445;
508a8d84-4700-4ffa-9dad-735cf46b6d83;1513934192.614;;-0.9562154412269592;-0.1151641309261322;-0.2690524458885193;;-85.56381225585938;-86.84123229980469;-3.037689208984375;;;;0.6783563119557593;;-1.2965156433826461;0.03090723417699337;-0.046121273189783096;0.001916821114718914;0.11542022546210912;0.4606448432221338;-0.020462398235623826;0.14961452582788853;
508a8d84-4700-4ffa-9dad-735cf46b6d83;1513934192.664;;-0.9569724798202515;-0.13365581631660461;-0.2575651705265045;;-86.61152648925781;-83.67697143554688;-2.700164794921875;;;;0.7033129588233188;;-1.3078807777987094;0.04194866493344307;0.03847149387001991;-0.06520399451255798;0.1340569878011814;0.4939673800456412;-0.012159993537301801;0.11937885902389193;
508a8d84-4700-4ffa-9dad-735cf46b6d83;1513934192.714;;-0.9575605392456055;-0.13710366189479828;-0.25353577733039856;;-86.26228332519531;-85.08331298828125;-4.0502471923828125;;;;0.7530566105159696;;-1.3119631167968253;-0.0005083013675175607;-0.08373678475618362;-0.09373901784420013;0.13753687624285918;0.5353190812396286;0.010716027594260838;0.16304537983737616;
508a8d84-4700-4ffa-9dad-735cf46b6d83;1513934192.764;;-0.9407061338424683;-0.18315957486629486;-0.28552505373954773;;-84.51608276367188;-86.1380615234375;-1.6876068115234375;;;;0.7989827324958485;;-1.2761114430769236;0.09700190275907516;-0.053672097623348236;0.016222676262259483;0.1841994326134131;0.5477224877005636;0.013054815663568425;0.1436873945058082;
508a8d84-4700-4ffa-9dad-735cf46b6d83;1513934192.814;14.783203125;-0.9381077885627747;-0.1918644905090332;-0.2883431315422058;;-85.91305541992188;-84.028564453125;1.3500823974609375;;3.0299999713897705;246.796875;0.8243619564831001;;-1.2725948503187248;0.07356008142232895;-0.015532966703176498;0.017835307866334915;0.19306158460799983;0.5367827545747361;-0.015554724978825806;0.12647458543229906;
508a8d84-4700-4ffa-9dad-735cf46b6d83;1513934192.864;;-0.9373652935028076;-0.19941706955432892;-0.28562068939208984;;-86.26228332519531;-84.028564453125;1.687591552734375;;;;0.8514507568268659;;-1.2750278417655727;-0.07034041732549667;-0.05610661953687668;-0.033425331115722656;0.2007629992389437;0.5453208490295302;0.0260979134183405;0.14020983875438273;
508a8d84-4700-4ffa-9dad-735cf46b6d83;1513934192.914;;-0.9376242756843567;-0.20228269696235657;-0.28274092078208923;;-85.38919067382812;-84.55593872070312;1.1813201904296875;;;;0.8797610457350151;;-1.277917822564878;-0.09263390302658081;-0.00032349827233701944;-0.02652423083782196;0.2036882510177415;0.5498389018188496;0.020366790752489983;0.18850440091020665;
508a8d84-4700-4ffa-9dad-735cf46b6d83;1513934192.964;;-0.9401625394821167;-0.1983882188796997;-0.2770136296749115;;-86.96076965332031;-82.97380065917969;2.362640380859375;;;;0.9374448051158344;;-1.2842601290817333;0.025977948680520058;-0.08281600475311279;-0.00579276354983449;0.1997131756039364;0.5477392656154312;0.04751931596250186;0.1489031955007284;
508a8d84-4700-4ffa-9dad-735cf46b6d83;1513934193.014;;-0.941239058971405;-0.19985421001911163;-0.2722633481025696;;-86.43690490722656;-82.79801940917969;5.2315673828125;;;;0.965999843657227;;-1.289221115273394;-0.0016472931019961834;0.03519662097096443;-0.018248746171593666;0.20120913152149017;0.5476907960835917;0.04041187164529839;0.15366226436869998;
508a8d84-4700-4ffa-9dad-735cf46b6d83;1513934193.064;;-0.9439858198165894;-0.20215250551700592;-0.26081621646881104;;-86.61152648925781;-82.62222290039062;6.0753631591796875;;;;1.0243200932873047;;-1.3012288675659471;0.013001340441405773;0.11066080629825592;0.008542666211724281;0.20355530508918745;0.5549404532030053;-0.005872802835842736;0.15676058598089818;
508a8d84-4700-4ffa-9dad-735cf46b6d83;1513934193.114;;-0.9449326992034912;-0.20624227821826935;-0.2540989816188812;;-87.48463439941406;-82.44642639160156;4.89404296875;;;;1.054675548238395;;-1.308103554938324;-0.0784742683172226;-0.004695217125117779;0.006586154922842979;0.2077331152020376;0.5657291850950253;-0.031867119287779154;0.18183850870173832;
508a8d84-4700-4ffa-9dad-735cf46b6d83;1513934193.164;;-0.9451330900192261;-0.20803412795066833;-0.2518833875656128;;-87.8338623046875;-81.04010009765625;6.5816497802734375;;;;1.0846386100240428;;-1.310344179753234;-0.051281094551086426;0.025142276659607887;-0.03939162567257881;0.20956467853376207;0.5864488446919509;-0.05195294654526578;0.19123254313088384;
508a8d84-4700-4ffa-9dad-735cf46b6d83;1513934193.214;;-0.9458046555519104;-0.20826873183250427;-0.24915392696857452;;-87.8338623046875;-82.79801940917969;7.594207763671875;;;;1.1149946262555614;;-1.3132175508923851;-0.0668448731303215;0.02789458818733692;-0.08539502322673798;0.20980454396195916;0.5998685134248601;-0.0637675280891843;0.19590133083790173;
508a8d84-4700-4ffa-9dad-735cf46b6d83;1513934193.264;;-0.9471356272697449;-0.20841635763645172;-0.24391953647136688;;-87.48463439941406;-78.93058776855469;8.944290161132812;;;;1.1461127782300904;;-1.3187395904958537;-0.08341247588396072;0.002941499464213848;-0.08849318325519562;0.20995547526443217;0.6207615448087498;-0.03877083178159157;0.1924884899009652;
508a8d84-4700-4ffa-9dad-735cf46b6d83;1513934193.314;;-0.947953999042511;-0.20796798169612885;-0.241106778383255;;-87.48463439941406;-78.93058776855469;8.944290161132812;;;;1.176981771582158;;-1.3217330314552926;0.007448046933859587;0.07440780103206635;-0.1035129725933075;0.2094970555431638;0.6207615448087498;-0.03877083178159157;0.1924884899009652;
508a8d84-4700-4ffa-9dad-735cf46b6d83;1513934193.364;;-0.9498199820518494;-0.20811986923217773;-0.23351263999938965;;-88.35772705078125;-78.75480651855469;11.813217163085938;;;;1.2393106860164984;;-1.3297279364928207;0.013891619630157948;0.018865114077925682;-0.05977654457092285;0.20965234979814054;0.6712646664565765;0.006422745600944099;0.16623691208772712;
508a8d84-4700-4ffa-9dad-735cf46b6d83;1513934193.414;;-0.9498199820518494;-0.20811986923217773;-0.23351263999938965;;-88.18310546875;-77.87583923339844;12.319488525390625;;;;1.2393106860164984;;-1.3297279364928207;0.013891619630157948;0.018865114077925682;-0.05977654457092285;0.20965234979814054;0.6859932788652596;0.06589273063906753;0.17531323139882618;
508a8d84-4700-4ffa-9dad-735cf46b6d83;1513934193.464;;-0.9509796500205994;-0.21073244512081146;-0.22633950412273407;;-89.75468444824219;-77.70004272460938;10.8006591796875;;;;1.3026505892737659;;-1.3371369544054963;-0.03043515980243683;-0.002921121893450618;-0.07328207790851593;0.21232416764644596;0.689634885339834;0.008863000107783705;0.16742042087615833;
508a8d84-4700-4ffa-9dad-735cf46b6d83;1513934193.514;;-0.9512932300567627;-0.21303078532218933;-0.22284315526485443;;-88.35772705078125;-77.34846496582031;13.838333129882812;;;;1.3343627342250648;;-1.3406925338766125;-0.033493753522634506;-0.09238914400339127;-0.10886766761541367;0.21467590178718374;0.6739478012548312;0.0241418215976773;0.13982021828690414;
508a8d84-4700-4ffa-9dad-735cf46b6d83;1513934193.564;;-0.9517448544502258;-0.21638405323028564;-0.2176227569580078;;-90.45317077636719;-75.59054565429688;15.18841552734375;;;;1.3978223475154032;;-1.3460042101583551;0.07581407576799393;-0.006317971274256706;-0.08004570752382278;0.21810924904857745;0.6616357412192859;0.05622918430760601;0.15471927300535243;
508a8d84-4700-4ffa-9dad-735cf46b6d83;1513934193.614;;-0.9517448544502258;-0.21638405323028564;-0.2176227569580078;;-90.27854919433594;-73.30525207519531;15.0196533203125;;;;1.3978223475154032;;-1.3460042101583551;0.07581407576799393;-0.006317971274256706;-0.08004570752382278;0.21810924904857745;0.6703472074610441;0.04786605953643018;0.13525422859796327;
508a8d84-4700-4ffa-9dad-735cf46b6d83;1513934193.664;;-0.9531182646751404;-0.21623623371124268;-0.21167784929275513;;-90.27854919433594;-74.0084228515625;16.0322265625;;;;1.4617661488169076;;-1.3522535672605993;-0.09650333970785141;-0.09214390069246292;-0.04637879133224487;0.2179578356705177;0.6727898588128648;0.06689754131835443;0.14029346201261123;
508a8d84-4700-4ffa-9dad-735cf46b6d83;1513934193.714;;-0.9546130299568176;-0.21534384787082672;-0.2057693600654602;;-90.10392761230469;-73.48103332519531;16.20098876953125;;;;1.4947005721041884;;-1.3584919980952823;-0.045875269919633865;-0.12724648416042328;-0.1317092776298523;0.21704392094274771;0.6381509214625312;0.04199591986167752;0.17881528823228038;
508a8d84-4700-4ffa-9dad-735cf46b6d83;1513934193.764;14.63092041015625;-0.9764701128005981;-0.15591773390769958;-0.14898253977298737;31.19522433810764;-95.51715087890625;-39.553192138671875;17.044784545898438;121.42260362413194;3.490000009536743;172.96875;2.62802198146071;;-1.419391388492468;-0.0305031631141901;-0.035976797342300415;-0.06981323659420013;0.1565564815607723;0.49854322343061536;-0.0048448226550721505;0.1629795997584512;
508a8d84-4700-4ffa-9dad-735cf46b6d83;1513934193.814;;-0.9747572541236877;-0.17086169123649597;-0.1437171846628189;;-96.73948669433594;-38.674224853515625;18.226104736328125;;;;2.654806697991008;;-1.42441201029303;0.034770045429468155;-0.12697461247444153;-0.001546490122564137;0.1717041497649612;0.5577764534478308;0.04386332841804109;0.11739347243123786;
508a8d84-4700-4ffa-9dad-735cf46b6d83;1513934193.864;;-0.9755975604057312;-0.16098959743976593;-0.14930404722690582;;-93.42170715332031;-28.302505493164062;13.669570922851562;;;;3.006885518398482;;-1.4189360218044553;0.04323979839682579;-0.05649391934275627;-0.06837784498929977;0.16169325131913917;0.3677196959382169;-0.013725665942159385;0.12818779696154703;
508a8d84-4700-4ffa-9dad-735cf46b6d83;1513934193.914;;-0.9761812686920166;-0.15963628888130188;-0.14692309498786926;;-92.54861450195312;-27.07196044921875;11.813217163085938;;;;3.0234364582219686;;-1.4214095962673226;0.090347521007061;-0.003434388432651758;-0.01019666250795126;0.1603222074370039;0.35309920786979093;-0.016192285743790776;0.11731917023682464;
508a8d84-4700-4ffa-9dad-735cf46b6d83;1513934193.964;;-0.9778557419776917;-0.1534617692232132;-0.14229434728622437;;-92.89784240722656;-27.775131225585938;11.813217163085938;;;;3.0400258741571604;;-1.4262938771570983;0.02679065428674221;0.007282568141818047;-0.019250458106398582;0.15407059240137355;0.3422955622756665;0.0656799440679702;0.10615732947608454;
508a8d84-4700-4ffa-9dad-735cf46b6d83;1513934194.014;;-0.978741466999054;-0.148697629570961;-0.1412590593099594;;-91.50088500976562;-26.720367431640625;11.813217163085938;;;;3.055480206777553;;-1.4274588764642036;-0.07185666263103485;0.012985962443053722;-0.014639993198215961;0.1492511326017455;0.315223198214466;0.07754166356318314;0.12450411254174942;
508a8d84-4700-4ffa-9dad-735cf46b6d83;1513934194.064;;-0.9792858362197876;-0.14505892992019653;-0.14126962423324585;;-90.80241394042969;-26.368789672851562;9.7880859375;;;;3.0699605450210385;;-1.4275268940023078;-0.025932643562555313;0.03801852464675903;-0.008403833955526352;0.14557253048550545;0.30903454447333983;0.08468665845175671;0.13427445163292312;
508a8d84-4700-4ffa-9dad-735cf46b6d83;1513934194.114;;-0.9805483222007751;-0.1372111588716507;-0.14034995436668396;;-93.42170715332031;-26.1929931640625;7.931732177734375;;;;3.0944932224512143;;-1.4286278177460572;-0.08921486884355545;0.0271189883351326;0.00431784288957715;0.13764538410272936;0.19408638655501273;-0.009704825328357753;0.08761400512197182;
508a8d84-4700-4ffa-9dad-735cf46b6d83;1513934194.164;;-0.9819905757904053;-0.12706948816776276;-0.13981357216835022;;-92.89784240722656;-26.368789672851562;7.762969970703125;;;;3.1165260173244635;;-1.4293691484373308;0.01061607338488102;0.08654215186834335;0.0034457724541425705;0.12741396121846515;0.198934405003393;-0.031059116213049114;0.08978394877816838;
508a8d84-4700-4ffa-9dad-735cf46b6d83;1513934194.214;14.6455078125;-0.982848048210144;-0.12355465441942215;-0.13690878450870514;;-92.89784240722656;-26.0172119140625;6.7504119873046875;;4.360000133514404;108.28125;3.126860505476283;;-1.4323889337089806;-0.047135498374700546;0.04665035381913185;0.02036215551197529;0.12387118953318547;0.1916586489052965;-0.0489523629450735;0.07630622313349537;
508a8d84-4700-4ffa-9dad-735cf46b6d83;1513934194.264;;-0.983187735080719;-0.11993668228387833;-0.1376848667860031;;-93.77095031738281;-24.435073852539062;5.5690765380859375;;;;3.136339962988409;;-1.4316618936373002;-0.021084751933813095;-0.004468228667974472;0.04073052108287811;0.12022610033523082;0.1918301564794976;-0.022888537988686012;0.05966253158493617;
508a8d84-4700-4ffa-9dad-735cf46b6d83;1513934194.314;;-0.9834275841712952;-0.11568538844585419;-0.139596089720726;;-93.59632873535156;-24.610870361328125;5.7378387451171875;;;;-3.138603214793231;;-1.4297898330479548;-0.023606713861227036;0.006997031159698963;0.01899062469601631;0.1159449906327111;0.14628131340754538;0.025815618342792102;0.09902458512852533;
508a8d84-4700-4ffa-9dad-735cf46b6d83;1513934194.364;;-0.9841710925102234;-0.11292391270399094;-0.13658489286899567;;-95.51715087890625;-24.435073852539062;5.2315673828125;;;;-3.1243809663196918;;-1.4328955161675057;0.031412314623594284;-0.0064455922693014145;0.003070482984185219;0.11316529955824137;0.1425241257416616;0.03297819009456021;0.11120668290287478;
508a8d84-4700-4ffa-9dad-735cf46b6d83;1513934194.414;;-0.9846563935279846;-0.10802533477544785;-0.13704879581928253;;-93.77095031738281;-23.731903076171875;4.89404296875;;;;-3.1185918256854634;;-1.4325004108062729;0.04056456685066223;0.040383122861385345;0.007639000657945871;0.10823654404396955;0.11329247066862484;0.02804015680133529;0.08826008800242505;
508a8d84-4700-4ffa-9dad-735cf46b6d83;1513934194.464;;-0.9849130511283875;-0.10663946717977524;-0.1362874060869217;;-95.342529296875;-25.314041137695312;4.0502471923828125;;;;-3.1130143442840237;;-1.4332944394058662;-0.012477671727538109;0.024379337206482887;0.06487627327442169;0.10684262817217358;0.13042458596110457;-0.04321804448591489;0.07533523460005248;
508a8d84-4700-4ffa-9dad-735cf46b6d83;1513934194.514;;-0.985202431678772;-0.10537043958902359;-0.13517850637435913;;-93.94557189941406;-24.610870361328125;3.7127227783203125;;;;-3.1075216027459174;;-1.4344389128687054;-0.05320393666625023;0.1268243044614792;-0.013335290364921093;0.10556640876789387;0.12335202905418115;-0.03862995055992637;0.040337303134776174;
508a8d84-4700-4ffa-9dad-735cf46b6d83;1513934194.564;;-0.9858646988868713;-0.09878388047218323;-0.13532398641109467;;-94.46943664550781;-24.786666870117188;3.2064361572265625;;;;-3.103018062259854;;-1.4343845363556806;0.052301447838544846;-0.01678619161248207;0.042748913168907166;0.09894524694588272;0.09896652821676159;-0.01856090121730725;0.029744313582876995;
508a8d84-4700-4ffa-9dad-735cf46b6d83;1513934194.614;;-0.9866743087768555;-0.0990731492638588;-0.1290673017501831;;-97.08872985839844;-24.962448120117188;3.0376739501953125;;;;-3.0952211845592656;;-1.440724431062677;-0.10832693427801132;-0.038408536463975906;0.061684489250183105;0.09923594691495756;0.08054224716337541;-0.01978462373819866;0.035829902989817065;
508a8d84-4700-4ffa-9dad-735cf46b6d83;1513934194.664;;-0.9876611828804016;-0.09937548637390137;-0.12103701382875443;;-96.91410827636719;-24.08349609375;3.8814849853515625;;;;-3.0907934625345095;;-1.4488552198432831;-0.10746213793754578;-0.08539319038391113;0.09169436246156693;0.09953978168425559;0.07676268894433495;-0.014988004298856945;0.05040458468749371;
508a8d84-4700-4ffa-9dad-735cf46b6d83;1513934194.714;;-0.9875785708427429;-0.10102850198745728;-0.12034033238887787;;-95.16790771484375;-26.1929931640625;5.2315673828125;;;;-3.0863119498163774;;-1.4495401906679393;-0.029145054519176483;-0.03218073025345802;0.08017919957637787;0.1012011556144901;0.08029617107865208;-0.004204598729017101;0.07107044843039959;
508a8d84-4700-4ffa-9dad-735cf46b6d83;1513934194.764;;-0.9873510599136353;-0.10474397242069244;-0.1190234124660492;;-96.73948669433594;-24.610870361328125;4.72528076171875;;;;-3.081572951307415;;-1.4508270021220793;0.013245231471955776;-0.024543745443224907;0.019734468311071396;0.10493645645656491;0.10134020369634922;-0.025645974981354056;0.03812448258502933;
508a8d84-4700-4ffa-9dad-735cf46b6d83;1513934194.814;;-0.987331211566925;-0.10542980581521988;-0.11858189851045609;;-96.041015625;-23.907699584960938;4.0502471923828125;;;;-3.076782519081249;;-1.451265408393747;-0.059482768177986145;-0.05986865609884262;0.007970932871103287;0.10562610614223547;0.10134020369634922;-0.025645974981354056;0.03812448258502933;
508a8d84-4700-4ffa-9dad-735cf46b6d83;1513934194.864;;-0.9875415563583374;-0.10447347909212112;-0.11767329275608063;;-97.96183776855469;-24.435073852539062;4.218994140625;;;;-3.071912606837124;;-1.4521977109426587;-0.00965084508061409;-0.010928744450211525;0.06284846365451813;0.1046644661030128;0.14318778548530933;0.004107393349229209;0.018983544882302826;
508a8d84-4700-4ffa-9dad-735cf46b6d83;1513934194.914;;-0.9876229166984558;-0.1043258011341095;-0.1171201765537262;;-97.43797302246094;-24.610870361328125;2.700164794921875;;;;-3.067451495051136;;-1.4527596338608473;0.06867758929729462;-0.0559830367565155;0.031228454783558846;0.10451597847743417;0.14694870157671924;0.023094932973167153;0.011925901677483837;
508a8d84-4700-4ffa-9dad-735cf46b6d83;1513934194.964;;-0.9885966181755066;-0.10361481457948685;-0.10927362740039825;;-97.78721618652344;-24.962448120117188;4.0502471923828125;;;;-3.0522469150807505;;-1.4607091219276864;-0.030095413327217102;-0.01808929070830345;0.012609201483428478;0.1038011149726874;0.09893670081255271;0.057533067977308804;0.04992894411680556;
508a8d84-4700-4ffa-9dad-735cf46b6d83;1513934195.014;;-0.9886853694915771;-0.10552176833152771;-0.10661346465349197;;-96.56486511230469;-22.677154541015625;3.8814849853515625;;;;-3.0470216762072257;;-1.4633778337773928;0.07590459287166595;-0.03556099534034729;0.05783111974596977;0.10571858468488085;0.09667301388598536;0.06337284761563455;0.027023628213252045;
508a8d84-4700-4ffa-9dad-735cf46b6d83;1513934195.064;15.0634765625;-0.9886909127235413;-0.10547951608896255;-0.10660344362258911;;-98.13644409179688;-23.907699584960938;3.0376739501953125;;5.78000020980835;98.4375;-3.042391825867806;;-1.463388462086779;-0.013124854303896427;-0.08739157766103745;-0.0013982687378302217;0.10567609160503638;0.06689700868613642;0.014731808201991322;0.06527061620842503;
508a8d84-4700-4ffa-9dad-735cf46b6d83;1513934195.114;;-0.9890701174736023;-0.10551713407039642;-0.1029873788356781;;-98.31106567382812;-24.786666870117188;2.193878173828125;;;;-3.032036127603254;;-1.4670447519273866;0.11106415092945099;-0.07717634737491608;0.010381790809333324;0.10571392171023723;0.06537927318090025;0.012500878156831943;0.10273756432031379;
508a8d84-4700-4ffa-9dad-735cf46b6d83;1513934195.164;;-0.9888957738876343;-0.10836296528577805;-0.1016988456249237;;-96.91410827636719;-24.435073852539062;2.8689117431640625;;;;-3.027418220865677;;-1.468315780788786;0.09016833454370499;0.06966667622327805;-0.055954959243535995;0.10857617321132539;0.10055510380699385;0.07041078342838697;0.001695368349944443;
508a8d84-4700-4ffa-9dad-735cf46b6d83;1513934195.214;;-0.9889200329780579;-0.10897006094455719;-0.10080993920564651;31.19520290251791;-97.96183776855469;-23.731903076171875;2.193878173828125;121.42266589588384;;;-3.0223380910562136;;-1.4692078277240677;-0.09022728353738785;-0.10694180428981781;0.11811340600252151;0.10918688181353568;0.13080674957753094;0.027909129275703392;0.0410473018813913;
508a8d84-4700-4ffa-9dad-735cf46b6d83;1513934195.264;;-0.9888438582420349;-0.1079021543264389;-0.10268881916999817;;-97.43797302246094;-22.852951049804688;2.025115966796875;;;;-3.0117620742977445;;-1.4673198805513292;0.011701501905918121;-0.0842517763376236;0.08659079670906067;0.10811264045672336;0.11993599232393651;0.07890893046682981;0.031964857299785064;
508a8d84-4700-4ffa-9dad-735cf46b6d83;1513934195.314;;-0.9888438582420349;-0.1079021543264389;-0.10268881916999817;31.195181477864583;-97.43797302246094;-22.852951049804688;2.025115966796875;121.42272813585069;;;-3.0117620742977445;;-1.4673198805513292;0.011701501905918121;-0.0842517763376236;0.08659079670906067;0.10811264045672336;0.11013369529968185;0.04202734516254046;0.02433197129950896;
508a8d84-4700-4ffa-9dad-735cf46b6d83;1513934195.364;15.095458984375;-0.9914520978927612;-0.09229832887649536;-0.09221596270799637;;-100.40650939941406;-20.919235229492188;0.5062713623046875;;7.739999771118164;92.8125;-2.915299740774387;;-1.4780521427298312;0.028225766494870186;0.06751805543899536;-0.10964255779981613;0.0924298785914918;0.09188278603325983;0.06805521744421188;0.013786918647231208;
508a8d84-4700-4ffa-9dad-735cf46b6d83;1513934195.414;;-0.990776002407074;-0.09383323788642883;-0.09776601195335388;;-99.88264465332031;-22.852951049804688;2.700164794921875;;;;-2.9071937159491976;;-1.472438537483989;-0.0034866712521761656;-0.05405494570732117;-0.014584450051188469;0.09397148170490113;0.041513887704373184;-0.022379075272153853;0.012937103943386923;
508a8d84-4700-4ffa-9dad-735cf46b6d83;1513934195.464;15.6949462890625;-0.9919389486312866;-0.07874898612499237;-0.0992761105298996;31.19517144097222;-98.48568725585938;-20.040283203125;3.7127227783203125;121.42289008246527;8.819999694824219;90;-2.8975144149414986;;-1.4710456070332714;-0.005009307526051998;0.15051107108592987;0.2488122433423996;0.07883060948772103;0.0791605991898423;-0.09578671387520699;0.03983556358540524;
508a8d84-4700-4ffa-9dad-735cf46b6d83;1513934195.514;;-0.9919523000717163;-0.07878770679235458;-0.09911193698644638;;-95.86639404296875;-19.864486694335938;3.5439605712890625;;;;-2.897676575874434;;-1.4712108081364892;-0.027884148061275482;-0.139687642455101;0.12616577744483948;0.07886944626510806;-0.10802287381968505;-0.026391393770467234;0.022995064432289183;
508a8d84-4700-4ffa-9dad-735cf46b6d83;1513934195.564;;-0.9918860197067261;-0.0791243314743042;-0.09950631856918335;;-95.6917724609375;-18.985519409179688;4.0502471923828125;;;;-2.8970372644991396;;-1.4708105376982064;0.07405457645654678;-0.1167222261428833;0.02882760763168335;0.07920712847931961;0.10901676553850262;0.09308307273655854;0.02126853709759081;
508a8d84-4700-4ffa-9dad-735cf46b6d83;1513934195.614;;-0.9915342330932617;-0.0792527124285698;-0.10285347700119019;;-96.21563720703125;-20.919235229492188;4.218994140625;;;;-2.897095947219923;;-1.4674343567220325;0.1701383739709854;0.0031723910942673683;-0.033926304429769516;0.07933591302143579;0.06503412750362599;0.12140738882620529;0.012031629172759982;
508a8d84-4700-4ffa-9dad-735cf46b6d83;1513934195.664;;-0.9914383888244629;-0.07895303517580032;-0.10400187969207764;;-96.21563720703125;-20.919235229492188;4.218994140625;;;;-2.8978069964748694;;-1.4662785840025743;0.0238480307161808;-0.013194789178669453;-0.04712116718292236;0.07903529570922736;0.03696600751084487;0.19614980376760613;0.014142716968865795;
508a8d84-4700-4ffa-9dad-735cf46b6d83;1513934195.714;;-0.9913415312767029;-0.07859809696674347;-0.10518684983253479;;-94.29481506347656;-20.391860961914062;4.0502471923828125;;;;-2.8988996596284005;;-1.4650862933091524;0.027733759954571724;0.06713874638080597;-0.2361217439174652;0.07867925101522778;-0.061323545156818586;0.09136879594287453;0.028992769523256634;
508a8d84-4700-4ffa-9dad-735cf46b6d83;1513934195.764;;-0.9913124442100525;-0.07819822430610657;-0.1057574674487114;;-95.86639404296875;-21.270828247070312;2.8689117431640625;;;;-2.900038501550138;;-1.4645140388835414;-0.005055947229266167;0.017498765140771866;-0.039262063801288605;0.07827814462601491;-0.07478049814498898;0.06159705180076972;0.020239225336275188;
508a8d84-4700-4ffa-9dad-735cf46b6d83;1513934195.814;;-0.9914911985397339;-0.07664113491773605;-0.10522030293941498;;-95.6917724609375;-22.1497802734375;1.687591552734375;;;;-2.9012269296799564;;-1.4650687617128453;-0.02385913021862507;0.13152700662612915;0.048442352563142776;0.07671636440971921;-0.1498275787150949;-0.1536425569766334;0.01566977353791723;
508a8d84-4700-4ffa-9dad-735cf46b6d83;1513934195.864;;-0.9916003942489624;-0.07762657850980759;-0.10345448553562164;;-95.16790771484375;-21.622406005859375;2.193878173828125;;;;-2.902309527073965;;-1.4668415914415949;-0.09403195977210999;0.05165611952543259;0.030181780457496643;0.07770475377755831;-0.0789254420655883;-0.16640921861025523;0.03225620712303973;
508a8d84-4700-4ffa-9dad-735cf46b6d83;1513934195.914;;-0.9915968775749207;-0.07770528644323349;-0.10342857986688614;;-95.342529296875;-22.501373291015625;1.687591552734375;;;;-2.9016046609884376;;-1.466867078791598;0.056233134120702744;-0.007942293770611286;0.03114769235253334;0.07778370096979835;-0.007072290590814425;-0.10414105021478555;0.10045363736946183;
508a8d84-4700-4ffa-9dad-735cf46b6d83;1513934195.964;;-0.9915964603424072;-0.07819349318742752;-0.1030641719698906;;-95.342529296875;-19.688690185546875;2.362640380859375;;;;-2.902071502431415;;-1.4672305837321244;0.07675576955080032;-0.03163926675915718;-0.048303015530109406;0.0782733973123994;0.002286057479724018;-0.06885389945512664;0.006492254105395167;
508a8d84-4700-4ffa-9dad-735cf46b6d83;1513934196.014;;-0.9915582537651062;-0.0782584697008133;-0.10338198393583298;;-97.26335144042969;-21.622406005859375;-0.16876220703125;;;;-2.902620785447658;;-1.4669095432302761;0.0730554461479187;-0.0026588868349790573;-0.019893774762749672;0.07833857331167275;0.029393841583422568;0.019119366097896866;0.004963067007471668;
508a8d84-4700-4ffa-9dad-735cf46b6d83;1513934196.064;15.9478759765625;-0.9915756583213806;-0.07139428704977036;-0.10807657986879349;;-98.66030883789062;-20.216064453125;0.1687469482421875;;9.729999542236328;91.0546875;-2.9047691512789795;;-1.4622300990162351;-0.07728724926710129;0.013578733429312706;0.050215255469083786;0.07145507542180854;-0.04537733549775113;0.05099340960451023;0.017620006404182254;
508a8d84-4700-4ffa-9dad-735cf46b6d83;1513934196.114;;-0.9915756583213806;-0.07139428704977036;-0.10807657986879349;;-99.70803833007812;-19.16131591796875;1.1813201904296875;;;;-2.9047691512789795;;-1.4622300990162351;-0.07728724926710129;0.013578733429312706;0.050215255469083786;0.07145507542180854;-0.056415871900020564;0.054530353848244464;0.02010899675897031;
508a8d84-4700-4ffa-9dad-735cf46b6d83;1513934196.164;;-0.9918434023857117;-0.06348633766174316;-0.11052685230970383;;-100.23188781738281;-19.688690185546875;3.7127227783203125;;;;-2.9055956727906866;;-1.4598183958617243;0.03934399411082268;0.07697510719299316;-0.04190845042467117;0.06352906365097376;0.019477827580621533;0.016769392752010948;0.0194767623161855;
508a8d84-4700-4ffa-9dad-735cf46b6d83;1513934196.214;;-0.9924898147583008;-0.06148700788617134;-0.10575108230113983;;-100.40650939941406;-19.864486694335938;4.218994140625;;;;-2.906455012068081;;-1.4646455297868604;0.018414508551359177;-0.015249443240463734;-0.04708094522356987;0.061525816684466675;-0.03658197968165544;0.08419264206954702;-0.003806988778268271;
508a8d84-4700-4ffa-9dad-735cf46b6d83;1513934196.264;;-0.9928879141807556;-0.0583532452583313;-0.10377126187086105;;-96.91410827636719;-20.919235229492188;5.9066009521484375;;;;-2.9073946048504977;;-1.4666598253138707;-0.11285548657178879;0.005054294131696224;-0.020511578768491745;0.05838641154091314;-0.05188104119583364;-0.06532734153964372;0.04175463746691634;
508a8d84-4700-4ffa-9dad-735cf46b6d83;1513934196.314;;-0.992811381816864;-0.05662214010953903;-0.1054488942027092;;-95.51715087890625;-19.864486694335938;5.2315673828125;;;;-2.9089427624793407;;-1.4649806271994232;0.006498527713119984;0.07516156882047653;0.0542556568980217;0.056652438833604636;-0.010109892130158804;-0.03672339353553865;0.0322753818828883;
508a8d84-4700-4ffa-9dad-735cf46b6d83;1513934196.364;;-0.9927205443382263;-0.05693284422159195;-0.10613472759723663;;-95.86639404296875;-19.512908935546875;4.218994140625;;;;-2.9094631224117466;;-1.4642879140466345;0.00456136092543602;0.05626145750284195;-0.018834756687283516;0.0569636442548987;0.0143613624943613;-0.019985958716608652;0.03964488125135557;
508a8d84-4700-4ffa-9dad-735cf46b6d83;1513934196.414;;-0.9927217364311218;-0.05793393775820732;-0.10558021068572998;;-93.59632873535156;-19.688690185546875;5.06280517578125;;;;-2.911383919031979;;-1.4648403392830442;-0.08033733069896698;0.006740701850503683;0.05251014605164528;0.0579663959182159;-0.046555784280111194;0.03313451765054787;0.0077529945654386785;
508a8d84-4700-4ffa-9dad-735cf46b6d83;1513934196.464;;-0.9927735924720764;-0.05752759426832199;-0.10531436651945114;;-93.24708557128906;-18.985519409179688;4.0502471923828125;;;;-2.912537195806765;;-1.4651106268298777;-0.0858091413974762;0.05842786282300949;0.05669986829161644;0.05755937374709108;-0.10191624544013336;-0.06796733312823926;0.016474314503230166;
508a8d84-4700-4ffa-9dad-735cf46b6d83;1513934196.514;;-0.9928843975067139;-0.05921713262796402;-0.10331456363201141;;-92.89784240722656;-19.688690185546875;2.025115966796875;;;;-2.9127995922267473;;-1.4671144801620317;0.011088135652244091;0.01293722540140152;0.019711656495928764;0.05925179667165508;-0.042063830469474546;-0.030830883307629325;0.046942741586499706;
508a8d84-4700-4ffa-9dad-735cf46b6d83;1513934196.564;;-0.9929367303848267;-0.05766355246305466;-0.1036895364522934;;-94.64404296875;-17.22760009765625;2.700164794921875;;;;-2.9149951966321295;;-1.466746322987727;-0.13964687287807465;0.020157448947429657;-0.0704437643289566;0.05769555686553406;-0.026268622044214582;-0.02476819708606394;0.06510310337585905;
508a8d84-4700-4ffa-9dad-735cf46b6d83;1513934196.614;;-0.9935369491577148;-0.052028752863407135;-0.10088265687227249;;-92.19937133789062;-18.985519409179688;3.3751983642578125;;;;-2.9144951544626116;;-1.4696042381920762;0.10991574823856354;0.034511663019657135;-0.1858452558517456;0.05205225434850613;0.0865146522239871;-0.01611984776214062;0.05641054557784041;
508a8d84-4700-4ffa-9dad-735cf46b6d83;1513934196.664;;-0.9933872818946838;-0.05243440717458725;-0.10213903337717056;;-94.12019348144531;-18.809738159179688;3.2064361572265625;;;;-2.9149084810632253;;-1.4683374201009312;0.12835125625133514;0.06601472944021225;-0.08386560529470444;0.05245846408202111;0.07615096084194375;0.14398220643847998;0.0049923617794625395;
508a8d84-4700-4ffa-9dad-735cf46b6d83;1513934196.714;;-0.992590069770813;-0.05509715899825096;-0.10830195248126984;;-92.89784240722656;-18.282363891601562;3.0376739501953125;;;;-2.916697472725007;;-1.4621157957486808;-0.0361117422580719;-0.02882618084549904;-0.04933660104870796;0.05512507313193878;0.08603341901500978;0.1308959654740486;-0.008481635439684358;
508a8d84-4700-4ffa-9dad-735cf46b6d83;1513934196.764;;-0.992599606513977;-0.05411536991596222;-0.10870830714702606;;-93.42170715332031;-17.754989624023438;3.5439605712890625;;;;-2.917414864386503;;-1.4617122878869346;-0.005569312255829573;-0.04079429805278778;0.029225273057818413;0.05414181832389735;0.03940679464990249;0.1129515860490947;-0.0024991103669303573;
508a8d84-4700-4ffa-9dad-735cf46b6d83;1513934196.814;16.1781005859375;-0.9926014542579651;-0.05366979539394379;-0.10891261696815491;;-92.37399291992188;-19.16131591796875;2.8689117431640625;;10.770000457763672;94.21875;-2.918731059160055;;-1.4615090952532046;0.006914172321557999;0.020680293440818787;0.11136928200721741;0.05369559486717426;-0.06369535642364316;0.02237428158219171;0.00405599434019068;
508a8d84-4700-4ffa-9dad-735cf46b6d83;1513934196.864;;-0.9924635887145996;-0.05409111827611923;-0.10995516180992126;;-92.02474975585938;-17.05181884765625;3.8814849853515625;;;;-2.918554758474075;;-1.4604561942413903;-0.0751175656914711;0.03791680186986923;0.08786043524742126;0.05411753047449039;-0.03862542318607324;-0.0627928111302153;0.07076684806613055;
508a8d84-4700-4ffa-9dad-735cf46b6d83;1513934196.914;;-0.992683470249176;-0.0538923442363739;-0.10805154591798782;;-91.67550659179688;-17.754989624023438;4.5565185546875;;;;-2.918347487191752;;-1.4623752336204185;-0.07346338033676147;-0.005800037644803524;0.024158723652362823;0.053918466768153435;-0.01787220775941276;-0.0614987811565458;0.08039577330342106;
508a8d84-4700-4ffa-9dad-735cf46b6d83;1513934196.964;;-0.9925909638404846;-0.05356787145137787;-0.10905815660953522;;-90.45317077636719;-17.579193115234375;6.7504119873046875;;;;-2.918019292442353;;-1.4613630654145444;-0.042305897921323776;-0.02695275843143463;-0.005016546696424484;0.05359352348106105;0.007820372541017683;-0.05307653420917021;0.08646112268607652;
508a8d84-4700-4ffa-9dad-735cf46b6d83;1513934197.014;;-0.992572546005249;-0.05329291522502899;-0.10936005413532257;;-90.27854919433594;-19.16131591796875;4.218994140625;;;;-2.9174539791312606;;-1.4610605363133846;0.08089040964841843;-0.00009758792293723673;-0.05883757770061493;0.053318173812999886;0.1005532395942308;0.051392084819695094;-0.0021414478325327154;
508a8d84-4700-4ffa-9dad-735cf46b6d83;1513934197.064;;-0.9927210807800293;-0.052828870713710785;-0.10823123157024384;31.19514919704861;-90.62779235839844;-17.754989624023438;5.9066009521484375;121.42309516059028;;;-2.917120606424877;;-1.462200425429575;0.032088737934827805;-0.053921617567539215;-0.042037323117256165;0.052853474388526916;0.06012645424682797;0.0690911871082527;0.001796568471367454;
508a8d84-4700-4ffa-9dad-735cf46b6d83;1513934197.114;;-0.9927535653114319;-0.05332738161087036;-0.10768700391054153;;-91.85012817382812;-16.876022338867188;4.0502471923828125;;;;-2.9166949141194984;;-1.4627457522321552;0.06030425429344177;-0.02968042902648449;-0.034814827144145966;0.05335269069947414;0.03201359314773351;0.08560891113725116;-0.002778475965279669;
508a8d84-4700-4ffa-9dad-735cf46b6d83;1513934197.164;;-0.9926580190658569;-0.053537074476480484;-0.10846112668514252;;-91.32626342773438;-17.05181884765625;5.2315673828125;;;;-2.915955325913381;;-1.46196471848807;0.11721552908420563;-0.0018065543845295906;-0.04861285164952278;0.05356268137008396;0.07355544404355253;0.09887731232024394;0.014178137011363848;
508a8d84-4700-4ffa-9dad-735cf46b6d83;1513934197.214;;-0.9894804954528809;-0.06565576791763306;-0.1289094239473343;;-92.02474975585938;-17.403396606445312;5.9066009521484375;;;;-2.9167666143102218;;-1.4412460893727908;-0.04906319081783295;-0.039416249841451645;-0.030972175300121307;0.06570303223199991;0.00018455706354249122;0.11758921477135868;0.0012918994447974385;
