track_uuid;t;alt;g_x;g_y;g_z;lat;m_x;m_y;m_z;long;speed;course;att_yaw;heading;att_roll;user_a_x;user_a_y;user_a_z;att_pitch;rot_rate_x;rot_rate_y;rot_rate_z;name
e4b9c561-fba9-4499-93ce-21873b9972ed;1514168787.821;0;0.9921069741249084;-0.002964029088616371;-0.1253587156534195;0;-100.40650939941406;-82.0948486328125;12.994537353515625;0;0;0;-0.0029565313156746692;;1.445106370534767;0.00021776810172013938;0.11351395398378372;0.04253395274281502;0.0029640335233432694;-0.20965948734536008;0.0065393920566895695;0.024857146666472586;
e4b9c561-fba9-4499-93ce-21873b9972ed;1514168787.871;;0.9921112656593323;-0.0033155002165585756;-0.12531718611717224;;-100.23188781738281;-82.62222290039062;13.500823974609375;;;;-0.005837543592966984;;1.4451481044757388;-0.010330173186957836;0.063053660094738;0.04588000848889351;0.0033155063311086416;0.04718615451013295;-0.03163595690516028;0.06965444567880445;
e4b9c561-fba9-4499-93ce-21873b9972ed;1514168787.921;;0.9928461909294128;0.014791280031204224;-0.11848080903291702;;-98.83493041992188;-82.27064514160156;12.150741577148438;;;;-0.004408610172815911;;1.4520235030533413;-0.001162210712209344;0.050104349851608276;-0.0018194956937804818;-0.014791819309677684;-0.1410732355797864;-0.02175775978983837;0.020722056441906552;
e4b9c561-fba9-4499-93ce-21873b9972ed;1514168787.971;;0.9928316473960876;0.013969832099974155;-0.11870177835226059;;-100.40650939941406;-82.44642639160156;13.669570922851562;;;;-0.007439938190765485;;1.451802341762117;-0.00488611776381731;0.02437550574541092;-0.004085707478225231;-0.013970286387858515;-0.013717942774998156;-0.03558116374400366;0.023833427543446126;
e4b9c561-fba9-4499-93ce-21873b9972ed;1514168788.021;;0.9929165840148926;0.022109296172857285;-0.11673847585916519;;-101.10499572753906;-83.85276794433594;12.994537353515625;;;;-0.007335338084555428;;1.4537623269651843;0.004779358394443989;0.014557573944330215;-0.006674594711512327;-0.02211109802895385;-0.0833316420891244;-0.02403183304465703;-0.0012349077974697427;
e4b9c561-fba9-4499-93ce-21873b9972ed;1514168788.071;;0.9926906228065491;0.030990058556199074;-0.11664044857025146;;-99.18417358398438;-81.21588134765625;12.150741577148438;;;;-0.008267283278168528;;1.4538333313918963;0.002731768414378166;0.024597709998488426;0.0025352449156343937;-0.030995021495456663;0.11992294283459512;-0.012616459348141384;0.01402926630642842;
e4b9c561-fba9-4499-93ce-21873b9972ed;1514168788.121;;0.9927428364753723;0.03476304933428764;-0.11512277275323868;;-99.70803833007812;-82.79801940917969;13.669570922851562;;;;-0.0074908058415628625;;1.4553476465653155;-0.01672961562871933;0.021618176251649857;0.015650784596800804;-0.0347700565567988;-0.046645266492737855;-0.011991149124190779;0.009675796872475889;
e4b9c561-fba9-4499-93ce-21873b9972ed;1514168788.171;;0.9926221370697021;0.038681887090206146;-0.11491332203149796;;-100.93037414550781;-82.62222290039062;13.838333129882812;;;;-0.006927483124228362;;1.4555419471698647;-0.006400785408914089;0.027159789577126503;0.004271880257874727;-0.03869153930695702;0.1013159689304295;-0.017312411298278103;0.04305319481443898;
e4b9c561-fba9-4499-93ce-21873b9972ed;1514168788.221;;0.9926934242248535;0.04034581780433655;-0.11371874064207077;;-99.70803833007812;-81.39167785644531;14.007095336914062;;;;-0.007898268519117561;;1.456737772939699;0.002912024036049843;0.03478845953941345;0.019526181742548943;-0.04035677016907739;-0.05787022417131284;-0.014301974002052534;0.035077027349651665;
e4b9c561-fba9-4499-93ce-21873b9972ed;1514168788.271;;0.9927761554718018;0.04068928584456444;-0.11287084966897964;;-100.75575256347656;-81.74325561523438;14.682144165039062;;;;-0.007861914328605292;;1.457590279760085;-0.006234431639313698;0.03800028935074806;0.07087870687246323;-0.04070052325008328;-0.013764548094074543;-0.029613552373354106;0.03115472369618296;
e4b9c561-fba9-4499-93ce-21873b9972ed;1514168788.321;;0.9925641417503357;0.04299366474151611;-0.1138773038983345;;-99.18417358398438;-81.91905212402344;12.488250732421875;;;;-0.009307792929509118;;1.4565653683805173;-0.02897157333791256;0.017370104789733887;0.01600746065378189;-0.043006921851801494;-0.05901138869841179;-0.026236397795024624;0.02164723860460008;
e4b9c561-fba9-4499-93ce-21873b9972ed;1514168788.371;;0.9925841689109802;0.04315175116062164;-0.11364194750785828;;-98.66030883789062;-82.0948486328125;10.63189697265625;;;;-0.008128465721781336;;1.456801694173402;-0.006607054732739925;0.02932749316096306;0.0569554828107357;-0.04316515591173755;0.009628925237290493;-0.008200938260790006;0.020439761366358153;
e4b9c561-fba9-4499-93ce-21873b9972ed;1514168788.421;;0.9925635457038879;0.04300110787153244;-0.11387889087200165;;-100.40650939941406;-82.79801940917969;13.669570922851562;;;;-0.008713276451944573;;1.456563723899505;-0.015192393213510513;0.004484242759644985;0.0011316303862258792;-0.04301437084422223;0.034141192542597815;0.004949218569803257;0.021723405011776345;
e4b9c561-fba9-4499-93ce-21873b9972ed;1514168788.471;;0.9931641817092896;0.050915442407131195;-0.10503635555505753;;-99.88264465332031;-80.86430358886719;12.825775146484375;;;;-0.008047676056838557;;1.4654286991917025;0.012618958950042725;0.030429163947701454;0.02974953129887581;-0.050937465757569494;-0.058867844315656524;0.017672736993765824;0.012455338102191588;
e4b9c561-fba9-4499-93ce-21873b9972ed;1514168788.521;;0.9931927919387817;0.052921511232852936;-0.10376598685979843;;-101.27961730957031;-81.91905212402344;12.825775146484375;;;;-0.009022481978160964;;1.4666968155003655;0.013887275941669941;0.015941405668854713;0.014318926259875298;-0.05294624407932524;0.013253753796997345;0.0013467605632530707;0.028999161109872825;
e4b9c561-fba9-4499-93ce-21873b9972ed;1514168788.571;;0.9934529066085815;0.05485126003623009;-0.10021290928125381;;-100.05726623535156;-81.04010009765625;12.319488525390625;;;;-0.008383108889328209;;1.4702630601099083;-0.00012100808817194775;0.016437800601124763;0.007347984239459038;-0.0548788024524711;-0.04428277628972856;-0.008371913202773093;0.021801435631715667;
e4b9c561-fba9-4499-93ce-21873b9972ed;1514168788.621;;0.9932565093040466;0.05651938170194626;-0.101227305829525;;-100.58113098144531;-81.21588134765625;11.475692749023438;;;;-0.00937776170780821;;1.4692324231899554;-0.0018472648225724697;0.017165306955575943;-0.006408268120139837;-0.05654951783554125;-0.0064459151024277885;-0.020063456704329956;0.037285054209436355;
e4b9c561-fba9-4499-93ce-21873b9972ed;1514168788.671;;0.9932581186294556;0.056411340832710266;-0.10127172619104385;;-98.13644409179688;-82.62222290039062;11.138168334960938;;;;-0.009413401390970398;;1.4691883286429759;-0.010256469249725342;0.005783479660749435;0.03713897615671158;-0.056441304577883614;-0.028407406715657217;-0.022558838645734203;0.025227858690211616;
e4b9c561-fba9-4499-93ce-21873b9972ed;1514168788.721;;0.99329674243927;0.057732172310352325;-0.10014274716377258;;-99.53341674804688;-83.32539367675781;12.150741577148438;;;;-0.009337368659423253;;1.4703172800009279;0.006840583402663469;0.0015329623129218817;-0.01567145623266697;-0.05776429055653755;0.024286697560977615;-0.01169713613984603;0.02519643338934868;
e4b9c561-fba9-4499-93ce-21873b9972ed;1514168788.771;;0.9933959245681763;0.058865975588560104;-0.09848583489656448;;-100.05726623535156;-82.0948486328125;13.332061767578125;;;;-0.00889876470621317;;1.4719786659500707;-0.00223069591447711;0.0036645440850406885;-0.01345259789377451;-0.058900025862180516;-0.014913169472225717;-0.004693555105155649;0.026594859277749287;
e4b9c561-fba9-4499-93ce-21873b9972ed;1514168788.821;;0.9931913614273071;0.06024743244051933;-0.09970526397228241;;-100.75575256347656;-82.0948486328125;11.981979370117188;;;;-0.008674881688093303;;1.4707427683176004;-0.0028654434718191624;0.0018100598827004433;0.022083839401602745;-0.06028394108208192;-0.014909441046699607;0.0036256275080338747;0.02789554715414399;
e4b9c561-fba9-4499-93ce-21873b9972ed;1514168788.871;;0.9934262633323669;0.05901101976633072;-0.0980919897556305;;-100.23188781738281;-83.32539367675781;12.150741577148438;;;;-0.00893703311003765;;1.4723742775504327;-0.010760201141238213;-0.01932290755212307;0.023217182606458664;-0.05904532313776991;-0.017298030228391676;-0.010678743338999729;0.016861804441836697;
e4b9c561-fba9-4499-93ce-21873b9972ed;1514168788.921;;0.9935590624809265;0.05913940444588661;-0.09665931016206741;;-99.18417358398438;-82.27064514160156;12.488250732421875;;;;-0.008618026970310383;;1.473815596292418;-0.007856491021811962;-0.014629515819251537;-0.007664975710213184;-0.059173933446167164;0.0022972427563023507;0.0036527917511526833;0.020591028916274654;
e4b9c561-fba9-4499-93ce-21873b9972ed;1514168788.971;;0.9938147664070129;0.0596897266805172;-0.09364480525255203;;-101.27961730957031;-81.56747436523438;11.813217163085938;;;;-0.008513947608536878;;1.476846100103954;-0.01902228407561779;0.012972628697752953;0.03225869685411453;-0.05972522682518319;0.010747719211232782;-0.02835068138443853;0.029889189546177305;
e4b9c561-fba9-4499-93ce-21873b9972ed;1514168789.021;;0.9938289523124695;0.05993276461958885;-0.09333830326795578;;-99.88264465332031;-82.27064514160156;12.488250732421875;;;;-0.008004816851379442;;1.477153136938375;-0.015481189824640751;0.0027198251336812973;-0.01107755396515131;-0.05996870030733845;-0.024661404326351763;-0.007129814870360136;0.019340408468373444;
e4b9c561-fba9-4499-93ce-21873b9972ed;1514168789.071;;0.9939517974853516;0.06144574657082558;-0.09101751446723938;;-99.35879516601562;-81.39167785644531;12.994537353515625;;;;-0.008211695171927356;;1.479479643897801;0.00470540439710021;0.016236746683716774;0.023680517449975014;-0.06148447931504732;0.004687696150757475;0.0013140036818450962;0.027814054424787564;
e4b9c561-fba9-4499-93ce-21873b9972ed;1514168789.121;;0.9940894842147827;0.060411419719457626;-0.09020286798477173;;-101.27961730957031;-82.27064514160156;13.500823974609375;;;;-0.008388262401354313;;1.480304955216049;-0.015451791696250439;-0.014146770350635052;0.012077842839062214;-0.06044822688157053;-0.013725399626050377;-0.02250131436618849;0.027604996279216344;
e4b9c561-fba9-4499-93ce-21873b9972ed;1514168789.171;;0.9966640472412109;0.06364727765321732;-0.05108555033802986;;-100.05726623535156;-81.39167785644531;12.657012939453125;;;;-0.010726951195683935;;1.5195846044367285;-0.05728725343942642;-0.033602725714445114;0.06046965718269348;-0.06369032929747212;0.009662481067025492;-0.07597572484221654;0.001555818708824291;
e4b9c561-fba9-4499-93ce-21873b9972ed;1514168789.221;0.446685791015625;0.9959902167320251;0.04885060712695122;-0.07494764775037766;;-100.23188781738281;-81.91905212402344;13.838333129882812;;1.7200000286102295;180;-0.014991188353824134;;1.4956884925840292;0.0019040924962610006;0.011116432026028633;-0.08201951533555984;-0.04887005884886036;0.028983714775550364;-0.04604978367299614;0.04415361297685972;
e4b9c561-fba9-4499-93ce-21873b9972ed;1514168789.271;;0.9959826469421387;0.048810895532369614;-0.075074203312397;;-99.35879516601562;-80.33692932128906;14.007095336914062;;;;-0.015126281502087247;;1.4955615794855135;-0.05752130597829819;-0.019788676872849464;-0.006560309790074825;-0.048830296877137476;-0.05031110773323193;-0.023895212880735966;0.005927663954298368;
e4b9c561-fba9-4499-93ce-21873b9972ed;1514168789.321;;0.9959549903869629;0.04914764687418938;-0.07522133737802505;;-99.88264465332031;-80.86430358886719;13.838333129882812;;;;-0.014879776627602644;;1.4954126038069244;-0.012525987811386585;0.04496856406331062;0.016749732196331024;-0.04916745535985628;-0.003911917325217393;-0.06170411087659091;0.01747193464757385;
e4b9c561-fba9-4499-93ce-21873b9972ed;1514168789.371;;0.9950976967811584;0.05500931292772293;-0.08218584209680557;;-100.23188781738281;-80.1611328125;13.500823974609375;;;;-0.015230016367877313;;1.4883926260956886;-0.003245913190767169;-0.04718155413866043;-0.039884526282548904;-0.0550370937286899;0.021687452337060275;-0.07700849871294926;0.030532342949431444;
e4b9c561-fba9-4499-93ce-21873b9972ed;1514168789.421;;0.9942322969436646;0.05572330951690674;-0.09163572639226913;;-99.88264465332031;-81.21588134765625;13.163299560546875;;;;-0.015775944077411258;;1.4788886652731184;-0.00590524123981595;0.01742732711136341;0.08240418136119843;-0.05575218794943439;0.0046019423636569235;-0.112759838450609;0.01446788893796447;
e4b9c561-fba9-4499-93ce-21873b9972ed;1514168789.471;;0.9943158626556396;0.05581050366163254;-0.09067019075155258;;-101.10499572753906;-82.44642639160156;14.007095336914062;;;;-0.015780927908334318;;1.479859307421097;-0.02552012726664543;-0.06775813549757004;-0.021970253437757492;-0.05583951923480121;-0.03796362765518855;-0.015584019750816679;-0.004899683773527783;
e4b9c561-fba9-4499-93ce-21873b9972ed;1514168789.521;;0.9943466186523438;0.05513833463191986;-0.09074417501688004;;-99.70803833007812;-79.63375854492188;12.994537353515625;;;;-0.015400797327442843;;1.4797883139935122;-0.02402498759329319;-0.07146523892879486;-0.01257301028817892;-0.05516631347709901;0.05261207891506039;0.01803625848256164;0.012140286145235215;
e4b9c561-fba9-4499-93ce-21873b9972ed;1514168789.571;;0.9943150877952576;0.055267006158828735;-0.0910114198923111;;-98.48568725585938;-80.1611328125;12.825775146484375;;;;-0.014803385420932309;;1.4795189001194464;0.008904521353542805;0.044128745794296265;-0.0742565467953682;-0.0552951812339033;-0.025769013023715717;0.026090190251179275;0.011243866122314544;
e4b9c561-fba9-4499-93ce-21873b9972ed;1514168789.621;;0.9943104386329651;0.05518743768334389;-0.09111005812883377;;-99.53341674804688;-80.86430358886719;12.825775146484375;;;;-0.014711018734535699;;1.47942009428036;0.004102615639567375;-0.03721258044242859;-0.1325533092021942;-0.05521548791793976;0.006050701996660029;-0.005885319692966108;0.008382832163242418;
e4b9c561-fba9-4499-93ce-21873b9972ed;1514168789.671;;0.9943857789039612;0.05503617227077484;-0.09037614613771439;;-99.35879516601562;-80.68850708007812;12.319488525390625;;;;-0.014816476102194656;;1.480158944630914;0.02091873623430729;0.005480185151100159;-0.0887620747089386;-0.05506399296618355;-0.024609206368986208;0.0677332412684213;0.02862791645391578;
e4b9c561-fba9-4499-93ce-21873b9972ed;1514168789.721;;0.9944319128990173;0.05540253594517708;-0.08964205533266068;;-100.93037414550781;-82.62222290039062;10.463134765625;;;;-0.01432307362333768;;1.480895323693145;0.004362625535577536;-0.029081124812364578;-0.007739551365375519;-0.05543091644829275;0.004769721512331916;0.05951951983439891;0.02966282085352057;
e4b9c561-fba9-4499-93ce-21873b9972ed;1514168789.771;;0.9944717288017273;0.056165456771850586;-0.08872158825397491;;-99.18417358398438;-81.91905212402344;11.475692749023438;;;;-0.013709428302107954;;1.4818171004806555;0.005436772480607033;0.11191010475158691;0.04126681014895439;-0.056195027616789864;0.008053399136399617;0.012183695671003508;0.07024806428578312;
e4b9c561-fba9-4499-93ce-21873b9972ed;1514168789.821;;0.9945257306098938;0.05638077110052109;-0.08797535300254822;;-99.88264465332031;-80.1611328125;13.163299560546875;;;;-0.012862182373467384;;1.4825663799510709;-0.007724643684923649;0.09739730507135391;0.009102650918066502;-0.05641068367494046;-0.04067658985765227;0.03090358760538849;0.03915246276579992;
e4b9c561-fba9-4499-93ce-21873b9972ed;1514168789.871;;0.9945952892303467;0.05656230449676514;-0.08706765621900558;;-101.27961730957031;-81.21588134765625;13.163299560546875;;;;-0.012530445613074261;;1.483478136949534;-0.020367460325360298;0.09865009784698486;-0.000853555859066546;-0.05659250872455758;-0.0038764972827193393;0.008412659567451306;0.027916586126755613;
e4b9c561-fba9-4499-93ce-21873b9972ed;1514168789.921;;0.9946640133857727;0.056926049292087555;-0.08604022860527039;;-101.97808837890625;-80.51272583007812;11.813217163085938;;;;-0.012084522131933572;;1.4845093190342606;0.022471603006124496;0.0023543471470475197;0.09966631233692169;-0.05695683977050521;-0.027159982061064104;-0.026132534512511532;0.0215572237597554;
e4b9c561-fba9-4499-93ce-21873b9972ed;1514168789.971;;0.9947246313095093;0.057155609130859375;-0.08518311381340027;;-101.10499572753906;-81.74325561523438;12.994537353515625;;;;-0.010883074551625061;;1.4853698712487864;-0.04843556508421898;-0.01035690400749445;0.021065611392259598;-0.057186773366173914;-0.007557252225317854;-0.012993562958496603;0.024064057293846988;
e4b9c561-fba9-4499-93ce-21873b9972ed;1514168790.021;;0.9947850108146667;0.05755269154906273;-0.0842045471072197;;-101.27961730957031;-80.86430358886719;12.825775146484375;;;;-0.010417587143170117;;1.4863516498532887;0.009868884459137917;-0.03452717885375023;0.11641581356525421;-0.05758450960626465;-0.021001155724146858;0.01904186811017556;0.02687315961166257;
e4b9c561-fba9-4499-93ce-21873b9972ed;1514168790.071;;0.9948796033859253;0.057808246463537216;-0.08290229737758636;;-101.97808837890625;-80.51272583007812;12.150741577148438;;;;-0.009097838824647694;;1.4876594205290539;0.010384686291217804;0.033897075802087784;0.10647716373205185;-0.05784049142911132;-0.011150389168052763;0.009538111444118792;0.018275676664559763;
e4b9c561-fba9-4499-93ce-21873b9972ed;1514168790.121;;0.9949531555175781;0.05774568021297455;-0.082058385014534;;-100.75575256347656;-80.68850708007812;13.332061767578125;;;;-0.008337905889479087;;1.4885079483363963;-0.010685007087886333;0.04819609224796295;0.059536390006542206;-0.05777782271347494;0.01830683564931369;-0.002282062738088899;0.008387359537095553;
e4b9c561-fba9-4499-93ce-21873b9972ed;1514168790.171;;0.9950617551803589;0.05745868757367134;-0.0809352919459343;;-100.05726623535156;-80.33692932128906;13.669570922851562;;;;-0.0071307894077449144;;1.489638029481474;-0.0011347993277013302;-0.01989154890179634;0.10696671903133392;-0.05749034982289149;-0.0024724787560295646;-0.002373941795696633;0.0023995081421613936;
e4b9c561-fba9-4499-93ce-21873b9972ed;1514168790.221;;0.9950823783874512;0.05760765075683594;-0.08057568222284317;;-101.62884521484375;-81.56747436523438;12.488250732421875;;;;-0.006360539702424738;;1.4899987325839585;-0.049556244164705276;-0.04129600524902344;0.03621838614344597;-0.057639561648701286;-0.01731294393049612;-0.038011830870918986;0.01293364183396982;
e4b9c561-fba9-4499-93ce-21873b9972ed;1514168790.271;;0.9951484203338623;0.057935744524002075;-0.07951802760362625;;-100.93037414550781;-80.51272583007812;13.163299560546875;;;;-0.005495541089153966;;1.4910600405861922;-0.008423537015914917;0.05366704240441322;0.04353788495063782;-0.057968203052551966;-0.007568437501896187;0.0036543896478067306;0.029084115948646353;
e4b9c561-fba9-4499-93ce-21873b9972ed;1514168790.321;;0.9951469302177429;0.058204472064971924;-0.07933936268091202;;-100.93037414550781;-80.51272583007812;11.475692749023438;;;;-0.0037080457456630527;;1.491238325211266;0.0205695703625679;0.0028154216706752777;-0.03800080344080925;-0.05823738600411182;-0.013730992264339544;-0.043895552667231046;0.02374208111805641;
e4b9c561-fba9-4499-93ce-21873b9972ed;1514168790.371;;0.9951160550117493;0.05885891243815422;-0.07924390584230423;;-102.1527099609375;-80.33692932128906;12.657012939453125;;;;-0.0029275370995134145;;1.4913311906201687;0.014207030646502972;0.07436557114124298;-0.004465805366635323;-0.05889295198268306;0.005856823869302261;-0.01648416819926346;0.031242874328264583;
e4b9c561-fba9-4499-93ce-21873b9972ed;1514168790.421;;0.9951097369194031;0.059080325067043304;-0.07915859669446945;31.30296413845486;-99.88264465332031;-81.56747436523438;11.475692749023438;121.46762396918403;;;-0.002666931017033007;;1.4914158755201867;0.03449229523539543;-0.007887088693678379;-0.05046476796269417;-0.05911474789087763;-0.00631355599625085;0.07615548821579689;0.04076074574809877;
e4b9c561-fba9-4499-93ce-21873b9972ed;1514168790.471;;0.9951576590538025;0.0590774230659008;-0.07855608314275742;;-101.27961730957031;-82.27064514160156;12.825775146484375;;;;-0.0010361642532442988;;1.4920213484677272;-0.0048470087349414825;0.021580534055829048;-0.06766891479492188;-0.059111843648315406;0.015293735191998042;0.019396601167374114;0.0860270274283936;
e4b9c561-fba9-4499-93ce-21873b9972ed;1514168790.521;;0.9952459931373596;0.05842263996601105;-0.07792460918426514;;-99.88264465332031;-81.21588134765625;14.175857543945312;;;;-0.0007652521032461003;;1.492658905451127;-0.011023558676242828;0.0018495786935091019;-0.022371353581547737;-0.0584559267586099;-0.0006114617862821931;0.03241013783404631;0.0862155792335712;
e4b9c561-fba9-4499-93ce-21873b9972ed;1514168790.571;;0.9952792525291443;0.057893119752407074;-0.07789397239685059;;-100.58113098144531;-82.62222290039062;14.513381958007812;;;;0.0012016493749919808;;1.4926920970906454;0.03537558764219284;0.06635919958353043;-0.020189588889479637;-0.05792550792558716;-0.053024069935695646;-0.013069463049563862;0.04233227710735453;
e4b9c561-fba9-4499-93ce-21873b9972ed;1514168790.621;;0.99527508020401;0.05747042968869209;-0.07826060801744461;;-102.501953125;-82.0948486328125;12.657012939453125;;;;0.001665133620417237;;1.492325650561871;0.009623025543987751;-0.022787202149629593;-0.08534406870603561;-0.05750211247145566;-0.022321284676499135;-0.011820174182207691;0.03258404225322849;
e4b9c561-fba9-4499-93ce-21873b9972ed;1514168790.671;;0.9952613711357117;0.057225264608860016;-0.07861355692148209;;-100.23188781738281;-81.91905212402344;12.488250732421875;;;;0.0027628599480524333;;1.491972135054828;-0.0022346293553709984;-0.002491986844688654;-0.05119297653436661;-0.05725654429650079;-0.06374569016824565;-0.0037518613437036307;0.00497824702568512;
e4b9c561-fba9-4499-93ce-21873b9972ed;1514168790.721;;0.9949092268943787;0.04693612828850746;-0.08917735517024994;;-100.23188781738281;-81.91905212402344;14.175857543945312;;;;0.0035496134477846237;;1.4814015600672297;0.004251529928296804;-0.03790292516350746;-0.040232378989458084;-0.04695337738407255;-0.016054333999324672;0.001202949864388792;0.016988837225833477;
e4b9c561-fba9-4499-93ce-21873b9972ed;1514168790.771;;0.994978129863739;0.04660245403647423;-0.08858193457126617;;-100.58113098144531;-81.21588134765625;13.838333129882812;;;;0.0047486018500908205;;1.4820014104156773;-0.04940621554851532;-0.0028402458410710096;-0.05698690190911293;-0.04661933829694876;-0.019822706941786793;-0.022535669144250512;0.023994282473286912;
e4b9c561-fba9-4499-93ce-21873b9972ed;1514168790.821;;0.9949808716773987;0.046562451869249344;-0.08857182413339615;;-100.58113098144531;-81.21588134765625;13.838333129882812;;;;0.0058343253755035115;;1.4820117314819432;0.04388324171304703;-0.032722730189561844;0.003031009342521429;-0.046579292958073025;-0.019822706941786793;-0.022535669144250512;0.023994282473286912;
e4b9c561-fba9-4499-93ce-21873b9972ed;1514168790.871;;0.9949365258216858;0.046585943549871445;-0.08905627578496933;;-100.40650939941406;-80.33692932128906;13.332061767578125;;;;0.007136541814717834;;1.4815247309442028;-0.015017108991742134;0.0017233847174793482;0.08112174272537231;-0.04660280916030858;-0.02721404423119271;-0.0605778600515964;0.02117878856885514;
e4b9c561-fba9-4499-93ce-21873b9972ed;1514168790.921;;0.9949089288711548;0.04757072776556015;-0.08884437382221222;;-101.4542236328125;-82.0948486328125;12.319488525390625;;;;0.008009090161514425;;1.4817335599133823;-0.0432334765791893;0.05956123396754265;-0.058540262281894684;-0.04758868868724645;-0.034471158201658636;-0.06659340832186739;0.007831557817596016;
e4b9c561-fba9-4499-93ce-21873b9972ed;1514168790.971;;0.9949047565460205;0.04801470413804054;-0.08865150809288025;;-99.88264465332031;-82.62222290039062;13.163299560546875;;;;0.008304371316019445;;1.4819255115092724;0.020521868020296097;0.010777407325804234;-0.027940887957811356;-0.04803317368226537;0.0010572749527614576;-0.029627933443240533;0.015391739520112958;
e4b9c561-fba9-4499-93ce-21873b9972ed;1514168791.021;;0.9948673844337463;0.04802055284380913;-0.08906695246696472;;-100.75575256347656;-82.0948486328125;11.644454956054688;;;;0.00920755177425406;;1.481507905391765;-0.028390945866703987;0.01614265702664852;-0.04408130422234535;-0.04803902640377536;-0.0015195997179992134;-0.015305985733012405;0.034904720827123537;
e4b9c561-fba9-4499-93ce-21873b9972ed;1514168791.071;;0.9949396252632141;0.04840502142906189;-0.08804579079151154;;-100.93037414550781;-81.91905212402344;13.163299560546875;;;;0.009368638919007048;;1.4825326522246214;0.035532161593437195;-0.04434618353843689;-0.04624677076935768;-0.04842394292700307;-0.029630596604330612;-0.03326234938287167;0.02269519249354626;
e4b9c561-fba9-4499-93ce-21873b9972ed;1514168791.121;;0.9949396252632141;0.04840502142906189;-0.08804579079151154;;-101.803466796875;-82.0948486328125;13.332061767578125;;;;0.009368638919007048;;1.4825326522246214;0.035532161593437195;-0.04434618353843689;-0.04624677076935768;-0.04842394292700307;-0.008871788539380965;-0.010574081108159616;0.036187032891996686;
e4b9c561-fba9-4499-93ce-21873b9972ed;1514168791.171;;0.9949789047241211;0.04892124980688095;-0.08731374889612198;;-101.62884521484375;-82.27064514160156;11.813217163085938;;;;0.009983135848451709;;1.4832661841609904;-0.005370134022086859;0.004148819949477911;-0.11236269772052765;-0.04894078428532333;0.015772837872103297;0.021527662671655522;0.02437671240582229;
e4b9c561-fba9-4499-93ce-21873b9972ed;1514168791.221;;0.9948047399520874;0.04990178346633911;-0.08873163163661957;;-103.02581787109375;-82.62222290039062;12.150741577148438;;;;0.010170493699346724;;1.4818367205335312;-0.1592182219028473;-0.028478441759943962;0.04774647578597069;-0.04992251730869094;-0.005659217316418381;0.059176771002105714;-0.047703873026044355;
e4b9c561-fba9-4499-93ce-21873b9972ed;1514168791.271;;0.9947876334190369;0.05353076010942459;-0.086788110435009;;-101.27961730957031;-82.27064514160156;12.825775146484375;;;;0.011691022166903476;;1.4837738135982763;-0.1073821559548378;0.2185181975364685;0.018764473497867584;-0.05355636035098037;-0.15610385045608463;-0.09533717228320161;0.0477693867888603;
e4b9c561-fba9-4499-93ce-21873b9972ed;1514168791.321;;0.9947106242179871;0.05284951627254486;-0.08807757496833801;;-100.05726623535156;-82.44642639160156;11.981979370117188;;;;0.010322360111752447;;1.4824807252094914;-0.07961054891347885;-0.07697366178035736;0.2710609436035156;-0.05287414961582781;-0.0004157194461613691;-0.20543624648871245;0.00983585285398965;
e4b9c561-fba9-4499-93ce-21873b9972ed;1514168791.371;-0.542266845703125;0.9947638511657715;0.05332491919398308;-0.08718521147966385;;-101.4542236328125;-82.0948486328125;11.981979370117188;;3.119999885559082;;0.008192803211437956;;1.4833755875257848;0.0005516638047993183;0.18024136126041412;0.15070754289627075;-0.05335022236471034;0.09869994579164466;-0.21218656090373628;0.02277988101621078;
e4b9c561-fba9-4499-93ce-21873b9972ed;1514168791.421;;0.9911187887191772;0.0468478687107563;-0.12445381283760071;31.302847764756944;-100.23188781738281;-81.56747436523438;11.813217163085938;121.4676136610243;;;0.00028316434630014977;;1.4458811090736354;0.11317500472068787;0.0893215611577034;-0.3943144679069519;-0.04686502366186532;0.21632191744441132;0.2208855102883711;0.11306077565378794;
e4b9c561-fba9-4499-93ce-21873b9972ed;1514168791.471;;0.9917735457420349;0.04131767526268959;-0.12115328758955002;;-100.40650939941406;-81.39167785644531;11.644454956054688;;;;-0.0008104114371954604;;1.4492403647725627;-0.0010356145212426782;0.005038525443524122;-0.13153226673603058;-0.041329440649887986;0.025351429364791293;0.14767894034761897;0.08015262669589682;
e4b9c561-fba9-4499-93ce-21873b9972ed;1514168791.521;;0.9921168684959412;0.04275950416922569;-0.11779555678367615;;-101.62884521484375;-81.91905212402344;12.488250732421875;;;;0.001108970759460547;;1.4526180430550726;-0.05425063148140907;0.014384661801159382;-0.020571144297719002;-0.042772545332737624;-0.03221865655166962;-0.09739073579976171;0.02683481009196543;
e4b9c561-fba9-4499-93ce-21873b9972ed;1514168791.571;;0.9921829700469971;0.042471300810575485;-0.11734233796596527;;-100.05726623535156;-80.68850708007812;11.644454956054688;;;;0.0016227856737021608;;1.4530763118664694;-0.04595489799976349;-0.016714464873075485;0.0070365783758461475;-0.04248407922572276;0.008180165604287389;-0.07941359949339982;0.03417235152735174;
e4b9c561-fba9-4499-93ce-21873b9972ed;1514168791.621;;0.9922271370887756;0.042580556124448776;-0.11692807823419571;;-101.10499572753906;-81.39167785644531;12.657012939453125;;;;0.0020998949902150273;;1.4534932690768416;-0.030511461198329926;-0.057290028780698776;-0.03373727947473526;-0.042593434169001555;-0.0223268773147883;-0.07481991292912216;0.019799004808085087;
e4b9c561-fba9-4499-93ce-21873b9972ed;1514168791.671;;0.9922348260879517;0.0426199771463871;-0.11684835702180862;;-100.58113098144531;-81.91905212402344;12.150741577148438;;;;0.0028431299598549306;;1.4535734230697208;-0.0300308670848608;0.005094253458082676;-0.034198369830846786;-0.042632892319012024;-0.022366025782812465;-0.05221393633209354;0.029721676713611322;
e4b9c561-fba9-4499-93ce-21873b9972ed;1514168791.721;-1.448272705078125;0.9922995567321777;0.041872184723615646;-0.11656900495290756;;-100.40650939941406;-82.79801940917969;12.657012939453125;;3.0299999713897705;181.0546875;0.0032265605185528;;1.453858678388644;-0.03915927931666374;0.025449594482779503;-0.045357201248407364;-0.04188443040146625;-0.00020879182946221227;-0.014157364354861231;0.024030235148002982;
e4b9c561-fba9-4499-93ce-21873b9972ed;1514168791.771;;0.9923372864723206;0.04199904948472977;-0.11620178073644638;;-101.97808837890625;-81.56747436523438;11.813217163085938;;;;0.003911296791682446;;1.4542281234316357;-0.017376920208334923;-0.000037378700653789565;-0.05645135045051575;-0.04201140646312939;0.008431834327299876;0.021498900531882668;0.023188143611319927;
e4b9c561-fba9-4499-93ce-21873b9972ed;1514168791.821;;0.9923356175422668;0.04231283441185951;-0.11610247194766998;;-100.05726623535156;-80.68850708007812;11.306930541992188;;;;0.004324681494802811;;1.4543266470701066;0.008549465797841549;0.015105989761650562;-0.08873147517442703;-0.042325469284030276;-0.01110564806173943;0.032100944831488114;0.017314275511041158;
e4b9c561-fba9-4499-93ce-21873b9972ed;1514168791.871;;0.9923369288444519;0.042514823377132416;-0.11601673811674118;;-100.05726623535156;-82.44642639160156;9.281814575195312;;;;0.00478614165306391;;1.454412028609642;0.0546906404197216;0.07648847252130508;-0.005839997436851263;-0.042527643280899;-0.024517859943596492;0.07838482036430222;0.019070630249948418;
e4b9c561-fba9-4499-93ce-21873b9972ed;1514168791.921;;0.9923033714294434;0.042298007756471634;-0.11638262122869492;;-101.803466796875;-82.0948486328125;11.306930541992188;;;;0.004938844493121192;;1.4540443903387394;0.021490585058927536;0.058608364313840866;-0.05285258963704109;-0.042310629687562225;-0.0015289207818144906;-0.0034139062013725753;0.03866324007355237;
e4b9c561-fba9-4499-93ce-21873b9972ed;1514168791.971;;0.9922366142272949;0.04178215563297272;-0.1171354353427887;;-101.4542236328125;-82.0948486328125;11.981979370117188;;;;0.00480380481785075;;1.4532882696494078;-0.016559140756726265;0.007503733970224857;-0.10069900751113892;-0.041794320955374414;-0.0002647182123538763;0.02153325530994469;0.03893381724030442;
e4b9c561-fba9-4499-93ce-21873b9972ed;1514168792.021;;0.9921966195106506;0.04159834235906601;-0.1175384595990181;;-101.27961730957031;-82.62222290039062;13.163299560546875;;;;0.004896869939226303;;1.4528829869205713;0.004232737235724926;0.015347459353506565;-0.10969549417495728;-0.0416103470308234;-0.01377014073236371;0.014372281454830625;0.04131228640985418;
e4b9c561-fba9-4499-93ce-21873b9972ed;1514168792.071;;0.9921807050704956;0.04161795228719711;-0.11766686290502548;;-100.58113098144531;-82.97380065917969;12.825775146484375;;;;0.005431143301739207;;1.4527534945566902;0.010871109552681446;0.028847137466073036;-0.11261871457099915;-0.04162997580944004;0.01686366865459975;0.05488508690544302;0.0489254650180637;
e4b9c561-fba9-4499-93ce-21873b9972ed;1514168792.121;;0.9921964406967163;0.04150760918855667;-0.11757276207208633;;-102.32733154296875;-82.97380065917969;12.150741577148438;;;;0.005901980246198417;;1.452848872414327;-0.01969277113676071;0.014995688572525978;-0.16938401758670807;-0.04151953571390224;-0.022269086719133583;0.045211953194057214;0.03804778354563505;
e4b9c561-fba9-4499-93ce-21873b9972ed;1514168792.171;;0.9887677431106567;0.04942848160862923;-0.14105059206485748;;-101.62884521484375;-81.91905212402344;13.838333129882812;;;;0.004793354566161121;;1.4290994258649565;0.011171278543770313;0.022364120930433273;-0.06646887958049774;-0.04944863052982695;-0.002740925393909552;0.02272741674273622;0.042581815301494956;
e4b9c561-fba9-4499-93ce-21873b9972ed;1514168792.221;;0.9887604117393494;0.04906278848648071;-0.14122901856899261;;-101.10499572753906;-82.79801940917969;12.319488525390625;;;;0.004234966238701312;;1.4289215478171724;-0.002844299655407667;0.007562578655779362;-0.05686056613922119;-0.04908249331370199;-0.05051430692440497;-0.016658338934554644;0.033820814263461285;
e4b9c561-fba9-4499-93ce-21873b9972ed;1514168792.271;;0.9839991927146912;0.049189258366823196;-0.17124854028224945;;-100.40650939941406;-82.79801940917969;11.981979370117188;;;;0.003619811696446739;;1.3984888773750779;-0.0022791889496147633;0.054646801203489304;-0.06761252135038376;-0.04920911566991394;-0.05051430692440497;-0.016658338934554644;0.033820814263461285;
e4b9c561-fba9-4499-93ce-21873b9972ed;1514168792.321;;0.983562707901001;0.045183077454566956;-0.17482255399227142;;-100.93037414550781;-81.91905212402344;13.838333129882812;;;;0.003248667834477177;;1.3948892687741634;-0.009014340117573738;0.023267850279808044;-0.02930947206914425;-0.04519846621145126;0.0021238709693381925;-0.04142973181392668;0.0333979042823567;
e4b9c561-fba9-4499-93ce-21873b9972ed;1514168792.371;;0.9836113452911377;0.04490683227777481;-0.17461957037448883;;-100.23188781738281;-83.32539367675781;12.150741577148438;;;;0.0036017264833821104;;1.3950978400702874;-0.026641186326742172;-0.03144858032464981;-0.011201981455087662;-0.04492193880143673;-0.02350719030991142;-0.04037378844171026;0.021390243559407433;
e4b9c561-fba9-4499-93ce-21873b9972ed;1514168792.421;;0.983626663684845;0.04472056403756142;-0.17458118498325348;;-100.40650939941406;-81.74325561523438;12.319488525390625;;;;0.0034849347865662343;;1.395138353568928;-0.023833608254790306;-0.06860056519508362;-0.02572094276547432;-0.04473548325225345;0.019397666431810148;-0.06996656815856174;0.011268100888234265;
e4b9c561-fba9-4499-93ce-21873b9972ed;1514168792.471;;0.9819240570068359;0.03748369589447975;-0.1855265349149704;;-100.23188781738281;-82.62222290039062;11.475692749023438;;;;0.002943574779735977;;1.384055868321097;-0.012899414636194706;-0.04128313437104225;-0.059285495430231094;-0.03749247946160895;-0.006224073783624187;-0.03325356095127441;0.0056986321005515535;
e4b9c561-fba9-4499-93ce-21873b9972ed;1514168792.521;;0.9819247722625732;0.03764588013291359;-0.18549025058746338;;-100.40650939941406;-83.50117492675781;10.63189697265625;;;;0.0030926232583833478;;1.3840916746477723;-0.005087549798190594;0.014737543649971485;-0.06371623277664185;-0.03765477846900459;0.009686715832945213;0.004845355287290166;0.015745939945093497;
e4b9c561-fba9-4499-93ce-21873b9972ed;1514168792.571;;0.9819534420967102;0.037545740604400635;-0.18535859882831573;;-100.05726623535156;-82.0948486328125;11.306930541992188;;;;0.0030034638127410876;;1.384226459738133;0.01647493615746498;0.039495885372161865;-0.03358973190188408;-0.03755456841474056;-0.010122941619500192;-0.01531956785457181;0.0385569799460582;
e4b9c561-fba9-4499-93ce-21873b9972ed;1514168792.621;;0.9803710579872131;0.03796481713652611;-0.19347171485424042;;-100.40650939941406;-82.0948486328125;12.319488525390625;;;;0.002609308063898629;;1.3759545741149488;0.006781074218451977;0.03204251080751419;-0.021814486011862755;-0.03797394160681811;0.010587396913610011;-0.03540060142209629;0.04916035582620869;
e4b9c561-fba9-4499-93ce-21873b9972ed;1514168792.671;;0.9794651865959167;0.04009360074996948;-0.1975865364074707;;-101.803466796875;-80.68850708007812;12.657012939453125;;;;0.002263974015588273;;1.3717388237854502;-0.003146827220916748;-0.02141684480011463;-0.02877756953239441;-0.04010435090388104;-0.011346131508173587;-0.04979765027506465;0.030925958158545153;
e4b9c561-fba9-4499-93ce-21873b9972ed;1514168792.721;;0.9795131683349609;0.040248461067676544;-0.19731706380844116;;-100.58113098144531;-82.27064514160156;13.163299560546875;;;;0.0024004004077374276;;1.3720126855327375;0.006036760285496712;-0.003001754404976964;-0.018930509686470032;-0.040259334558086064;-0.012515259226718372;-0.04983040715647263;0.023673371561932364;
e4b9c561-fba9-4499-93ce-21873b9972ed;1514168792.771;;0.9795263409614563;0.040265798568725586;-0.19724801182746887;;-100.93037414550781;-81.56747436523438;11.475692749023438;;;;0.002659415243614379;;1.3720830316870711;-0.00972351711243391;-0.009015798568725586;-0.0358453243970871;-0.04027668745144883;-0.012515259226718372;-0.04983040715647263;0.023673371561932364;
e4b9c561-fba9-4499-93ce-21873b9972ed;1514168792.821;;0.9795363545417786;0.040287360548973083;-0.1971939504146576;;-100.23188781738281;-82.27064514160156;12.825775146484375;;;;0.0027354684992123355;;1.3721380481687542;-0.009931853972375393;-0.00003467472197371535;-0.012629604898393154;-0.04029826750826453;0.012054798674243672;-0.03552124261947688;0.017714015990662052;
e4b9c561-fba9-4499-93ce-21873b9972ed;1514168792.871;;0.9767951369285583;0.0375465452671051;-0.21085913479328156;;-100.58113098144531;-81.21588134765625;11.138168334960938;;;;0.001984158621406523;;1.3581903424826596;-0.028278252109885216;0.0341392457485199;-0.027711983770132065;-0.037555372046667396;-0.01980779323968235;-0.04275172497904201;0.0177257338994584;
e4b9c561-fba9-4499-93ce-21873b9972ed;1514168792.921;;0.975323498249054;0.03867897391319275;-0.21736598014831543;;-101.10499572753906;-80.68850708007812;12.319488525390625;;;;0.001791625812305537;;1.3515144398310854;-0.0066803195513784885;-0.05434975028038025;-0.02222747541964054;-0.03868862366197079;0.02422145011427067;-0.011663580310111032;0.03366182354638356;
e4b9c561-fba9-4499-93ce-21873b9972ed;1514168792.971;;0.9748134016990662;0.033941905945539474;-0.22042430937290192;;-100.40650939941406;-81.74325561523438;12.994537353515625;;;;0.002082206783344259;;1.3484165941232642;-0.022573348134756088;0.025094350799918175;-0.04109601303935051;-0.03394842531057311;-0.029645510306435054;-0.018989936468919017;0.027689152169662848;
e4b9c561-fba9-4499-93ce-21873b9972ed;1514168793.021;;0.9747888445854187;0.034174393862485886;-0.2204967588186264;;-101.97808837890625;-83.67697143554688;11.813217163085938;;;;0.0022260457258214757;;1.3483404667194483;-0.025112329050898552;-0.047464799135923386;-0.040306456387043;-0.03418104917285787;-0.00011558119130943894;-0.002318015412804969;0.014485998433377008;
e4b9c561-fba9-4499-93ce-21873b9972ed;1514168793.071;;0.9747928380966187;0.03445134311914444;-0.22043612599372864;;-101.4542236328125;-81.74325561523438;12.319488525390625;;;;0.001688732574067056;;1.3484005215300792;0.003478672821074724;0.04132380336523056;-0.037284836173057556;-0.03445816153521669;-0.0197220394525818;-0.005945240817492891;0.014502243716026491;
e4b9c561-fba9-4499-93ce-21873b9972ed;1514168793.121;;0.9748357534408569;0.03478286787867546;-0.22019422054290771;;-99.70803833007812;-81.39167785644531;12.657012939453125;;;;0.0018736877290941518;;1.3486460755477125;0.0275141391903162;-0.0005726604140363634;-0.041875507682561874;-0.034789884344063;-0.003796336133907954;0.011937619586280186;0.018281002986739923;
e4b9c561-fba9-4499-93ce-21873b9972ed;1514168793.171;;0.9749140739440918;0.03529888018965721;-0.21976478397846222;;-101.803466796875;-81.74325561523438;12.657012939453125;;;;0.0015200571949328947;;1.349082509428222;0.015350840985774994;0.014933054335415363;-0.02117144502699375;-0.035306214056386585;0.018239723989843696;0.02628193784966498;0.023212644693348657;
e4b9c561-fba9-4499-93ce-21873b9972ed;1514168793.221;;0.973637580871582;0.03902474045753479;-0.2247374802827835;;-100.93037414550781;-82.27064514160156;12.150741577148438;;;;0.0016123546759354822;;1.343946881359025;0.006678586360067129;0.01181754469871521;0.022680606693029404;-0.0390346526638505;-0.014875885216964608;0.030949127660028844;0.0294050268600009;
e4b9c561-fba9-4499-93ce-21873b9972ed;1514168793.271;;0.9750614166259766;0.03761538863182068;-0.21872441470623016;31.30284231755506;-100.40650939941406;-81.04010009765625;12.994537353515625;121.4676133139725;;;0.0016110532577093622;;1.3501305307162896;0.022222531959414482;-0.012987704947590828;-0.08411683142185211;-0.03762426606396828;0.03038773330224014;0.056092830459793956;0.04285372404879204;
e4b9c561-fba9-4499-93ce-21873b9972ed;1514168793.321;;0.9751304388046265;0.03749470040202141;-0.21843719482421875;;-101.10499572753906;-81.04010009765625;12.319488525390625;;;;0.0021337721832931098;;1.3504261056367577;0.01693500392138958;0.03438945487141609;-0.05335237458348274;-0.03750349036949718;-0.02968465877445922;0.05710882641565918;0.04908312415459639;
e4b9c561-fba9-4499-93ce-21873b9972ed;1514168793.371;-1.945709228515625;0.975212574005127;0.040053412318229675;-0.2176147997379303;31.302749837239585;-101.97808837890625;-82.27064514160156;10.8006591796875;121.467607421875;0.6299999952316284;180.703125;0.0034163256677288982;;1.351247225145608;-0.00550126051530242;-0.0089407442137599;0.01522216945886612;-0.04006413103816387;-0.01371235013670899;-0.03201785420547764;0.02387257601147029;
e4b9c561-fba9-4499-93ce-21873b9972ed;1514168793.421;;0.975583016872406;0.03933034464716911;-0.2160809338092804;;-101.10499572753906;-81.74325561523438;11.981979370117188;;;;0.00391449849593915;;1.3528261824304941;0.0021239363122731447;-0.014077048748731613;0.0008404944092035294;-0.03934049252205096;-0.005090366107577456;-0.032013859463842526;0.01780163399052566;
e4b9c561-fba9-4499-93ce-21873b9972ed;1514168793.471;;0.983346700668335;0.045934464782476425;-0.17583870887756348;;-101.97808837890625;-81.91905212402344;13.163299560546875;;;;0.008206338304859152;;1.3938498933330015;-0.0031831476371735334;-0.0118005545809865;0.03792976588010788;-0.04595063449809354;-0.0037590518786468448;0.011918444826431614;0.013443637182719995;
e4b9c561-fba9-4499-93ce-21873b9972ed;1514168793.521;;0.9848200678825378;0.04803628474473953;-0.16679902374744415;;-100.58113098144531;-81.56747436523438;12.488250732421875;;;;0.008995064110372297;;1.4030184991596588;0.01174667663872242;0.022199921309947968;0.05157984793186188;-0.048054779577719954;-0.000335558297349984;-0.011714713003040554;0.04098711444075551;
e4b9c561-fba9-4499-93ce-21873b9972ed;1514168793.571;;0.9854506254196167;0.05037698522210121;-0.16232462227344513;;-102.1527099609375;-81.74325561523438;11.644454956054688;;;;0.009509566756989146;;1.4075411161433624;-0.0063856556080281734;0.022849947214126587;0.05035562068223953;-0.050398316431371354;0.004641090831681088;-0.02838024247253841;0.02748781719125286;
e4b9c561-fba9-4499-93ce-21873b9972ed;1514168793.621;;0.985436201095581;0.05037887766957283;-0.16241110861301422;;-101.27961730957031;-82.97380065917969;10.8006591796875;;;;0.009468752512260812;;1.4074533233046056;-0.00019150257867295295;0.01978103443980217;0.045605048537254333;-0.050400212568052015;-0.002612294713258725;-0.020132965208781026;0.016715863214100353;
e4b9c561-fba9-4499-93ce-21873b9972ed;1514168793.671;;0.9872825145721436;0.05170498043298721;-0.15033267438411713;;-103.20042419433594;-82.44642639160156;11.981979370117188;;;;0.01045387179341764;;1.419687891284508;0.008857051841914654;-0.004707911517471075;-0.01641538180410862;-0.05172804751477826;-0.014786403004337947;0.010694722305540205;0.013461746678132533;
e4b9c561-fba9-4499-93ce-21873b9972ed;1514168793.721;;0.987815260887146;0.05277014896273613;-0.14641141891479492;;-100.75575256347656;-82.79801940917969;12.319488525390625;;;;0.010660678624014885;;1.4236502026985804;0.005943875294178724;0.005899894516915083;-0.02628762274980545;-0.05279467023612522;-0.00008761799986360693;0.02738581812150282;0.01723091856892168;
e4b9c561-fba9-4499-93ce-21873b9972ed;1514168793.771;;0.9877836108207703;0.052832264453172684;-0.14660228788852692;;-101.10499572753906;-82.79801940917969;11.306930541992188;;;;0.010704628439605476;;1.4234564739590265;0.004525919910520315;0.015359262935817242;0.006709645502269268;-0.05285687287329368;-0.007626228097550906;-0.0034482609794345975;0.03505252626762293;
e4b9c561-fba9-4499-93ce-21873b9972ed;1514168793.821;;0.9878327250480652;0.05389128997921944;-0.1458841860294342;;-101.97808837890625;-82.62222290039062;11.138168334960938;;;;0.010956023974460256;;1.4241750471755141;-0.0030305059626698494;0.01513946708291769;0.016993148252367973;-0.05391741138278502;0.00577479850772782;-0.027140540985106525;0.03959081908122696;
e4b9c561-fba9-4499-93ce-21873b9972ed;1514168793.871;;0.9880157113075256;0.05432313680648804;-0.14447849988937378;;-101.27961730957031;-83.67697143554688;12.825775146484375;;;;0.011027012793566252;;1.4255944946205454;-0.017129430547356606;0.003706038696691394;0.02660440467298031;-0.05434988981832258;0.002181661564992912;-0.028383438265846505;0.028704082861092044;
e4b9c561-fba9-4499-93ce-21873b9972ed;1514168793.921;;0.9879737496376038;0.05374469608068466;-0.14498068392276764;;-101.97808837890625;-80.86430358886719;11.813217163085938;;;;0.011315318120122068;;1.425090798830863;-0.004788914695382118;-0.012393373996019363;0.01860746182501316;-0.05377060173923125;-0.011189537636076927;-0.015405055325563353;0.018001637388390612;
e4b9c561-fba9-4499-93ce-21873b9972ed;1514168793.971;;0.988254964351654;0.05366133525967598;-0.14308226108551025;;-102.1527099609375;-79.98533630371094;11.644454956054688;;;;0.01141391121239993;;1.4270126998580794;0.009837656281888485;0.003635417902842164;-0.019240763038396835;-0.053687120377557226;-0.0013406352927458885;0.0095652756872376;0.01703863833821796;
e4b9c561-fba9-4499-93ce-21873b9972ed;1514168794.021;;0.9886813163757324;0.054633915424346924;-0.1397300809621811;;-102.32733154296875;-83.32539367675781;11.138168334960938;;;;0.01154905316498959;;1.4303964314195563;0.010220102965831757;0.01450365874916315;0.00897750910371542;-0.05466113172030597;-0.0025955167983912255;0.020275178010991258;0.023206253106732466;
e4b9c561-fba9-4499-93ce-21873b9972ed;1514168794.071;;0.9889204502105713;0.05518164485692978;-0.13780875504016876;;-99.88264465332031;-82.27064514160156;13.163299560546875;;;;0.011948537750058323;;1.4323352845117279;-0.0057509285397827625;0.02201256714761257;0.014624583534896374;-0.05520968990292587;0.010717891807023894;-0.011693141398210911;0.037327931102986635;
e4b9c561-fba9-4499-93ce-21873b9972ed;1514168794.121;;0.9890856146812439;0.05475262552499771;-0.13679102063179016;;-101.62884521484375;-81.21588134765625;10.463134765625;;;;0.012019111638078964;;1.433367619263973;-0.0020708534866571426;0.006557189393788576;0.03725792095065117;-0.05478001811324097;-0.003992078474028778;-0.029567213370386727;0.03475505117386108;
e4b9c561-fba9-4499-93ce-21873b9972ed;1514168794.171;;0.9890358448028564;0.05384664982557297;-0.13750848174095154;;-101.97808837890625;-81.21588134765625;12.150741577148438;;;;0.01232741469552317;;1.432649066800093;-0.003363881027325988;-0.023359589278697968;0.018138930201530457;-0.0538727056126487;-0.013717942774998156;-0.03558116374400366;0.023833427543446126;
e4b9c561-fba9-4499-93ce-21873b9972ed;1514168794.221;;0.9891189336776733;0.052829593420028687;-0.13730549812316895;;-101.27961730957031;-81.56747436523438;12.150741577148438;;;;0.012293686905872172;;1.4328618508389328;-0.001341200084425509;-0.020618287846446037;-0.0006033778772689402;-0.0528541972035583;-0.009919742428327147;-0.0047255130382366;0.014487596330031056;
e4b9c561-fba9-4499-93ce-21873b9972ed;1514168794.271;;0.9891306161880493;0.05274418741464615;-0.1372542828321457;;-101.27961730957031;-81.21588134765625;11.813217163085938;;;;0.012587997173128777;;1.4329142526602012;0.011876494623720646;0.011068067513406277;0.013047733344137669;-0.05276867486146907;-0.019748138431264575;0.0071441959402465645;0.020692495353806673;
e4b9c561-fba9-4499-93ce-21873b9972ed;1514168794.321;;0.9890876412391663;0.05353843420743942;-0.13725656270980835;;-101.62884521484375;-82.62222290039062;12.488250732421875;;;;0.012475837785920646;;1.432906072692836;0.011064997874200344;0.021168597042560577;0.024372080340981483;-0.053564043533232845;0.0058736017841697595;-0.005794239583685398;0.03136031973233708;
e4b9c561-fba9-4499-93ce-21873b9972ed;1514168794.371;;0.9893814921379089;0.05363595485687256;-0.1350833922624588;;-101.27961730957031;-80.51272583007812;12.150741577148438;;;;0.012621727935722837;;1.435102177044827;-0.0017410634318366647;0.0028673449996858835;0.02119186334311962;-0.05366170319842356;-0.013760819668548432;-0.04506894144351996;0.027357055981729966;
e4b9c561-fba9-4499-93ce-21873b9972ed;1514168794.421;;0.989328920841217;0.05416335538029671;-0.13525773584842682;;-101.10499572753906;-81.39167785644531;11.981979370117188;;;;0.012938159807344368;;1.434922063172968;-0.00550320977345109;0.0003562996571417898;0.017902452498674393;-0.05418987217413355;0.005910886039430869;-0.03553162894772819;0.020150009439757532;
e4b9c561-fba9-4499-93ce-21873b9972ed;1514168794.471;;0.9894781708717346;0.05411386489868164;-0.13418152928352356;;-101.4542236328125;-81.74325561523438;11.644454956054688;;;;0.013003785230311654;;1.4360101558178984;-0.01129821129143238;-0.02895212173461914;0.00292546977289021;-0.054140310658299544;-0.0037982003466710094;-0.02491200778492822;0.010620420111126993;
e4b9c561-fba9-4499-93ce-21873b9972ed;1514168794.521;;0.9894477725028992;0.05424433574080467;-0.1343529373407364;;-100.75575256347656;-81.74325561523438;12.994537353515625;;;;0.013469576699920778;;1.4358359641264375;-0.005942488554865122;-0.005019482225179672;-0.031540561467409134;-0.05427097344535232;0.01084279406214861;0.008451009087148447;0.025456357911740415;
e4b9c561-fba9-4499-93ce-21873b9972ed;1514168794.571;;0.9897711277008057;0.055885106325149536;-0.13126257061958313;;-101.27961730957031;-81.91905212402344;13.500823974609375;;;;0.013411392842094812;;1.43894661168391;-0.0013526108814403415;0.005165307782590389;0.024908749386668205;-0.0559142360765017;-0.002729740117331219;0.006079464136432885;0.037561756646695595;
e4b9c561-fba9-4499-93ce-21873b9972ed;1514168794.621;;0.9897592067718506;0.05603757128119469;-0.13128742575645447;;-100.93037414550781;-82.97380065917969;13.163299560546875;;;;0.013744025104759448;;1.4389203576928433;-0.007734126411378384;0.015373557806015015;0.013550546951591969;-0.05606694214013788;0.009476059790719945;-0.03427435059710178;0.034664770012907395;
e4b9c561-fba9-4499-93ce-21873b9972ed;1514168794.671;;0.989816427230835;0.05546201020479202;-0.1311006098985672;;-99.53341674804688;-81.56747436523438;11.138168334960938;;;;0.013618585683543523;;1.4391133726799497;-0.012704622931778431;0.0006903326138854027;0.010464669205248356;-0.05549048380343303;-0.0026477147557567786;-0.02486966352359596;0.02029168960974975;
e4b9c561-fba9-4499-93ce-21873b9972ed;1514168794.721;;0.9897392988204956;0.05535108223557472;-0.13172820210456848;;-101.62884521484375;-82.27064514160156;13.838333129882812;;;;0.013975583198021262;;1.4384801154170832;-0.0014580815332010388;-0.016319099813699722;-0.01304721087217331;-0.05537938432912654;-0.0172719312497089;-0.01782453717590034;0.011946141701768439;
e4b9c561-fba9-4499-93ce-21873b9972ed;1514168794.771;;0.989581286907196;0.054652318358421326;-0.13319961726665497;;-102.1527099609375;-81.04010009765625;13.669570922851562;;;;0.013786375702242096;;1.4369984947067969;0.011059661395847797;0.0033463400322943926;-0.01699257083237171;-0.05467956252996406;-0.006244580124017797;0.019061042870024133;0.01957556559262744;
e4b9c561-fba9-4499-93ce-21873b9972ed;1514168794.821;;0.9895836114883423;0.05526278167963028;-0.13292934000492096;;-101.4542236328125;-82.44642639160156;12.657012939453125;;;;0.013909895151531326;;1.437267083127078;0.0007270044297911227;-0.011653165332973003;-0.02655557543039322;-0.05529095014923566;-0.012500345524613928;0.01316453790047969;0.03524906755607078;
e4b9c561-fba9-4499-93ce-21873b9972ed;1514168794.871;;0.9895443916320801;0.054449185729026794;-0.13355624675750732;;-101.62884521484375;-81.21588134765625;14.175857543945312;;;;0.013978898801922544;;1.4366396025589336;-0.008297393098473549;0.015115635469555855;0.012493057176470757;-0.05447612440573508;0.011918711142540622;-0.02118651173601637;0.03842941452984341;
e4b9c561-fba9-4499-93ce-21873b9972ed;1514168794.921;;0.9896132946014404;0.05493500828742981;-0.13284452259540558;;-100.58113098144531;-80.51272583007812;12.150741577148438;;;;0.01415357089877406;;1.4373552229100175;-0.012486215680837631;-0.01761200837790966;0.015321373008191586;-0.0549626760467268;-0.005226453639280505;-0.03551005734289855;0.034693265836571244;
e4b9c561-fba9-4499-93ce-21873b9972ed;1514168794.971;;0.9895870685577393;0.054506633430719376;-0.13321545720100403;;-99.53341674804688;-79.80955505371094;13.163299560546875;;;;0.014317594392409141;;1.436983545924593;-0.0039303917437791824;-0.0107902055606246;-0.00019220882677473128;-0.05453366005738871;-0.007590808055052853;-0.034373420189652726;0.023829166485702;
e4b9c561-fba9-4499-93ce-21873b9972ed;1514168795.021;;0.9896218776702881;0.05383218452334404;-0.1332312375307083;;-101.97808837890625;-80.1611328125;13.163299560546875;;;;0.0141982792518986;;1.4369725360752912;-0.006757541559636593;-0.02078164368867874;-0.00144288525916636;-0.05385821687857028;-0.016011457105774396;0.004747084643066242;0.012190619889837714;
e4b9c561-fba9-4499-93ce-21873b9972ed;1514168795.071;;0.9898457527160645;0.05352749675512314;-0.13168248534202576;;-101.62884521484375;-79.45796203613281;9.7880859375;;;;0.01627862495778366;;1.4385395635048286;-0.004661988466978073;0.0075839548371732235;0.013686314225196838;-0.05355308994787203;-0.002658900032335111;-0.031996282600648;0.020213392673701418;
e4b9c561-fba9-4499-93ce-21873b9972ed;1514168795.121;;0.9897656440734863;0.05210532248020172;-0.1328493356704712;;-101.62884521484375;-78.75480651855469;9.450576782226562;;;;0.01624803509842256;;1.4373707410170944;-0.004719289485365152;-0.01087607629597187;-0.004815476480871439;-0.05212892949884402;-0.006257629613359186;-0.024915203578236313;0.011836685780966182;
e4b9c561-fba9-4499-93ce-21873b9972ed;1514168795.171;;0.9897539019584656;0.05225040391087532;-0.13287964463233948;;-101.10499572753906;-81.04010009765625;9.61932373046875;;;;0.017265217777720724;;1.437339100827033;0.0035016494803130627;-0.01388980820775032;-0.00556341465562582;-0.05227420732105387;-0.01234748007804338;-0.008311193129919287;0.010827347727826151;
e4b9c561-fba9-4499-93ce-21873b9972ed;1514168795.221;;0.9898869395256042;0.05182141065597534;-0.13205486536026;;-102.1527099609375;-83.85276794433594;11.981979370117188;;;;0.0174040053633994;;1.4381753733504012;0.007107134908437729;-0.010912595316767693;-0.02309645712375641;-0.051844632557631935;-0.004999019682187738;0.01429957715707146;0.015891881172829837;
e4b9c561-fba9-4499-93ce-21873b9972ed;1514168795.271;;0.9899682402610779;0.052061133086681366;-0.13134901225566864;;-101.62884521484375;-80.86430358886719;10.8006591796875;;;;0.017450193874680574;;1.4388867461893868;0.004630173556506634;-0.007444433867931366;-0.032286208122968674;-0.05208467906677947;-0.0075870796295267415;0.021494905790247546;0.035326565543792085;
e4b9c561-fba9-4499-93ce-21873b9972ed;1514168795.321;;0.9901754260063171;0.05298798903822899;-0.129402294754982;;-99.53341674804688;-81.91905212402344;10.1256103515625;;;;0.01770640275772179;;1.4408465512244955;0.01080117467790842;0.02049834094941616;0.009178375825285912;-0.053012814545712314;0.003360110347352975;-0.016468189232722984;0.0372965058021237;
e4b9c561-fba9-4499-93ce-21873b9972ed;1514168795.371;;0.9902451634407043;0.05247826129198074;-0.1290753036737442;;-103.20042419433594;-82.0948486328125;11.644454956054688;;;;0.017797041317131574;;1.441180282709424;-0.01609361171722412;0.008541633374989033;0.016389131546020508;-0.052502379115857305;-0.00031691616971942936;-0.041442514987159056;0.03219548705018593;
e4b9c561-fba9-4499-93ce-21873b9972ed;1514168795.421;;0.9902941584587097;0.05239362269639969;-0.12873391807079315;;-101.97808837890625;-81.56747436523438;11.813217163085938;;;;0.01791911055664934;;1.4415256125378633;-0.014311478473246098;-0.003885932732373476;0.006129526533186436;-0.05241762406403854;-0.006332198123881405;-0.030820496979378015;0.020236828491294115;
e4b9c561-fba9-4499-93ce-21873b9972ed;1514168795.471;;0.9902964234352112;0.05238570645451546;-0.12871922552585602;;-102.67657470703125;-80.51272583007812;12.488250732421875;;;;0.0180140769963608;;1.4415404896311075;-0.009049530141055584;-0.003832239657640457;0.015926193445920944;-0.052409694647415205;-0.00748081950203258;-0.02373142847369609;0.011853197379724673;
e4b9c561-fba9-4499-93ce-21873b9972ed;1514168795.521;;0.9903454780578613;0.053027406334877014;-0.12807774543762207;;-101.4542236328125;-81.74325561523438;13.332061767578125;;;;0.018189385325682626;;1.4421838534615103;-0.0019574167672544718;0.0012023302260786295;0.01595623791217804;-0.053052288987076195;-0.0050568102778424575;0.013140569450668977;0.02313488038951834;
e4b9c561-fba9-4499-93ce-21873b9972ed;1514168795.571;;0.9909241795539856;0.054715245962142944;-0.12278249114751816;;-100.75575256347656;-82.44642639160156;12.319488525390625;;;;0.018617881694664284;;1.447517614943055;0.0020415415056049824;0.016314418986439705;0.04755673184990883;-0.05474258206294974;0.002213353181964855;-0.002247707960026877;0.030200513077607568;
e4b9c561-fba9-4499-93ce-21873b9972ed;1514168795.621;;0.991628110408783;0.056478701531887054;-0.11611977964639664;;-100.05726623535156;-83.50117492675781;13.669570922851562;;;;0.019034599122506077;;1.4542270816150444;-0.01765962317585945;0.006036554928869009;0.054260674864053726;-0.05650877276059093;0.0008932242296125765;-0.03905339317324897;0.034636806821461565;
e4b9c561-fba9-4499-93ce-21873b9972ed;1514168795.671;;0.9921320080757141;0.05775395780801773;-0.11107871681451797;;-101.27961730957031;-82.97380065917969;14.175857543945312;;;;0.01948860150106235;;1.459301026845021;-0.013219702057540417;-0.0030054221861064434;0.036219023168087006;-0.05778611310405283;0.0022170816074909656;-0.023646739951031573;0.02512825646544265;
e4b9c561-fba9-4499-93ce-21873b9972ed;1514168795.721;;0.9921309351921082;0.058273542672395706;-0.11081696301698685;;-100.75575256347656;-82.79801940917969;13.332061767578125;;;;0.01957716548282881;;1.4595614805899493;-0.0009352604974992573;-0.0013582574902102351;0.017890913411974907;-0.05830657275557969;-0.01485910730209711;-0.01185373001194269;0.018051172184666085;
e4b9c561-fba9-4499-93ce-21873b9972ed;1514168795.771;;0.9923010468482971;0.05873231962323189;-0.10903725028038025;;-101.27961730957031;-81.56747436523438;13.838333129882812;;;;0.019767690926174742;;1.4613521704199826;0.002251546597108245;0.0033251773566007614;-0.0009481560555286705;-0.058766137424357656;-0.012397813822645877;0.007168164390057278;0.020671722697304055;
e4b9c561-fba9-4499-93ce-21873b9972ed;1514168795.821;;0.9923806190490723;0.058754246681928635;-0.10829870402812958;;-101.803466796875;-83.14959716796875;13.332061767578125;;;;0.019695598742650446;;1.4620962691510049;-0.0005746106617152691;0.0014874518383294344;0.01991976425051689;-0.05878810291043856;0.004700745640098864;-0.00225889323660521;0.025356223054753435;
e4b9c561-fba9-4499-93ce-21873b9972ed;1514168795.871;;0.9925259351730347;0.059842247515916824;-0.10635397583246231;;-100.58113098144531;-81.91905212402344;13.163299560546875;;;;0.020097477414335343;;1.4640487924239112;0.0001498458586866036;0.0123623451218009;0.02754235453903675;-0.05987802149743596;0.002230131096832354;-0.021275993948643036;0.023945013993120448;
e4b9c561-fba9-4499-93ce-21873b9972ed;1514168795.921;;0.9925215244293213;0.05992421135306358;-0.1063489317893982;;-99.70803833007812;-81.04010009765625;12.657012939453125;;;;0.020021237168684775;;1.4640533374708176;-0.0053389230743050575;-0.004504289478063583;0.02767455019056797;-0.05996013264033923;-0.001430117505372551;-0.017729462324984513;0.02278520733839094;
