track_uuid;t;alt;g_x;g_y;g_z;lat;m_x;m_y;m_z;long;speed;course;att_yaw;heading;att_roll;user_a_x;user_a_y;user_a_z;att_pitch;rot_rate_x;rot_rate_y;rot_rate_z;name
2802d5d6-91b2-4e86-80a5-fa8959708ccd;1513234538.077;0;0;0;0;0;0;0;0;0;0;0;0;;0;0;0;0;0;0;0;0;
2802d5d6-91b2-4e86-80a5-fa8959708ccd;1513234538.123;0;0;0;0;0;0;0;0;0;0;0;0;;0;0;0;0;0;0;0;0;
2802d5d6-91b2-4e86-80a5-fa8959708ccd;1513234538.174;0;0;0;0;0;0;0;0;0;0;0;0;;0;0;0;0;0;0;0;0;
2802d5d6-91b2-4e86-80a5-fa8959708ccd;1513234538.226;9.460407257080078;0;0;0;0;0;0;0;0;0;0;0;;0;0;0;0;0;0;0;0;
2802d5d6-91b2-4e86-80a5-fa8959708ccd;1513234538.275;9.460407257080078;0.00006351964111672714;-0.0008405922562815249;-0.9999996423721313;0;-77.70590209960938;-58.538726806640625;-51.471893310546875;0;0;0;-0.0006973147951292092;;0.00006351966698095113;0;0;0;0.0008405923718761511;0.15783224200354606;0.011871306875137213;-0.13092153182051336;
2802d5d6-91b2-4e86-80a5-fa8959708ccd;1513234538.324;9.460407257080078;-0.35574567317962646;0.09255583584308624;-0.9299883842468262;0;-77.18205261230469;-59.41767883300781;-52.315704345703125;0;0;0;-0.017671917203793658;;-0.3653533019421727;0.019213084131479263;-0.007930593565106392;0.07615234702825546;-0.09268849751934828;0.15783224200354606;0.011871306875137213;-0.13092153182051336;
2802d5d6-91b2-4e86-80a5-fa8959708ccd;1513234538.373;9.183831214904785;-0.34987249970436096;0.08285048604011536;-0.9331265091896057;0;-76.65818786621094;-58.538726806640625;-52.484466552734375;0;0;0;-0.018714787456389142;;-0.35872376233159786;-0.02166374959051609;0.022801369428634644;-0.047265976667404175;-0.08294556353794255;0.145328168053406;0.09398402013333235;-0.08040349647058229;
2802d5d6-91b2-4e86-80a5-fa8959708ccd;1513234538.423;9.183831214904785;-0.35070541501045227;0.07833045721054077;-0.933204174041748;0;-78.22976684570312;-60.47242736816406;-54.6783447265625;0;0;0;-0.0227600795410433;;-0.35947868335635536;-0.013201454654335976;-0.008231578394770622;0.02483321726322174;-0.0784107783708988;0.044730187352861876;-0.009689112677926284;-0.08367359197309057;
2802d5d6-91b2-4e86-80a5-fa8959708ccd;1513234538.473;9.183831214904785;-0.3445969820022583;0.07212096452713013;-0.9359762072563171;0;-77.53128051757812;-58.0113525390625;-54.6783447265625;0;0;0;-0.027200475905540585;;-0.35276801165845156;-0.025245554745197296;-0.0068133436143398285;-0.05337313935160637;-0.07218362983071995;0.07341722598297741;0.13754241660655936;-0.11841532734150126;
2802d5d6-91b2-4e86-80a5-fa8959708ccd;1513234538.523;9.183831214904785;-0.34504958987236023;0.06812623143196106;-0.9361087679862976;0;-77.35667419433594;-60.29664611816406;-52.82197570800781;0;0;0;-0.030828448896455734;;-0.3531478364387925;0.01051588635891676;-0.04720643162727356;0.018353629857301712;-0.06817903987272608;0.04683541619456952;-0.05110925711192867;-0.04785700478872391;
2802d5d6-91b2-4e86-80a5-fa8959708ccd;1513234538.574;9.183831214904785;-0.34095630049705505;0.06523352861404419;-0.9378131031990051;0;-77.35667419433594;-59.94505310058594;-55.18463134765625;0;0;0;-0.0314608774266041;;-0.34870823719176025;-0.015290651470422745;-0.011583629995584488;-0.03612489998340607;-0.06527988677301969;0.017335314483652785;0.09387056947089498;-0.0038549256778896974;
2802d5d6-91b2-4e86-80a5-fa8959708ccd;1513234538.623;9.183831214904785;-0.3425481617450714;0.06973782181739807;-0.9369084239006042;0;-77.35667419433594;-58.538726806640625;-55.18463134765625;0;0;0;-0.03417693902637549;;-0.3505177998960219;-0.004772407002747059;-0.006062895059585571;0.035556498914957047;-0.06979447285016518;-0.13615251283364702;-0.062169098802918744;0.0093804523075861;
2802d5d6-91b2-4e86-80a5-fa8959708ccd;1513234538.673;9.183831214904785;-0.3430224061012268;0.07810655236244202;-0.9360742568969727;0;-77.88052368164062;-59.06610107421875;-53.66578674316406;0;0;0;-0.03818066995626926;;-0.35125189961342923;-0.011164612136781216;0.0075715514831244946;0.02051638811826706;-0.07818618470266249;-0.23652119536433533;-0.019746540534610526;0.007715443994068561;
2802d5d6-91b2-4e86-80a5-fa8959708ccd;1513234538.724;9.183831214904785;-0.33833396434783936;0.06873830407857895;-0.9385122060775757;0;-77.88052368164062;-59.41767883300781;-54.6783447265625;0;0;0;-0.04193063009219901;;-0.34599844261087365;-0.033171769231557846;0.07629648596048355;-0.08172094076871872;-0.0687925481514975;0.36405332206550484;0.15022305813697165;-0.15538559591009027;
2802d5d6-91b2-4e86-80a5-fa8959708ccd;1513234538.774;9.183831214904785;-0.3377360701560974;0.049496930092573166;-0.939938485622406;0;-77.53128051757812;-59.41767883300781;-53.66578674316406;0;0;0;-0.037301797175062504;;-0.3449509967266562;0.0755137950181961;-0.055463116616010666;-0.010348360054194927;-0.04951716312995062;0.37926529821203747;-0.02703321559317633;0.05787128943574887;
2802d5d6-91b2-4e86-80a5-fa8959708ccd;1513234538.823;9.183831214904785;-0.3419731855392456;0.028650160878896713;-0.9392728805541992;0;-77.35667419433594;-60.648223876953125;-53.49702453613281;0;0;0;-0.027781752341847172;;-0.34916532937244216;0.0011070946929976344;0.022634629160165787;0.039950352162122726;-0.02865408140820262;0.16749871781220665;0.13861140946811717;0.07239057738275187;
2802d5d6-91b2-4e86-80a5-fa8959708ccd;1513234538.874;9.183831214904785;-0.33963724970817566;0.021565591916441917;-0.9403092265129089;0;-79.10285949707031;-61.702972412109375;-53.15950012207031;0;0;0;-0.022411191839348105;;-0.34661519859654727;0.03241679444909096;-0.017216837033629417;0.11013955622911453;-0.021567263894047305;0.16749871781220665;0.13861140946811717;0.07239057738275187;
2802d5d6-91b2-4e86-80a5-fa8959708ccd;1513234538.923;9.183831214904785;-0.32342731952667236;0.023955686017870903;-0.9459497332572937;0;-76.30894470214844;-62.40614318847656;-53.15950012207031;0;0;0;0.007233253929794997;;-0.32944735627101596;-0.06316936761140823;-0.014388425275683403;-0.0874670147895813;-0.023957977470307878;0.03491563978759286;0.017151556368437317;0.40035433825215694;
2802d5d6-91b2-4e86-80a5-fa8959708ccd;1513234538.974;9.183831214904785;-0.32342731952667236;0.023955686017870903;-0.9459497332572937;0;-77.35667419433594;-61.35139465332031;-53.15950012207031;0;0;0;0.007233253929794997;;-0.32944735627101596;-0.06316936761140823;-0.014388425275683403;-0.0874670147895813;-0.023957977470307878;0.08319821771851144;-0.23908395528131857;0.4385147735119023;
2802d5d6-91b2-4e86-80a5-fa8959708ccd;1513234539.023;9.183831214904785;-0.3380421996116638;0.02790248952805996;-0.9407172203063965;0;-79.62672424316406;-59.76927185058594;-53.32826232910156;0;0;0;0.026886427162986226;;-0.3449757649584652;-0.06996256113052368;-0.04145229607820511;0.05135871842503548;-0.027906111999875312;0.26694887608292667;0.19659375272132235;0.5322628375726537;
2802d5d6-91b2-4e86-80a5-fa8959708ccd;1513234539.076;9.183831214904785;-0.32055938243865967;0.016895683482289314;-0.947077751159668;0;-79.10285949707031;-60.99980163574219;-54.17205810546875;0;0;0;0.07722634341036025;;-0.3263682747227861;-0.06809724867343903;-0.051807794719934464;-0.06706716865301132;-0.016896487513679184;0.3130196987285344;0.24271943648538574;0.44557108513617627;
2802d5d6-91b2-4e86-80a5-fa8959708ccd;1513234539.126;9.183831214904785;-0.3207990825176239;0.014916084706783295;-0.9470298290252686;0;-77.35667419433594;-60.29664611816406;-53.83454895019531;0;0;0;0.09947099356190649;;-0.3266107353140321;-0.0338456816971302;0.044120170176029205;-0.01550986710935831;-0.014916637665082211;0.13610484225013458;-0.08092920446976393;0.4425201677913815;
2802d5d6-91b2-4e86-80a5-fa8959708ccd;1513234539.173;9.183831214904785;-0.32834577560424805;0.01343493815511465;-0.9444620609283447;0;-79.45210266113281;-64.86723327636719;-55.18463134765625;0;0;0;0.11826490524958046;;-0.33458309323453816;-0.06832170486450195;0.054649777710437775;0.11882422864437103;-0.013435341969706647;0.17433132390491396;-0.22476999705436068;0.3791574401878892;
2802d5d6-91b2-4e86-80a5-fa8959708ccd;1513234539.223;9.183831214904785;-0.31583407521247864;0.004978506360203028;-0.9488013982772827;0;-77.70590209960938;-60.648223876953125;-53.49702453613281;0;0;0;0.13283122531208166;;-0.3213397138317055;-0.05442044883966446;0.1813923418521881;0.14098583161830902;-0.004978526915924015;0.2892043806805008;0.3308074842813917;0.21684762544359296;
2802d5d6-91b2-4e86-80a5-fa8959708ccd;1513234539.273;9.183831214904785;-0.2890234589576721;-0.010786857455968857;-0.9572612643241882;0;-76.83280944824219;-61.87876892089844;-53.66578674316406;0;0;0;0.14439201551656194;;-0.293224156758205;-0.056786492466926575;0.14736828207969666;-0.12663157284259796;0.01078706634156435;0.3526254315118658;0.5991787547025297;0.15189712119819546;
2802d5d6-91b2-4e86-80a5-fa8959708ccd;1513234539.37;9.183831214904785;-0.2770603597164154;-0.02498718723654747;-0.9605275392532349;0;-76.13432312011719;-66.0977783203125;-54.0032958984375;0;0;0;0.14404194125215997;;-0.28082340980847226;-0.096047542989254;0.13401123881340027;-0.034009791910648346;0.02498978845771636;0.4824486756988305;0.07943117635659436;-0.4322142670049929;
2802d5d6-91b2-4e86-80a5-fa8959708ccd;1513234539.409;9.183831214904785;-0.26112428307533264;-0.0887402817606926;-0.9612175822257996;0;-75.6104736328125;-68.031494140625;-50.45933532714844;0;0;0;0.10954057603627801;;-0.26525830924754223;-0.05027708411216736;0.1280011385679245;-0.06733159720897675;0.08885716345735868;0.6729898622107298;0.10879625580024406;-0.6706614604696735;
2802d5d6-91b2-4e86-80a5-fa8959708ccd;1513234539.459;9.183831214904785;-0.26698818802833557;-0.1252129077911377;-0.9555307626724243;0;-76.65818786621094;-68.38307189941406;-50.45933532714844;0;0;0;0.07877196004924858;;-0.2724647679922175;-0.017038896679878235;0.0770256444811821;-0.10408533364534378;0.12554241801833751;0.5177920191574901;-0.31271849520924644;-0.8102875343131108;
2802d5d6-91b2-4e86-80a5-fa8959708ccd;1513234539.509;9.183831214904785;-0.2843007445335388;-0.155295267701149;-0.9460742473602295;0;-77.35667419433594;-69.78941345214844;-47.75917053222656;0;0;0;0.045808657018808506;;-0.2919207132334953;-0.06955057382583618;0.1338566690683365;0.041563741862773895;0.15592634381432965;0.45755184793211573;-0.48992550045922795;-0.8205276550205746;
2802d5d6-91b2-4e86-80a5-fa8959708ccd;1513234539.559;9.183831214904785;-0.2885609567165375;-0.1992456316947937;-0.9365007877349854;0;-78.22976684570312;-70.31678771972656;-46.577850341796875;0;0;0;0.004445490400845775;;-0.298895762567212;-0.11576643586158752;0.1497308611869812;0.06855036318302155;0.2005880548976049;0.7103990197269638;-0.22315665406599067;-1.1448199820111964;
2802d5d6-91b2-4e86-80a5-fa8959708ccd;1513234539.609;9.183831214904785;-0.28944775462150574;-0.24917858839035034;-0.9241915345191956;0;-77.70590209960938;-70.49256896972656;-45.73405456542969;0;0;0;-0.05270479132670243;;-0.30351356397410195;-0.07264330238103867;0.11513011902570724;0.07061488926410675;0.251831992479597;0.667251282693827;-0.4276978121123275;-1.471026855509476;
2802d5d6-91b2-4e86-80a5-fa8959708ccd;1513234539.659;9.183831214904785;-0.26875030994415283;-0.3020457625389099;-0.9146264791488647;0;-75.95970153808594;-71.89891052246094;-46.746612548828125;0;0;0;-0.11747656984303205;;-0.2857923352569198;-0.060839518904685974;0.07606310397386551;-0.009064306505024433;0.30683793026460815;0.7091340182091762;0.03647811639914235;-1.5603673879661464;
2802d5d6-91b2-4e86-80a5-fa8959708ccd;1513234539.709;9.183831214904785;-0.2541481554508209;-0.34308671951293945;-0.9042677879333496;0;-77.53128051757812;-73.83262634277344;-44.55271911621094;0;0;0;-0.18677895375109982;;-0.27398589280875046;0.010572107508778572;0.02980852499604225;0.053468216210603714;0.35020111574978013;0.4303402005459041;-0.24817145986899594;-1.5288387564529162;
2802d5d6-91b2-4e86-80a5-fa8959708ccd;1513234539.759;9.183831214904785;-0.23556363582611084;-0.3756464421749115;-0.8963255882263184;0;-75.08660888671875;-74.88737487792969;-47.92793273925781;0;0;0;-0.24803361681848177;;-0.2569986443108915;0.025648469105362892;-0.039468914270401;-0.00444652559235692;0.385094204477214;0.36331509381133487;-0.1165444566757206;-1.2285124824280265;
2802d5d6-91b2-4e86-80a5-fa8959708ccd;1513234539.809;9.183831214904785;-0.22346119582653046;-0.39845722913742065;-0.8895487189292908;0;-75.6104736328125;-76.117919921875;-46.409088134765625;0;0;0;-0.2910307459415906;;-0.2461146953176111;0.012203266844153404;-0.047618210315704346;0.05824989452958107;0.4098341625539272;0.2793091393342024;-0.0926010405792542;-0.8144412666653075;
2802d5d6-91b2-4e86-80a5-fa8959708ccd;1513234539.858;9.183831214904785;-0.20721739530563354;-0.4169957637786865;-0.8849720358848572;0;-75.6104736328125;-76.117919921875;-48.09669494628906;0;0;0;-0.3214369366252087;;-0.23000757028143193;-0.015286269597709179;-0.07473397254943848;0.08113901317119598;0.430137483325085;0.23878754545199274;0.12429851650559531;-0.5966926938249406;
2802d5d6-91b2-4e86-80a5-fa8959708ccd;1513234539.909;9.183831214904785;-0.19490964710712433;-0.42783522605895996;-0.882591187953949;0;-76.30894470214844;-74.71157836914062;-46.746612548828125;0;0;0;-0.3488431448344128;;-0.21734944197711753;-0.0035003884695470333;-0.019521955400705338;0.10346218943595886;0.44209637079687775;0.12285135476924625;0.00664059217811258;-0.5202613021202116;
2802d5d6-91b2-4e86-80a5-fa8959708ccd;1513234539.96;9.183831214904785;-0.18007853627204895;-0.4355388581752777;-0.8819737434387207;0;-74.73736572265625;-74.88737487792969;-48.60296630859375;0;0;0;-0.36972542738081265;;-0.2014084332057073;-0.03653522953391075;0.045737817883491516;0.046310875564813614;0.450636792900191;0.032423187323387705;0.1245469894352997;-0.3651303044103329;
2802d5d6-91b2-4e86-80a5-fa8959708ccd;1513234540.009;9.183831214904785;-0.16318564116954803;-0.4369388520717621;-0.8845648169517517;0;-73.68965148925781;-73.83262634277344;-47.25288391113281;0;0;0;-0.39613431794886345;;-0.18243015911370147;-0.058036282658576965;0.056583013385534286;-0.0038781913463026285;0.45219264643511947;-0.07676535210542504;0.16762202217067734;-0.49373541871469534;
2802d5d6-91b2-4e86-80a5-fa8959708ccd;1513234540.063;9.183831214904785;-0.148980975151062;-0.4349142909049988;-0.888062059879303;0;-75.6104736328125;-72.95365905761719;-47.75917053222656;0;0;0;-0.4148522505481565;;-0.16621192465668713;-0.09137547016143799;-0.006720841862261295;-0.08241217583417892;0.44994309127545007;-0.1362630340188853;0.14464719776267276;-0.24954671625591288;
2802d5d6-91b2-4e86-80a5-fa8959708ccd;1513234540.498;9.183831214904785;-0.21085132658481598;-0.4493948519229889;-0.8680933117866516;0;-75.43585205078125;-71.37153625488281;-48.94049072265625;0;0;0;-0.457247204042974;;-0.2382759453714129;-0.03663096949458122;-0.0025857402943074703;-0.07297725230455399;0.466087817283055;-0.06498033164960638;-0.06738756295892902;-0.16622359628227673;
2802d5d6-91b2-4e86-80a5-fa8959708ccd;1513234540.596;9.183831214904785;-0.21747398376464844;-0.4607717990875244;-0.8604617714881897;0;-77.53128051757812;-72.42628479003906;-48.60296630859375;0;0;0;-0.46399932039285297;;-0.24755678694263833;-0.059473033994436264;0.001955272862687707;0.01752045936882496;0.4788646193550017;0.21455783953834284;-0.09092218382806824;-0.042728289161449315;
2802d5d6-91b2-4e86-80a5-fa8959708ccd;1513234540.643;17.9324951171875;-0.2220047563314438;-0.465721994638443;-0.8566311597824097;0;-75.95970153808594;-72.95365905761719;-48.771728515625;0;4.829999923706055;52.03125;-0.46404737149658765;;-0.2535813317847378;-0.06640162318944931;0.013863487169146538;0.007967805489897728;0.48445032718272246;0.07306329187410589;-0.16120114078249628;0.022204371904644655;
2802d5d6-91b2-4e86-80a5-fa8959708ccd;1513234540.698;17.9324951171875;-0.259066104888916;-0.4589228928089142;-0.8498673439025879;31.207579210277036;-77.35667419433594;-72.60208129882812;-46.409088134765625;121.4117239029039;4.829999923706055;52.03125;-0.4466513821040976;;-0.29588317335267394;-0.03657294809818268;0.00933791883289814;0.008940248750150204;0.4767824955076469;-0.1073216635046672;-0.22344693862480933;0.04864024046531622;
2802d5d6-91b2-4e86-80a5-fa8959708ccd;1513234540.739;17.9324951171875;-0.2661944031715393;-0.45541706681251526;-0.8495503664016724;31.207579210277036;-77.35667419433594;-72.95365905761719;-47.42164611816406;121.4117239029039;4.829999923706055;52.03125;-0.44781498791476454;;-0.30364596809929334;-0.04041570797562599;0.04628314450383186;0.07841695845127106;0.47284061145528256;0.08027912684767557;0.07006004511282353;-0.06959692139925874;
2802d5d6-91b2-4e86-80a5-fa8959708ccd;1513234540.78;17.9324951171875;-0.2937124967575073;-0.4520852267742157;-0.8422303199768066;31.207581380555677;-77.70590209960938;-72.60208129882812;-45.05900573730469;121.41171160465859;4.829999923706055;52.03125;-0.4351202696219922;;-0.33554458747415866;-0.03834925964474678;0.0560128390789032;0.07910776138305664;0.46910172083465146;0.08027912684767557;0.07006004511282353;-0.06959692139925874;
2802d5d6-91b2-4e86-80a5-fa8959708ccd;1513234540.826;17.9324951171875;-0.29120302200317383;-0.4514278769493103;-0.8434534072875977;31.207582465703794;-76.48356628417969;-72.77787780761719;-45.902801513671875;121.41170545548592;4.829999923706055;52.03125;-0.4451846652515526;;-0.33243772379926395;-0.01035641971975565;-0.01567416451871395;-0.03928279131650925;0.4683649090784596;-0.1485710993127955;-0.13170290328434262;-0.14250601624624903;
2802d5d6-91b2-4e86-80a5-fa8959708ccd;1513234540.876;17.9324951171875;-0.2977435290813446;-0.44216328859329224;-0.8460735082626343;31.207584094256045;-77.18205261230469;-72.42628479003906;-46.915374755859375;121.41169622702317;4.829999923706055;52.03125;-0.4511088410441298;;-0.33837723989073093;-0.002961435355246067;0.037759602069854736;-0.03257331624627113;0.45800911164386177;-0.25406343746468724;-0.1979104195642575;0.02031858753675955;
2802d5d6-91b2-4e86-80a5-fa8959708ccd;1513234540.926;17.9324951171875;-0.3048264980316162;-0.4354257881641388;-0.8470450043678284;31.207584094256045;-77.35667419433594;-72.60208129882812;-45.05900573730469;121.41169622702317;4.829999923706055;52.03125;-0.45627754131517045;;-0.34544091854405456;-0.027418384328484535;0.0374307818710804;-0.04309173300862312;0.4505111884757798;0.14488262120303574;-0.06507647176495825;-0.05675595757122368;
2802d5d6-91b2-4e86-80a5-fa8959708ccd;1513234540.976;17.9324951171875;-0.31448519229888916;-0.4281264841556549;-0.8472347855567932;31.20758734809028;-77.35667419433594;-74.71157836914062;-45.73405456542969;121.41167778862847;4.829999923706055;52.03125;-0.45535197231314395;;-0.3554263312124228;-0.025465374812483788;0.038035545498132706;-0.018426837399601936;0.44241864156943667;0.1239653550532264;-0.010415889339408908;-0.03311933763233441;
2802d5d6-91b2-4e86-80a5-fa8959708ccd;1513234541.026;17.9324951171875;-0.3137945532798767;-0.4351368248462677;-0.8439128398895264;31.20758734809028;-77.35667419433594;-72.95365905761719;-45.05900573730469;121.41167778862847;4.829999923706055;52.03125;-0.4564368769046;;-0.355991123239089;-0.03474671393632889;-0.011457418091595173;0.026697903871536255;0.45019023234313255;-0.24731365568188143;-0.10905697927096282;-0.04160576676198091;
2802d5d6-91b2-4e86-80a5-fa8959708ccd;1513234541.077;17.9324951171875;-0.3152181804180145;-0.42977023124694824;-0.8461294174194336;31.20758734809028;-78.22976684570312;-74.1842041015625;-47.59040832519531;121.41167778862847;4.829999923706055;52.03125;-0.4615422531559979;;-0.35661337652534114;-0.042600423097610474;0.06239963695406914;-0.06486603617668152;0.44423830684133087;-0.38758314924468196;-0.4170776583173095;-0.027660123713780984;
2802d5d6-91b2-4e86-80a5-fa8959708ccd;1513234541.119;17.9324951171875;-0.3280408978462219;-0.4154474139213562;-0.8484059572219849;31.20758734809028;-79.45210266113281;-74.71157836914062;-45.73405456542969;121.41167778862847;4.829999923706055;52.03125;-0.4717385357073722;;-0.36894990514125886;0.000785641954280436;0.0870477482676506;-0.07027997821569443;0.42843461298877167;-0.38758314924468196;-0.4170776583173095;-0.027660123713780984;
2802d5d6-91b2-4e86-80a5-fa8959708ccd;1513234541.159;17.9324951171875;-0.33067071437835693;-0.4118698835372925;-0.8491290211677551;31.20758734809028;-79.45210266113281;-74.71157836914062;-45.73405456542969;121.41167778862847;4.829999923706055;52.03125;-0.4812995601561053;;-0.3713554968168426;-0.05588020011782646;0.022358786314725876;0.05902891233563423;0.4245051408523463;-0.05877489999361275;0.019368371659819274;-0.158032245401411;
2802d5d6-91b2-4e86-80a5-fa8959708ccd;1513234541.213;17.9324951171875;-0.31639716029167175;-0.41424107551574707;-0.8534032702445984;31.20758734809028;-78.22976684570312;-76.29371643066406;-48.94049072265625;121.41167778862847;4.829999923706055;52.03125;-0.4971006341438454;;-0.3550372609872503;-0.04932550713419914;-0.059681665152311325;-0.14758852124214172;0.42710880353555947;-0.1174248977321008;0.18369739514261363;-0.30116969714211783;
2802d5d6-91b2-4e86-80a5-fa8959708ccd;1513234541.26;17.9324951171875;-0.31853798031806946;-0.3894633650779724;-0.8642058968544006;31.20758734809028;-78.22976684570312;-76.29371643066406;-48.94049072265625;121.41167778862847;4.829999923706055;52.03125;-0.5236430999419391;;-0.35313947053728306;0.021113663911819458;-0.05423169583082199;-0.28168338537216187;0.400048891343212;-0.9052891482989625;-0.34119833990655385;-0.23212831114624963;
2802d5d6-91b2-4e86-80a5-fa8959708ccd;1513234541.309;17.9324951171875;-0.34993258118629456;-0.34141045808792114;-0.8723451495170593;31.20758734809028;-78.57901000976562;-76.29371643066406;-51.978179931640625;121.41167778862847;4.829999923706055;52.03125;-0.5445464399991413;;-0.38148877972595835;0.06421174854040146;0.03399163484573364;-0.015548507682979107;0.34841711287534294;-1.150217144276351;-0.8298939925743832;0.12960779445477727;
2802d5d6-91b2-4e86-80a5-fa8959708ccd;1513234541.36;17.9324951171875;-0.3684313893318176;-0.315946489572525;-0.874320387840271;31.20758734809028;-78.57901000976562;-76.29371643066406;-51.978179931640625;121.41167778862847;4.829999923706055;52.03125;-0.5489410683222335;;-0.3988104669141204;0.013695069588720798;0.08176986128091812;0.020102843642234802;0.3214540858758741;-0.34830099053379515;-0.31412650847757134;0.1426556858995115;
2802d5d6-91b2-4e86-80a5-fa8959708ccd;1513234541.415;17.9324951171875;-0.370095819234848;-0.28368401527404785;-0.884619951248169;31.20758734809028;-79.97596740722656;-75.23895263671875;-48.94049072265625;121.41167778862847;4.829999923706055;52.03125;-0.5465035400431494;;-0.3962390752756963;-0.005529787857085466;0.10689568519592285;-0.00449442770332098;0.28763378819786994;0.13051167132875016;-0.04334214779271258;-0.253585666365127;
2802d5d6-91b2-4e86-80a5-fa8959708ccd;1513234541.459;17.9324951171875;-0.3652433454990387;-0.29453012347221375;-0.8830907940864563;31.20758734809028;-78.40438842773438;-75.76634216308594;-49.44677734375;121.41167778862847;4.829999923706055;52.03125;-0.5537904840717106;;-0.3921723524983792;0.0184263214468956;0.06726570427417755;-0.006084639113396406;0.29896378070098173;0.12926797509968316;-0.03739291223358457;-0.24988893245598806;
2802d5d6-91b2-4e86-80a5-fa8959708ccd;1513234541.512;17.9324951171875;-0.3625604808330536;-0.30501604080200195;-0.8806333541870117;31.20758734809028;-79.45210266113281;-76.117919921875;-49.1092529296875;121.41167778862847;4.829999923706055;52.03125;-0.5645379175624856;;-0.39055532621432787;0.10924931615591049;0.022957317531108856;0.08807659894227982;0.30995526571661214;0.022591595527142176;-0.0893607724809548;-0.08932295559347567;
2802d5d6-91b2-4e86-80a5-fa8959708ccd;1513234541.559;17.9324951171875;-0.36093413829803467;-0.31059086322784424;-0.8793519735336304;31.20758734809028;-81.19830322265625;-76.117919921875;-49.1092529296875;121.41167778862847;4.829999923706055;52.03125;-0.5708248648437823;;-0.3894864333178901;0.09468352794647217;-0.044450633227825165;-0.00944199226796627;0.31581458116306144;-0.21575466413222444;-0.19613462374939267;0.1363176288212319;
2802d5d6-91b2-4e86-80a5-fa8959708ccd;1513234541.614;17.9324951171875;-0.36924436688423157;-0.30281880497932434;-0.878612220287323;31.20758734809028;-80.15058898925781;-77.17266845703125;-49.1092529296875;121.41167778862847;4.829999923706055;52.03125;-0.5703887386454947;;-0.3978478151386223;0.046765103936195374;0.06850482523441315;-0.012791004031896591;0.30764893012496247;-0.3467928424084833;-0.25665442688922535;-0.04052478967551775;
2802d5d6-91b2-4e86-80a5-fa8959708ccd;1513234541.661;8.82550048828125;-0.37873023748397827;-0.28936654329299927;-0.8791077136993408;31.207584906684026;-80.15058898925781;-77.17266845703125;-49.1092529296875;121.41168999565973;4.829999923706055;52.03125;-0.5773144152938293;;-0.4067832211847434;0.013450087048113346;0.13906747102737427;-0.06522820144891739;0.2935650099018449;-0.3467928424084833;-0.25665442688922535;-0.04052478967551775;
2802d5d6-91b2-4e86-80a5-fa8959708ccd;1513234541.711;8.82550048828125;-0.3758305609226227;-0.2936052680015564;-0.8789467215538025;31.207584906684026;-81.89678955078125;-76.46949768066406;-49.1092529296875;121.41168999565973;4.829999923706055;52.03125;-0.5940849432185001;;-0.40406402925200374;0.03267566114664078;0.1098436713218689;-0.1472983956336975;0.2979961550692256;0.15487293740025002;0.08162615372703766;-0.208748419936444;
2802d5d6-91b2-4e86-80a5-fa8959708ccd;1513234541.76;8.82550048828125;-0.3758305609226227;-0.2936052680015564;-0.8789467215538025;31.207584906684026;-81.89678955078125;-77.52426147460938;-50.45933532714844;121.41168999565973;4.829999923706055;52.03125;-0.5940849432185001;;-0.40406402925200374;0.03267566114664078;0.1098436713218689;-0.1472983956336975;0.2979961550692256;0.05127676994449466;-0.21078094448039245;-0.1814342408482643;
2802d5d6-91b2-4e86-80a5-fa8959708ccd;1513234541.81;8.82550048828125;-0.3792571723461151;-0.30145689845085144;-0.8748072385787964;31.207584906684026;-83.29374694824219;-77.87583923339844;-48.43421936035156;121.41168999565973;4.829999923706055;52.03125;-0.6029738646013548;;-0.4090752932897824;0.08428951352834702;0.03862426429986954;-0.07848559319972992;0.30622027216227554;0.056728793328104876;-0.031550735750277746;-0.21454851847452755;
2802d5d6-91b2-4e86-80a5-fa8959708ccd;1513234541.858;8.82550048828125;-0.37782129645347595;-0.3078078031539917;-0.8732155561447144;31.207584906684026;-82.59526062011719;-77.87583923339844;-49.1092529296875;121.41168999565973;4.829999923706055;52.03125;-0.6120046608217006;;-0.4083561097237242;0.08218227326869965;0.0624617338180542;-0.043837662786245346;0.3128881104231973;0.025839586792602818;-0.08025329418510181;-0.19081016578199725;
2802d5d6-91b2-4e86-80a5-fa8959708ccd;1513234541.907;8.82550048828125;-0.33941909670829773;-0.29905763268470764;-0.8918291330337524;31.207584906684026;-83.29374694824219;-76.46949768066406;-47.084136962890625;121.41168999565973;4.829999923706055;52.03125;-0.6444171688687725;;-0.36366034183657037;0.042467791587114334;0.06687989830970764;-0.03315865248441696;0.30370493519197167;-0.03313638186331092;-0.07203477906111729;-0.16636580908448695;
2802d5d6-91b2-4e86-80a5-fa8959708ccd;1513234541.957;8.82550048828125;-0.33099889755249023;-0.2779715657234192;-0.9017602205276489;31.207584906684026;-83.81761169433594;-77.70004272460938;-46.577850341796875;121.41168999565973;4.829999923706055;52.03125;-0.6579926875191159;;-0.3517902698848304;0.03478001803159714;0.05926733464002609;0.020961910486221313;0.28168179664068577;-0.05779405776413657;-0.1124509117641598;-0.15464683502370227;
2802d5d6-91b2-4e86-80a5-fa8959708ccd;1513234542.008;8.82550048828125;-0.32536521553993225;-0.269643634557724;-0.9063276648521423;31.207584906684026;-85.38919067382812;-77.87583923339844;-46.746612548828125;121.41168999565973;4.829999923706055;52.03125;-0.6685433581992836;;-0.34466376667575616;0.03396812081336975;0.0849207192659378;-0.006407343316823244;0.2730229243012605;0.0050248523447615065;-0.013758156507458352;-0.17792712400873895;
2802d5d6-91b2-4e86-80a5-fa8959708ccd;1513234542.057;8.82550048828125;-0.32540762424468994;-0.2720925509929657;-0.9055802226066589;31.207584906684026;-84.16685485839844;-78.40321350097656;-45.56529235839844;121.41168999565973;4.829999923706055;52.03125;-0.6815653845245291;;-0.3449676734297907;0.08428822457790375;0.052854273468256;-0.04574424773454666;0.2755669654699561;-0.0645105500333164;-0.14251906573559042;-0.24323422552409804;
2802d5d6-91b2-4e86-80a5-fa8959708ccd;1513234542.103;8.82550048828125;-0.3247266411781311;-0.27527815103530884;-0.9048616290092468;31.207584906684026;-85.21456909179688;-79.45796203613281;-44.2152099609375;121.41168999565973;4.829999923706055;52.03125;-0.6914795630495076;;-0.344553844289235;0.0758863165974617;0.05660443380475044;-0.06265241652727127;0.27887900902886087;0.019686353093974738;-0.03270974345668023;-0.1769681197002014;
2802d5d6-91b2-4e86-80a5-fa8959708ccd;1513234542.157;8.82550048828125;-0.3225449025630951;-0.28233715891838074;-0.9034658074378967;31.207584906684026;-84.34146118164062;-78.2274169921875;-45.73405456542969;121.41168999565973;4.829999923706055;52.03125;-0.7036774743047667;;-0.3429047047996738;0.07385716587305069;0.05641553923487663;-0.08089391142129898;0.2862295289037154;0.052328185942857944;-0.06986297119215766;-0.2875127407560825;
2802d5d6-91b2-4e86-80a5-fa8959708ccd;1513234542.207;8.82550048828125;-0.32171353697776794;-0.2898649275302887;-0.9013760089874268;31.207584906684026;-85.73843383789062;-78.93058776855469;-44.38397216796875;121.41168999565973;4.829999923706055;52.03125;-0.7180261150736172;;-0.34282078719018627;0.09170255810022354;0.010186586529016495;-0.027014490216970444;0.2940857070668589;0.05849260491806436;-0.08056168823933299;-0.2949035454132704;
2802d5d6-91b2-4e86-80a5-fa8959708ccd;1513234542.257;8.82550048828125;-0.32422778010368347;-0.29280778765678406;-0.899522066116333;31.207584906684026;-83.64299011230469;-79.63375854492188;-44.38397216796875;121.41168999565973;4.829999923706055;52.03125;-0.731351617761465;;-0.3459490137874257;0.09949631989002228;-0.01454999577254057;-0.020613430067896843;0.2971620174124455;-0.06594066753868896;-0.18996674266476915;-0.22682196267426674;
2802d5d6-91b2-4e86-80a5-fa8959708ccd;1513234542.307;8.82550048828125;-0.3290145993232727;-0.2916509509086609;-0.8981587290763855;31.207584906684026;-85.56381225585938;-79.10638427734375;-43.5401611328125;121.41168999565973;4.829999923706055;52.03125;-0.7412824158328344;;-0.35114025412198024;0.1044967845082283;0.010309392586350441;-0.030170731246471405;0.29595236738932856;-0.1070534831828962;-0.17548101054750118;-0.13464116891502703;
2802d5d6-91b2-4e86-80a5-fa8959708ccd;1513234542.357;8.82550048828125;-0.33324140310287476;-0.28742849826812744;-0.8979616165161133;31.207584906684026;-86.61152648925781;-80.1611328125;-43.20263671875;121.41168999565973;4.829999923706055;52.03125;-0.7519653832182728;;-0.35535479900436606;0.11247723549604416;0.02433646470308304;-0.03695967048406601;0.29154096526358697;-0.17675480049688605;-0.17220771925168477;-0.15012611907329276;
2802d5d6-91b2-4e86-80a5-fa8959708ccd;1513234542.53;8.82550048828125;-0.30331048369407654;-0.2606413662433624;-0.9165526628494263;31.207584906684026;-86.08766174316406;-81.39167785644531;-45.05900573730469;121.41168999565973;4.829999923706055;52.03125;-0.7977709003453499;;-0.3195817847909026;0.048061471432447433;0.04295949265360832;0.008578437380492687;0.26368648405421397;-0.1258751078709222;-0.08916849225025107;-0.21707772256177582;
2802d5d6-91b2-4e86-80a5-fa8959708ccd;1513234542.574;8.82550048828125;-0.2912706732749939;-0.24923008680343628;-0.9236047863960266;31.207584906684026;-86.61152648925781;-79.10638427734375;-43.877685546875;121.41168999565973;4.829999923706055;52.03125;-0.8144156703947398;;-0.3054909262367254;0.0316881500184536;0.00830906629562378;-0.03718014806509018;0.25188517336965277;-0.11402910102614076;-0.10912888462039495;-0.16896052693455116;
2802d5d6-91b2-4e86-80a5-fa8959708ccd;1513234542.624;8.82550048828125;-0.2929926812648773;-0.2469189614057541;-0.92368084192276;31.207584906684026;-85.03994750976562;-80.68850708007812;-45.73405456542969;121.41168999565973;4.829999923706055;52.03125;-0.8260162215491447;;-0.3071620728251373;0.04352674260735512;0.015351573005318642;-0.032221246510744095;0.24949946727841743;-0.030464432341634422;-0.05549867922059728;-0.19158621092364636;
2802d5d6-91b2-4e86-80a5-fa8959708ccd;1513234542.679;8.82550048828125;-0.28168585896492004;-0.24550239741802216;-0.9275676012039185;31.207584906684026;-86.61152648925781;-80.86430358886719;-43.877685546875;121.41168999565973;4.829999923706055;52.03125;-0.8499110509346635;;-0.2948316005230012;0.06212712824344635;-0.0026512963231652975;-0.020079489797353745;0.2480379094000551;0.0062834622759329545;-0.051810733743055545;-0.1904415842871303;
2802d5d6-91b2-4e86-80a5-fa8959708ccd;1513234542.723;8.82550048828125;-0.28168585896492004;-0.24550239741802216;-0.9275676012039185;31.207584906684026;-86.61152648925781;-81.56747436523438;-45.22776794433594;121.41168999565973;4.829999923706055;52.03125;-0.8499110509346635;;-0.2948316005230012;0.06212712824344635;-0.0026512963231652975;-0.020079489797353745;0.2480379094000551;-0.01235520324520461;-0.052924201394817676;-0.15654114150707563;
2802d5d6-91b2-4e86-80a5-fa8959708ccd;1513234542.774;8.82550048828125;-0.2821451723575592;-0.2486444115638733;-0.9265905618667603;31.207584906684026;-86.43690490722656;-81.74325561523438;-44.04644775390625;121.41168999565973;4.829999923706055;52.03125;-0.866821005251152;;-0.29557848038934215;0.0772501602768898;-0.014874881133437157;-0.025710470974445343;0.2512804564276229;-0.04209951682808161;-0.08731679634431898;-0.11934690109081098;
2802d5d6-91b2-4e86-80a5-fa8959708ccd;1513234542.824;8.82550048828125;-0.28253865242004395;-0.2494661659002304;-0.9262497425079346;31.207584906684026;-86.43690490722656;-81.74325561523438;-44.04644775390625;121.41168999565973;4.829999923706055;52.03125;-0.8742450311301556;;-0.2960697052431641;0.06815266609191895;0.006271578371524811;0.007426478434354067;0.25212894527555796;-0.023548469306807648;-0.04693022472937634;-0.13346724750652011;
2802d5d6-91b2-4e86-80a5-fa8959708ccd;1513234542.874;8.82550048828125;-0.2824651002883911;-0.2503611743450165;-0.9260306358337402;31.207584906684026;-88.35772705078125;-81.21588134765625;-44.2152099609375;121.41168999565973;4.829999923706055;52.03125;-0.8833490209905714;;-0.29606307365798;0.07801260054111481;-0.021092688664793968;-0.0062355962581932545;0.2530532871399516;-0.05160353981024738;-0.07680263636068614;-0.15548200234155113;
2802d5d6-91b2-4e86-80a5-fa8959708ccd;1513234542.924;8.82550048828125;-0.2642935812473297;-0.250959187746048;-0.9312187433242798;31.207584906684026;-86.08766174316406;-83.50117492675781;-43.70892333984375;121.41168999565973;4.829999923706055;52.03125;-0.8979577794066856;;-0.2765425562537249;0.044994257390499115;-0.006960136815905571;0.004567769821733236;0.2536710133721118;-0.1819048214128813;-0.135244641218039;-0.10979946858287691;
2802d5d6-91b2-4e86-80a5-fa8959708ccd;1513234542.974;8.82550048828125;-0.2682350277900696;-0.24223725497722626;-0.9324007034301758;31.207584906684026;-86.61152648925781;-82.97380065917969;-44.2152099609375;121.41168999565973;4.829999923706055;52.03125;-0.9059381955047088;;-0.2801180327098932;0.041214752942323685;0.011509099043905735;-0.04230021312832832;0.24467111576728962;-0.24219532638285815;-0.13649393008539518;-0.07578131408264076;
2802d5d6-91b2-4e86-80a5-fa8959708ccd;1513234543.044;8.82550048828125;-0.27241963148117065;-0.232634499669075;-0.9336320161819458;31.207584906684026;-87.48463439941406;-82.44642639160156;-46.071563720703125;121.41168999565973;4.829999923706055;52.03125;-0.9165996534820662;;-0.2839029829996793;0.05174702778458595;0.058806370943784714;0.029899712651968002;0.23478562250077406;-0.07830678974436289;-0.014015417868760007;-0.17406367621536098;
2802d5d6-91b2-4e86-80a5-fa8959708ccd;1513234543.099;8.82550048828125;-0.2587203085422516;-0.22210633754730225;-0.9400705099105835;31.207584906684026;-87.65925598144531;-83.32539367675781;-45.902801513671875;121.41168999565973;4.829999923706055;52.03125;-0.9303754154077305;;-0.2685649129807088;0.04013817012310028;0.004638073034584522;-0.028832074254751205;0.2239742344558347;-0.045495047217932634;-0.09341623418892746;-0.15689134719042105;
2802d5d6-91b2-4e86-80a5-fa8959708ccd;1513234543.156;8.82550048828125;-0.2511327862739563;-0.22648441791534424;-0.9410829544067383;31.207584906684026;-87.48463439941406;-83.85276794433594;-45.73405456542969;121.41168999565973;4.829999923706055;52.03125;-0.9515659984436343;;-0.26077831478642155;0.029697246849536896;-0.011751056648790836;-0.007143973372876644;0.22846678570581214;-0.057665427083485744;-0.07804393574477207;-0.16394313144084188;
2802d5d6-91b2-4e86-80a5-fa8959708ccd;1513234543.206;8.82550048828125;-0.25184160470962524;-0.22475264966487885;-0.9413086771965027;31.207584906684026;-88.5323486328125;-83.85276794433594;-45.05900573730469;121.41168999565973;4.829999923706055;52.03125;-0.9609306626117461;;-0.2614214239523215;0.03353412076830864;-0.01055313739925623;-0.005987454205751419;0.2266891833866245;-0.09572785801511623;-0.06742511353029913;-0.15041560468378437;
2802d5d6-91b2-4e86-80a5-fa8959708ccd;1513234543.257;8.82550048828125;-0.23761600255966187;-0.2312338501214981;-0.9434349536895752;31.207584906684026;-88.18310546875;-83.14959716796875;-45.73405456542969;121.41168999565973;4.829999923706055;52.03125;-0.9748466636271536;;-0.24673095095237502;0.020651284605264664;-0.027494173496961594;-0.04264901578426361;0.23334571624691527;-0.037796114822622566;-0.06741952089200996;-0.19653329896457755;
2802d5d6-91b2-4e86-80a5-fa8959708ccd;1513234543.307;8.82550048828125;-0.23668137192726135;-0.23672336339950562;-0.9423077702522278;31.207584906684026;-87.31001281738281;-82.97380065917969;-46.915374755859375;121.41168999565973;4.829999923706055;52.03125;-0.9834483682287127;;-0.24608145163887285;0.032167818397283554;-0.05200344696640968;-0.007002507336437702;0.23899196154957889;0.09548870614922712;-0.03357314028208391;-0.15784635675732347;
2802d5d6-91b2-4e86-80a5-fa8959708ccd;1513234543.357;8.82550048828125;-0.2349993884563446;-0.24299217760562897;-0.9411323666572571;31.207584906684026;-88.5323486328125;-84.55593872070312;-44.38397216796875;121.41168999565973;4.829999923706055;52.03125;-0.9911666195263036;;-0.24469492515512126;0.020491324365139008;-0.058262091130018234;-0.009535989724099636;0.24544929701548288;0.08208208690565923;-0.01344416981493801;-0.16242379803895166;
2802d5d6-91b2-4e86-80a5-fa8959708ccd;1513234543.407;8.82550048828125;-0.23614610731601715;-0.24382737278938293;-0.9406291842460632;31.207584906684026;-85.91305541992188;-83.67697143554688;-44.89024353027344;121.41168999565973;4.829999923706055;52.03125;-0.997166578428195;;-0.24596780350952618;0.04284776374697685;-0.06775709986686707;0.03250233829021454;0.24631038714563852;-0.036429114235084895;-0.07993051906098421;-0.05881884215159906;
2802d5d6-91b2-4e86-80a5-fa8959708ccd;1513234543.457;8.82550048828125;-0.23871296644210815;-0.23862269520759583;-0.941315770149231;31.207584906684026;-88.35772705078125;-84.73171997070312;-43.5401611328125;121.41168999565973;4.829999923706055;52.03125;-1.001693445502386;;-0.2483593153968321;0.011723215691745281;0.010320687666535378;0.024262523278594017;0.24094732181826561;-0.17125217705256435;-0.09935508341980416;-0.053809436141160016;
2802d5d6-91b2-4e86-80a5-fa8959708ccd;1513234543.515;8.82550048828125;-0.24212434887886047;-0.2304857075214386;-0.9424712657928467;31.207584906684026;-88.5323486328125;-85.25910949707031;-43.37139892578125;121.41168999565973;4.829999923706055;52.03125;-1.0096782905110986;;-0.2514656210141435;0.022321492433547974;0.0009172314312309027;-0.008273337036371231;0.23257680555662133;-0.21388858715640593;-0.12458187684557974;-0.09024254511788003;
2802d5d6-91b2-4e86-80a5-fa8959708ccd;1513234544.09;8.82550048828125;-0.3087817430496216;-0.1633417308330536;-0.9370023012161255;31.207584906684026;-92.19937133789062;-85.08331298828125;-44.2152099609375;121.41168999565973;4.829999923706055;52.03125;-1.0721322491847698;;-0.31833460746605846;-0.06652343273162842;-0.003848826512694359;-0.012124894186854362;0.16407692731964285;-0.06410574954762437;-0.06482586830638179;-0.12024598427482174;
2802d5d6-91b2-4e86-80a5-fa8959708ccd;1513234544.201;8.82550048828125;-0.30916839838027954;-0.16573762893676758;-0.9364539384841919;31.207584906684026;-91.85012817382812;-85.78648376464844;-44.89024353027344;121.41168999565973;4.829999923706055;52.03125;-1.087512496099275;;-0.31888102602164803;-0.04770416393876076;-0.06836270540952682;0.0357886366546154;0.16650594289233855;-0.05704624213004232;-0.05395377947224231;-0.08024104364408745;
2802d5d6-91b2-4e86-80a5-fa8959708ccd;1513234544.245;8.82550048828125;-0.3315044045448303;-0.20412199199199677;-0.9211075305938721;31.207584906684026;-90.10392761230469;-84.73171997070312;-45.22776794433594;121.41168999565973;4.829999923706055;52.03125;-1.0892094115053068;;-0.3454649371714511;-0.022682616487145424;-0.03936250880360603;-0.0027053533121943474;0.20556672727410527;-0.07805671891800446;-0.04679440351378229;-0.054707720376843745;
2802d5d6-91b2-4e86-80a5-fa8959708ccd;1513234544.292;8.82550048828125;-0.3329918086528778;-0.2022222876548767;-0.920989990234375;31.207584906684026;-90.10392761230469;-85.78648376464844;-45.22776794433594;121.41168999565973;4.829999923706055;52.03125;-1.0938322734112211;;-0.34693462948335035;-0.050736214965581894;-0.023729857057332993;0.005432148929685354;0.20362656473458018;-0.07805671891800446;-0.04679440351378229;-0.054707720376843745;
2802d5d6-91b2-4e86-80a5-fa8959708ccd;1513234544.342;8.82550048828125;-0.33447304368019104;-0.19967339932918549;-0.9210094213485718;31.207584906684026;-90.97703552246094;-85.25910949707031;-45.39653015136719;121.41168999565973;4.829999923706055;52.03125;-1.0980765078469756;;-0.34834952278140235;-0.022994594648480415;0.006054618861526251;0.029331540688872337;0.20102459068712872;-0.1039170783671099;-0.037299435279322786;-0.03518115694827376;
2802d5d6-91b2-4e86-80a5-fa8959708ccd;1513234544.391;8.82550048828125;-0.33553722500801086;-0.196285218000412;-0.9213505983352661;31.207584906684026;-93.07246398925781;-86.31385803222656;-44.72148132324219;121.41168999565973;4.829999923706055;52.03125;-1.1015612439756368;;-0.34925086184126486;-0.04011888802051544;0.040691349655389786;0.015894027426838875;0.19756799703003158;-0.015278821489893598;-0.00395079947713255;-0.08464804261595057;
2802d5d6-91b2-4e86-80a5-fa8959708ccd;1513234544.441;8.82550048828125;-0.33283042907714844;-0.20151735842227936;-0.9212028384208679;31.207584906684026;-92.02474975585938;-86.31385803222656;-45.73405456542969;121.41168999565973;4.829999923706055;52.03125;-1.11131777200378;;-0.3467057981908591;-0.01857948862016201;0.000177639041794464;-0.01834184303879738;0.20290681606158736;0.08523340542354998;-0.014351508798328007;-0.09472411260026536;
2802d5d6-91b2-4e86-80a5-fa8959708ccd;1513234544.491;8.82550048828125;-0.3299563229084015;-0.20848354697227478;-0.9206864237785339;31.207584906684026;-90.97703552246094;-85.61068725585938;-45.05900573730469;121.41168999565973;4.829999923706055;52.03125;-1.1149976263825176;;-0.3441214028567151;-0.012359358370304108;-0.028531217947602272;0.04771581292152405;0.2100241838209784;0.11467385232604894;0.02851846053311352;-0.09070939725697091;
2802d5d6-91b2-4e86-80a5-fa8959708ccd;1513234544.542;8.82550048828125;-0.328257292509079;-0.21110683679580688;-0.920695960521698;31.207584906684026;-90.45317077636719;-86.1380615234375;-43.877685546875;121.41168999565973;4.829999923706055;52.03125;-1.1183547497336208;;-0.3424817990789302;-0.021992962807416916;-0.019758637994527817;0.020305339246988297;0.21270718285457973;-0.01922056621931988;-0.007391869921623934;-0.050815244127583925;
2802d5d6-91b2-4e86-80a5-fa8959708ccd;1513234544.591;8.82550048828125;-0.33060771226882935;-0.2062579095363617;-0.9209539890289307;31.207584906684026;-92.37399291992188;-88.42335510253906;-45.05900573730469;121.41168999565973;4.829999923706055;52.03125;-1.1230135864544915;;-0.34465584401806965;-0.02553241141140461;-0.0008496401133015752;0.0006658806232735515;0.20774907956580244;-0.15920669944213595;-0.09326603190344698;-0.025963956415509516;
2802d5d6-91b2-4e86-80a5-fa8959708ccd;1513234544.641;8.82550048828125;-0.33201363682746887;-0.20208747684955597;-0.921372652053833;31.207584906684026;-92.02474975585938;-87.36860656738281;-46.409088134765625;121.41168999565973;4.829999923706055;52.03125;-1.1273432812875794;;-0.3458625150112513;-0.027269799262285233;0.03782660886645317;0.009293809533119202;0.2034889052166444;-0.09290277673076018;-0.03844645876081992;-0.03401602397136409;
2802d5d6-91b2-4e86-80a5-fa8959708ccd;1513234544.691;7.271484375;-0.3302818536758423;-0.2042473405599594;-0.9215188026428223;31.207584906684026;-92.19937133789062;-88.59915161132812;-45.56529235839844;121.41168999565973;1.5800000429153442;144.4921875;-1.1320493464115355;;-0.34414759103724885;-0.02665172517299652;0.01856314204633236;-0.00920629221946001;0.2056947840057611;0.035043471519916665;0.009240103718138925;-0.09432117632733637;
2802d5d6-91b2-4e86-80a5-fa8959708ccd;1513234544.741;7.271484375;-0.3385401666164398;-0.21910589933395386;-0.9150864481925964;31.207584906684026;-93.24708557128906;-86.84123229980469;-44.89024353027344;121.41168999565973;1.5800000429153442;144.4921875;-1.1347475579329285;;-0.3543397338131975;-0.014243033714592457;-0.012018977664411068;-0.011274662800133228;0.22089800944143334;0.05721189074984525;-0.005013134435965158;-0.11268020993401562;
2802d5d6-91b2-4e86-80a5-fa8959708ccd;1513234544.791;7.271484375;-0.3379768431186676;-0.22106759250164032;-0.9148228168487549;31.207584906684026;-93.42170715332031;-88.42335510253906;-43.37139892578125;121.41168999565973;1.5800000429153442;144.4921875;-1.1401682868297505;;-0.35389177867042065;-0.012181855738162994;-0.02461417205631733;0.022290464490652084;0.2229090090337016;-0.02027224853379217;-0.03958069906908466;-0.08018831305450388;
2802d5d6-91b2-4e86-80a5-fa8959708ccd;1513234544.84;7.271484375;-0.34569865465164185;-0.22521653771400452;-0.9109171032905579;31.207584906684026;-92.72323608398438;-88.07177734375;-45.73405456542969;121.41168999565973;1.5800000429153442;144.4921875;-1.1435977222349667;;-0.36271541824853637;-0.011265456676483154;0.009930286556482315;0.011808205395936966;0.22716528216303006;-0.08160697896718909;-0.05638045185752251;-0.07294185172839827;
2802d5d6-91b2-4e86-80a5-fa8959708ccd;1513234544.919;7.271484375;-0.347055584192276;-0.22139905393123627;-0.9113368391990662;31.207584906684026;-91.67550659179688;-88.07177734375;-45.05900573730469;121.41168999565973;1.5800000429153442;144.4921875;-1.1491939569297847;;-0.3638636232453788;-0.005544506013393402;0.011361822485923767;0.025274239480495453;0.22324889454017133;-0.11258753192808087;-0.06224180310067791;-0.0281749127524933;
2802d5d6-91b2-4e86-80a5-fa8959708ccd;1513234544.975;7.271484375;-0.3531021177768707;-0.21153217554092407;-0.9113578200340271;31.207584906684026;-92.89784240722656;-88.59915161132812;-45.56529235839844;121.41168999565973;1.5800000429153442;144.4921875;-1.1524377962408763;;-0.36963752761673496;-0.027635173872113228;0.033095892518758774;-0.010410395450890064;0.21314233963600782;-0.09394327376865413;-0.06945231175206744;-0.06458538485994764;
2802d5d6-91b2-4e86-80a5-fa8959708ccd;1513234545.015;7.271484375;-0.3546885848045349;-0.20864719152450562;-0.9114068150520325;31.207584906684026;-92.19937133789062;-87.19281005859375;-44.89024353027344;121.41168999565973;1.5800000429153442;144.4921875;-1.157798941613134;;-0.37113202882566104;-0.014345218427479267;0.05021518096327782;0.002196592977270484;0.210191498525839;-0.021208349656955023;0.0018722022463257045;-0.10875231364225775;
2802d5d6-91b2-4e86-80a5-fa8959708ccd;1513234545.061;7.271484375;-0.35310202836990356;-0.20934858918190002;-0.9118618965148926;31.207584906684026;-93.42170715332031;-88.42335510253906;-44.72148132324219;121.41168999565973;1.5800000429153442;144.4921875;-1.1636256607646014;;-0.36945118894206375;-0.004197768401354551;0.030027294531464577;-0.03175687417387962;0.2109087341523114;0.0019520970790280817;-0.030088127679606225;-0.10070503977636532;
2802d5d6-91b2-4e86-80a5-fa8959708ccd;1513234545.111;7.271484375;-0.35104572772979736;-0.21437138319015503;-0.9114887714385986;31.207584906684026;-93.07246398925781;-89.47810363769531;-45.39653015136719;121.41168999565973;1.5800000429153442;144.4921875;-1.1756056153388756;;-0.36762592703019814;-0.0019816148560494184;-0.020568199455738068;-0.030237898230552673;0.21604819904806855;0.004551342302945418;-0.01826955139405258;-0.11751224941585539;
2802d5d6-91b2-4e86-80a5-fa8959708ccd;1513234545.16;6.052734375;-0.35104572772979736;-0.21437138319015503;-0.9114887714385986;31.207584906684026;-93.77095031738281;-89.47810363769531;-45.05900573730469;121.41168999565973;0.9100000262260437;103.7109375;-1.1756056153388756;;-0.36762592703019814;-0.0019816148560494184;-0.020568199455738068;-0.030237898230552673;0.21604819904806855;-0.03418220522338504;-0.037023798106499584;-0.023285082674998812;
2802d5d6-91b2-4e86-80a5-fa8959708ccd;1513234545.211;6.052734375;-0.35245928168296814;-0.21189476549625397;-0.911522388458252;31.207560606211338;-92.54861450195312;-89.65390014648438;-45.22776794433594;121.4116501380427;0.9100000262260437;103.7109375;-1.184012386389004;;-0.36896332426668643;-0.00888410210609436;0.03245140612125397;0.003868579166010022;0.21351334328163654;-0.11722116590870973;-0.07071598168931004;-0.06453265427036407;
2802d5d6-91b2-4e86-80a5-fa8959708ccd;1513234545.265;6.052734375;-0.3532828986644745;-0.2098860740661621;-0.9116682410240173;31.207560606211338;-92.54861450195312;-90.70864868164062;-46.577850341796875;121.4116501380427;0.9100000262260437;103.7109375;-1.1892688731760228;;-0.36969521363467295;-0.000720998621545732;0.02058553695678711;-0.029860056936740875;0.21145843674634016;-0.06580617790363996;-0.046754456097431105;-0.054742341471014776;
2802d5d6-91b2-4e86-80a5-fa8959708ccd;1513234545.31;6.052734375;-0.35237157344818115;-0.19941575825214386;-0.9143673181533813;31.207560606211338;-92.72323608398438;-89.12652587890625;-45.73405456542969;121.4116501380427;0.9100000262260437;103.7109375;-1.1947630688750384;;-0.3678327769650845;0.005096787586808205;0.018049784004688263;0.008727693930268288;0.20076166074548088;-0.03733538795403886;-0.019473300206768396;-0.08717405090989072;
2802d5d6-91b2-4e86-80a5-fa8959708ccd;1513234545.36;6.052734375;-0.34370318055152893;-0.2013072371482849;-0.9172477722167969;31.207560606211338;-91.15164184570312;-91.76341247558594;-46.240325927734375;121.4116501380427;0.9100000262260437;103.7109375;-1.2019091787411573;;-0.35851761646387903;0.017027778550982475;0.002805653028190136;0.010494250804185867;0.2026922991029729;-0.020315125427342446;-0.031237548006084425;-0.07284091792308427;
2802d5d6-91b2-4e86-80a5-fa8959708ccd;1513234545.41;6.052734375;-0.34240275621414185;-0.1988290697336197;-0.9182741045951843;31.207560606211338;-92.54861450195312;-91.06024169921875;-47.25288391113281;121.4116501380427;0.9100000262260437;103.7109375;-1.2069956888394755;;-0.35690758308295756;-0.006657313089817762;0.003806491382420063;-0.01873759925365448;0.20016299524676634;-0.030098780323966543;-0.04435414900694269;-0.07779413123452264;
2802d5d6-91b2-4e86-80a5-fa8959708ccd;1513234545.458;6.052734375;-0.33889612555503845;-0.2077217698097229;-0.9176061749458313;31.2074755859375;-93.07246398925781;-91.58761596679688;-47.084136962890625;121.41151068793403;0.9100000262260437;103.7109375;-1.2141250003114366;;-0.35378725233143093;0.0104506965726614;-0.025752956047654152;0.00476436922326684;0.20924535695181676;0.011993013336953833;-0.013537646769199791;-0.1283648971740373;
2802d5d6-91b2-4e86-80a5-fa8959708ccd;1513234545.508;6.052734375;-0.338030606508255;-0.2099626213312149;-0.9174153804779053;31.2074755859375;-92.72323608398438;-90.88444519042969;-46.071563720703125;121.41151068793403;0.9100000262260437;103.7109375;-1.218679858627428;;-0.35302442909241843;0.004992284346371889;-0.018430938944220543;0.027675403282046318;0.21153672276619243;-0.004434163214981931;-0.024030235148002982;-0.06555157970342838;
2802d5d6-91b2-4e86-80a5-fa8959708ccd;1513234545.62;6.052734375;-0.3416973948478699;-0.19989129900932312;-0.9183062314987183;31.2074755859375;-94.64404296875;-91.76341247558594;-46.240325927734375;121.41151068793403;0.9100000262260437;103.7109375;-1.2274598905145206;;-0.3562216077659259;-0.006218260154128075;0.021180355921387672;-0.008451564237475395;0.2012469743460944;-0.12255201546272135;-0.0716992207637673;-0.008902148575807869;
2802d5d6-91b2-4e86-80a5-fa8959708ccd;1513234545.675;6.052734375;-0.3421056866645813;-0.19815202057361603;-0.9185311198234558;31.2074755859375;-92.19937133789062;-89.65390014648438;-45.902801513671875;121.41151068793403;0.9100000262260437;103.7109375;-1.2311969756972236;;-0.3565320054479147;-0.01408021803945303;0.051774464547634125;-0.015062603168189526;0.19947220398646354;-0.054827296309788304;-0.04075089205206548;-0.04745220430303187;
2802d5d6-91b2-4e86-80a5-fa8959708ccd;1513234545.725;6.052734375;-0.34042608737945557;-0.2002408355474472;-0.9187021851539612;31.2074755859375;-93.42170715332031;-90.53286743164062;-45.73405456542969;121.41151068793403;0.9100000262260437;103.7109375;-1.2366456896662903;;-0.3548645637942456;0.018557196483016014;0.017272697761654854;0.0003366941527929157;0.20160373145349988;0.013061473566293624;0.01745382515216131;-0.1014235606384687;
2802d5d6-91b2-4e86-80a5-fa8959708ccd;1513234545.775;6.052734375;-0.3393785059452057;-0.20368343591690063;-0.9183328747749329;31.2074755859375;-92.02474975585938;-91.93919372558594;-45.05900573730469;121.41151068793403;0.9100000262260437;103.7109375;-1.2410402831713805;;-0.35399227393988225;0.01177230291068554;-0.006140171084553003;-0.012163330800831318;0.2051187658377386;0.030020217071809206;-0.01567589880842441;-0.08369729410679229;
2802d5d6-91b2-4e86-80a5-fa8959708ccd;1513234545.825;6.052734375;-0.3389686048030853;-0.20520569384098053;-0.9181453585624695;31.2074755859375;-92.54861450195312;-92.81816101074219;-46.240325927734375;121.41151068793403;0.9100000262260437;103.7109375;-1.245674179687183;;-0.35366586244539605;0.014658316038548946;-0.012750855647027493;0.014519871212542057;0.20667386243753458;-0.010548248445585847;-0.02286723269996538;-0.06673056111800646;
2802d5d6-91b2-4e86-80a5-fa8959708ccd;1513234545.875;6.052734375;-0.33832353353500366;-0.20547060668468475;-0.9183240532875061;31.2074755859375;-93.94557189941406;-91.06024169921875;-45.56529235839844;121.41151068793403;0.9100000262260437;103.7109375;-1.2502375870065898;;-0.35298426713449543;0.004583287518471479;-0.007435276173055172;-0.0034746762830764055;0.20694455067815354;-0.0733224174481706;-0.039560725360909064;-0.031665784309369165;
2802d5d6-91b2-4e86-80a5-fa8959708ccd;1513234545.925;6.052734375;-0.340856671333313;-0.20014630258083344;-0.9185631275177002;31.2074755859375;-93.24708557128906;-93.52133178710938;-47.25288391113281;121.41151068793403;0.9100000262260437;103.7109375;-1.2536447783526934;;-0.3553259783309273;-0.0027865092270076275;0.015087706968188286;0.006026486400514841;0.20150724102690581;-0.06310067255222847;-0.038556713629949196;-0.0861007969905888;
2802d5d6-91b2-4e86-80a5-fa8959708ccd;1513234545.975;6.052734375;-0.34427958726882935;-0.1935725063085556;-0.9186953902244568;31.2074755859375;-93.42170715332031;-95.80662536621094;-46.746612548828125;121.41151068793403;0.9100000262260437;103.7109375;-1.2586161406623828;;-0.3585500292277962;-0.003452954115346074;0.0014033117331564426;-0.00594143383204937;0.19480222161786706;0.006677077485046666;-0.022849655836770857;-0.07645376225788576;
2802d5d6-91b2-4e86-80a5-fa8959708ccd;1513234546.025;6.052734375;-0.3449654281139374;-0.1990707367658615;-0.917262077331543;31.2074755859375;-93.42170715332031;-94.40028381347656;-46.071563720703125;121.41151068793403;0.9100000262260437;103.7109375;-1.268487225772764;;-0.35971863834858925;-0.009801406413316727;-0.029963694512844086;0.019770607352256775;0.20040957991906957;-0.04472672524344477;-0.05157184819327544;-0.08871495591661058;
2802d5d6-91b2-4e86-80a5-fa8959708ccd;1513234546.075;6.052734375;-0.34790587425231934;-0.19941873848438263;-0.9160751700401306;31.2074755859375;-92.89784240722656;-96.33399963378906;-45.902801513671875;121.41151068793403;0.9100000262260437;103.7109375;-1.2732116898140273;;-0.3629536687874292;-0.012552495114505291;-0.02181844972074032;0.026380930095911026;0.2007647037609679;-0.09783654896624097;-0.08361686664187189;-0.039335421932688366;
2802d5d6-91b2-4e86-80a5-fa8959708ccd;1513234546.125;6.052734375;-0.34790587425231934;-0.19941873848438263;-0.9160751700401306;31.2074755859375;-93.94557189941406;-94.57608032226562;-46.915374755859375;121.41151068793403;0.9100000262260437;103.7109375;-1.2732116898140273;;-0.3629536687874292;-0.012552495114505291;-0.02181844972074032;0.026380930095911026;0.2007647037609679;-0.15175943576983836;-0.08497081774006818;-0.036777455705667254;
2802d5d6-91b2-4e86-80a5-fa8959708ccd;1513234546.175;6.052734375;-0.35347360372543335;-0.1884673833847046;-0.9162622094154358;31.2074755859375;-95.16790771484375;-94.75186157226562;-45.05900573730469;121.41151068793403;0.9100000262260437;103.7109375;-1.2839172984647615;;-0.36818603029015134;-0.04825980216264725;0.01415097527205944;0.026415422558784485;0.18960132756382286;-0.16524435194945458;-0.09095360912893118;-0.03680461994878607;
2802d5d6-91b2-4e86-80a5-fa8959708ccd;1513234546.225;6.052734375;-0.35509106516838074;-0.1846463680267334;-0.9164147973060608;31.2074755859375;-93.42170715332031;-92.99394226074219;-44.38397216796875;121.41151068793403;0.9100000262260437;103.7109375;-1.2896646452171405;;-0.3696656253564486;-0.08417896181344986;0.018569711595773697;0.011232900433242321;0.18571203553371443;-0.11472258817399739;-0.05765690496799749;-0.06802405845945796;
2802d5d6-91b2-4e86-80a5-fa8959708ccd;1513234546.278;6.052734375;-0.3560611307621002;-0.18276961147785187;-0.9164146184921265;31.2074755859375;-93.59632873535156;-94.2244873046875;-45.902801513671875;121.41151068793403;0.9100000262260437;103.7109375;-1.2980442520766133;;-0.37058572947604124;-0.06280788779258728;-0.01232925895601511;0.012606016360223293;0.1838027867173614;-0.09711509862693851;-0.06377951231408965;-0.12860484798825345;
2802d5d6-91b2-4e86-80a5-fa8959708ccd;1513234546.325;6.052734375;-0.3559264540672302;-0.18305903673171997;-0.9164091944694519;31.2074755859375;-94.29481506347656;-94.92765808105469;-46.240325927734375;121.41151068793403;0.9100000262260437;103.7109375;-1.304069629429971;;-0.3704600323026995;-0.05152900144457817;-0.03147953748703003;0.0018583835335448384;0.18409717232484155;-0.030018619175155158;-0.022998260225597277;-0.08360594768140256;
2802d5d6-91b2-4e86-80a5-fa8959708ccd;1513234546.375;6.052734375;-0.35724714398384094;-0.18273602426052094;-0.9159595966339111;31.2074755859375;-94.29481506347656;-94.92765808105469;-44.55271911621094;121.41151068793403;0.9100000262260437;103.7109375;-1.3093818964407946;;-0.37187777318005977;-0.05704423412680626;-0.039843928068876266;0.024358052760362625;0.1837686228638427;-0.06086494881710694;-0.0681566838817439;-0.06466581232486802;
2802d5d6-91b2-4e86-80a5-fa8959708ccd;1513234546.427;6.052734375;-0.35811570286750793;-0.18146869540214539;-0.9158723950386047;31.2074755859375;-94.81866455078125;-94.40028381347656;-45.39653015136719;121.41151068793403;0.9100000262260437;103.7109375;-1.314195443383951;;-0.3727328595953372;-0.06043286994099617;-0.014469420537352562;0.01558858435600996;0.18247973261038328;-0.06574652309522218;-0.04440767854485328;-0.06197229119836189;
2802d5d6-91b2-4e86-80a5-fa8959708ccd;1513234546.476;6.052734375;-0.3868206739425659;-0.19807562232017517;-0.9006307721138;31.2074755859375;-94.12019348144531;-94.75186157226562;-45.73405456542969;121.41151068793403;0.9100000262260437;103.7109375;-1.3144931178275556;;-0.4056757554231703;-0.021168842911720276;-0.015196473337709904;0.02018340490758419;0.19939425225986618;-0.07043608345874272;-0.05285309499371256;-0.09107398401020277;
