track_uuid;t;alt;g_x;g_y;g_z;lat;m_x;m_y;m_z;long;speed;course;att_yaw;heading;att_roll;user_a_x;user_a_y;user_a_z;att_pitch;rot_rate_x;rot_rate_y;rot_rate_z;name
c89211c9-5358-43ff-add7-1d9716081707;1515137426.908;;-0.026097990572452545;0.00009532121475785971;-0.9996593594551086;;-64.26016235351562;-37.619476318359375;35.43965148925781;;;;0.00017457708216614317;;-0.026100954362339945;0.002294279634952545;-0.0008735194569453597;-0.018788490444421768;-0.00009532121287187645;-0.005123921937312454;-0.017731859169965582;0.025214276568652213;
c89211c9-5358-43ff-add7-1d9716081707;1515137426.918;;-0.026097990572452545;0.00009532121475785971;-0.9996593594551086;;-64.60940551757812;-37.26789855957031;34.089569091796875;;;;0.00017457708216614317;;-0.026100954362339945;0.002294279634952545;-0.0008735194569453597;-0.018788490444421768;-0.00009532121287187645;-0.005123921937312454;-0.017731859169965582;0.025214276568652213;
c89211c9-5358-43ff-add7-1d9716081707;1515137426.956;;-0.026075096800923347;0.00008725754742044955;-0.9996599555015564;;-63.736297607421875;-38.85002136230469;32.90824890136719;;;;0.00018723018535946766;;-0.026078052131191166;0.0005471415352076292;-0.00007199875108199194;-0.020481618121266365;-0.00008725754591597658;-0.008802812667147913;-0.014175740166382777;0.02647315281593267;
c89211c9-5358-43ff-add7-1d9716081707;1515137426.966;;-0.026005972176790237;0.00012097274884581566;-0.9996618032455444;;-64.60940551757812;-36.564727783203125;33.41453552246094;;;;0.00018676516931961668;;-0.026008904664937955;0.0009357822709716856;0.00030627334490418434;-0.020144127309322357;-0.00012097274958704267;-0.006362025528090292;-0.014162956993150396;0.027675570048103445;
c89211c9-5358-43ff-add7-1d9716081707;1515137426.976;;-0.025983501225709915;0.0001169319439213723;-0.9996623396873474;;-64.60940551757812;-38.32264709472656;32.73948669433594;;;;0.00019984892409014336;;-0.025986426716079918;0.00028769992059096694;-0.0015665169339627028;-0.022356066852808;-0.00011693194253555624;-0.005127650362838565;-0.01416375594147742;0.02646276648768136;
c89211c9-5358-43ff-add7-1d9716081707;1515137426.986;;-0.02597534842789173;0.00009882511221803725;-0.9996625781059265;;-62.68858337402344;-37.44367980957031;34.258331298828125;;;;0.00021317105990735304;;-0.025978270837752553;0.0011492975754663348;0.0015796417137607932;-0.020173847675323486;-0.00009882511400415924;-0.005127650362838565;-0.01416375594147742;0.02646276648768136;
c89211c9-5358-43ff-add7-1d9716081707;1515137426.996;;-0.02597534842789173;0.00009882511221803725;-0.9996625781059265;;-64.08554077148438;-37.44367980957031;33.920806884765625;;;;0.00021317105990735304;;-0.025978270837752553;0.0011492975754663348;0.0015796417137607932;-0.020173847675323486;-0.00009882511400415924;-0.005127650362838565;-0.01416375594147742;0.02646276648768136;
c89211c9-5358-43ff-add7-1d9716081707;1515137427.006;;-0.025976231321692467;0.0000757798261474818;-0.9996625781059265;;-64.95864868164062;-37.26789855957031;33.75205993652344;;;;0.00023249129951718488;;-0.025979154161112485;-0.000497765839099884;-0.0004114731855224818;-0.022538980469107628;-0.00007577982926629296;-0.007609450182683408;-0.01653290404721191;0.030071616080847734;
c89211c9-5358-43ff-add7-1d9716081707;1515137427.058;;-0.025999749079346657;0.00009750156459631398;-0.999661922454834;;-64.43478393554688;-37.79527282714844;34.258331298828125;;;;0.0002638725111405051;;-0.0260026801643075;-0.001313482061959803;0.0009553548879921436;-0.022036053240299225;-0.00009750156301057847;-0.007609450182683408;-0.01653290404721191;0.030071616080847734;
c89211c9-5358-43ff-add7-1d9716081707;1515137427.068;;-0.02596435323357582;0.00016582685930188745;-0.9996628761291504;;-65.30789184570312;-37.26789855957031;33.75205993652344;;;;0.00023087452101426686;;-0.025967271555959154;0.0004974330076947808;0.0009633235167711973;-0.02313377521932125;-0.0001658268566420557;-0.00999617515161242;-0.017762219206392486;0.021600100653305677;
c89211c9-5358-43ff-add7-1d9716081707;1515137427.108;;-0.025974072515964508;0.00020402070367708802;-0.9996625781059265;;-66.00636291503906;-36.91630554199219;33.75205993652344;;;;0.00013955842600912134;;-0.025976994664382743;-0.0026666750200092793;-0.0014552413485944271;-0.020692627876996994;-0.0002040207040542075;-0.009981261449507978;-0.014203703357828609;0.02042990767032486;
c89211c9-5358-43ff-add7-1d9716081707;1515137427.118;;-0.02599783055484295;0.000217052482184954;-0.9996619820594788;;-65.48249816894531;-36.037353515625;34.933380126953125;;;;0.00010671704438975088;;-0.026000760438619385;0.00011892417387571186;-0.0013462029164656997;-0.020510142669081688;-0.00021705248917685784;-0.007553523799791744;-0.016561666186984767;0.022815567374817842;
c89211c9-5358-43ff-add7-1d9716081707;1515137427.158;;-0.025983592495322227;0.00023046942078508437;-0.9996623396873474;;-63.21244812011719;-38.32264709472656;32.064453125;;;;0.00008716893006612373;;-0.025986517831294336;-0.00010893759463215247;0.001524291350506246;-0.02142530307173729;-0.00023046942508185713;-0.009990582513323255;-0.014198909667866466;0.02163924912132984;
c89211c9-5358-43ff-add7-1d9716081707;1515137427.168;;-0.025983592495322227;0.00023046942078508437;-0.9996623396873474;;-64.08554077148438;-37.79527282714844;33.58329772949219;;;;0.00008716893006612373;;-0.025986517831294336;-0.00010893759463215247;0.001524291350506246;-0.02142530307173729;-0.00023046942508185713;-0.010020409917532141;-0.015372298444155379;0.0252542239850034;
c89211c9-5358-43ff-add7-1d9716081707;1515137427.205;;-0.02599559910595417;0.00018902929150499403;-0.9996620416641235;;-64.95864868164062;-36.91630554199219;32.4019775390625;;;;0.00003508588691073084;;-0.025998529097228183;-0.0005699513130821288;-0.0010892978170886636;-0.020250679925084114;-0.00018902928627757915;-0.006317284421776961;-0.01537469528913645;0.021615813303737144;
c89211c9-5358-43ff-add7-1d9716081707;1515137427.215;;-0.02599559910595417;0.00018902929150499403;-0.9996620416641235;;-65.65711975097656;-37.97105407714844;32.4019775390625;;;;0.00003508588691073084;;-0.025998529097228183;-0.0005699513130821288;-0.0010892978170886636;-0.020250679925084114;-0.00018902928627757915;-0.007549795374265632;-0.014186126494634086;0.022841666353500618;
c89211c9-5358-43ff-add7-1d9716081707;1515137427.225;;-0.025987612083554268;0.00019636331126093864;-0.9996622204780579;;-63.56169128417969;-37.26789855957031;33.41453552246094;;;;0.00002849728913689736;;-0.025990538407929833;-0.0005626807687804103;-0.0028513926081359386;-0.02113548293709755;-0.00019636331631915014;-0.006324741272829183;-0.014182131752998968;0.022838204244083515;
c89211c9-5358-43ff-add7-1d9716081707;1515137427.235;;-0.025987612083554268;0.00019636331126093864;-0.9996622204780579;;-64.78402709960938;-38.49842834472656;33.24577331542969;;;;0.00002849728913689736;;-0.025990538407929833;-0.0005626807687804103;-0.0028513926081359386;-0.02113548293709755;-0.00019636331631915014;-0.006324741272829183;-0.014182131752998968;0.022838204244083515;
c89211c9-5358-43ff-add7-1d9716081707;1515137427.245;;-0.02584068663418293;0.00015460536815226078;-0.9996660351753235;;-64.43478393554688;-37.79527282714844;33.920806884765625;;;;0.000009442758413267911;;-0.02584356350931805;0.0023726695217192173;-0.0005665926728397608;-0.020277176052331924;-0.00015460537582724984;-0.007568437501896187;-0.0141765391147098;0.025260349255510583;
c89211c9-5358-43ff-add7-1d9716081707;1515137427.306;;-0.02583913318812847;0.00025016270228661597;-0.9996660947799683;;-64.26016235351562;-37.97105407714844;33.75205993652344;;;;0.000015881670760565874;;-0.025842010531784042;-0.0008332292782142758;0.0019471029518172145;-0.020033014938235283;-0.0002501627023810888;-0.006332198123881405;-0.012989568216861484;0.024060595184429885;
c89211c9-5358-43ff-add7-1d9716081707;1515137427.316;;-0.02583913318812847;0.00025016270228661597;-0.9996660947799683;;-64.43478393554688;-37.09210205078125;33.920806884765625;;;;0.000015881670760565874;;-0.025842010531784042;-0.0008332292782142758;0.0019471029518172145;-0.020033014938235283;-0.0002501627023810888;-0.0063359265494075155;-0.015365107909212165;0.02403449620574711;
c89211c9-5358-43ff-add7-1d9716081707;1515137427.351;;-0.02583172358572483;0.0003359064576216042;-0.9996662735939026;;-64.08554077148438;-36.740509033203125;33.58329772949219;;;;0.000015970841686496194;;-0.025834598379843858;-0.0009016747353598475;0.0010373844997957349;-0.022321665659546852;-0.00033590646064842166;-0.007549795374265632;-0.014186126494634086;0.022841666353500618;
c89211c9-5358-43ff-add7-1d9716081707;1515137427.361;;-0.02583172358572483;0.0003359064576216042;-0.9996662735939026;;-64.26016235351562;-37.26789855957031;33.41453552246094;;;;0.000015970841686496194;;-0.025834598379843858;-0.0009016747353598475;0.0010373844997957349;-0.022321665659546852;-0.00033590646064842166;-0.007549795374265632;-0.014186126494634086;0.022841666353500618;
c89211c9-5358-43ff-add7-1d9716081707;1515137427.371;;-0.025827698409557343;0.00021484798344317824;-0.9996663928031921;;-64.60940551757812;-37.619476318359375;35.102142333984375;;;;-0.00001641702542014491;;-0.025830572161847348;-0.0007836287259124219;-0.003251346992328763;-0.020368404686450958;-0.0002148479900615211;-0.01000922464095381;-0.014189322287942181;0.024057932023339806;
c89211c9-5358-43ff-add7-1d9716081707;1515137427.381;;-0.025770509615540504;0.00030179996974766254;-0.9996678233146667;;-64.60940551757812;-37.97105407714844;34.089569091796875;;;;-0.000010900597435903325;;-0.025773363580961207;0.0008681646431796253;0.0011477849911898375;-0.02041272632777691;-0.0003017999623441345;-0.010020409917532141;-0.015372298444155379;0.0252542239850034;
c89211c9-5358-43ff-add7-1d9716081707;1515137427.391;;-0.025745341554284096;0.00020266303909011185;-0.999668538570404;;-64.43478393554688;-37.09210205078125;33.24577331542969;;;;0.0000012587200057478026;;-0.02574818617705259;-0.0008659881423227489;-0.0022320819552987814;-0.020610418170690536;-0.0002026630398037022;-0.006337790762170571;-0.016552877755387507;0.02402144671640572;
c89211c9-5358-43ff-add7-1d9716081707;1515137427.401;;-0.025745341554284096;0.00020266303909011185;-0.999668538570404;;-63.910919189453125;-37.26789855957031;32.73948669433594;;;;0.0000012587200057478026;;-0.02574818617705259;-0.0008659881423227489;-0.0022320819552987814;-0.020610418170690536;-0.0002026630398037022;-0.006337790762170571;-0.016552877755387507;0.02402144671640572;
c89211c9-5358-43ff-add7-1d9716081707;1515137427.411;;-0.025722026824951172;0.00009370311454404145;-0.9996691346168518;;-64.60940551757812;-38.674224853515625;34.764617919921875;;;;0.000020677746414853294;;-0.025724863951882945;-0.00026369167608208954;-0.003053908236324787;-0.01916021667420864;-0.00009370311655597583;-0.006352704464275015;-0.014167750683112539;0.026466228597098462;
c89211c9-5358-43ff-add7-1d9716081707;1515137427.461;;-0.025802526623010635;0.000057233799452660605;-0.9996670484542847;;-64.60940551757812;-35.86155700683594;33.75205993652344;;;;0.00003925966094976689;;-0.02580539027922779;-0.0004273315717000514;-0.0005149974604137242;-0.019238581880927086;-0.000057233799960850816;-0.007560980650843965;-0.015369102650847283;0.024037958315164212;
c89211c9-5358-43ff-add7-1d9716081707;1515137427.508;;-0.025835908949375153;0.00011223118053749204;-0.9996662139892578;;-64.60940551757812;-37.619476318359375;33.07701110839844;;;;0.00005166045868994029;;-0.025838783942659278;-0.0011568902991712093;0.0011389895807951689;-0.02041437476873398;-0.00011223117780362124;-0.008797220028858748;-0.0165560735486956;0.02523771238624491;
c89211c9-5358-43ff-add7-1d9716081707;1515137427.518;;-0.025808824226260185;0.00011782194633269683;-0.9996668696403503;;-63.21244812011719;-37.97105407714844;34.427093505859375;;;;0.00004454847115444322;;-0.025811689888663926;0.0011353613808751106;-0.0002551510406192392;-0.021893778815865517;-0.0001178219474957786;-0.008791627390569582;-0.018936406931008423;0.02400227195655715;
c89211c9-5358-43ff-add7-1d9716081707;1515137427.528;;-0.025808824226260185;0.00011782194633269683;-0.9996668696403503;;-64.78402709960938;-38.85002136230469;33.920806884765625;;;;0.00004454847115444322;;-0.025811689888663926;0.0011353613808751106;-0.0002551510406192392;-0.021893778815865517;-0.0001178219474957786;-0.008791627390569582;-0.018936406931008423;0.02400227195655715;
c89211c9-5358-43ff-add7-1d9716081707;1515137427.538;;-0.025821922346949577;0.00009910274820867926;-0.9996665716171265;;-65.30789184570312;-36.91630554199219;33.41453552246094;;;;0.000031271118247546926;;-0.025824792974564737;-0.0008199235307984054;-0.000984112499281764;-0.022122997790575027;-0.0000991027513760217;-0.008774849475702081;-0.014190121236269206;0.02284512846291772;
c89211c9-5358-43ff-add7-1d9716081707;1515137427.548;;-0.025826498866081238;0.00010014925646828488;-0.9996664524078369;;-65.48249816894531;-38.49842834472656;34.595855712890625;;;;0.00003116965472535119;;-0.025829370628255167;-0.00026603121659718454;0.001975046005100012;-0.01977326162159443;-0.00010014925630024944;-0.0063564328898011255;-0.016543290375463218;0.026440129618415686;
c89211c9-5358-43ff-add7-1d9716081707;1515137427.558;;-0.025812122970819473;0.00010769429354695603;-0.9996668100357056;;-64.60940551757812;-37.26789855957031;32.73948669433594;;;;0.00003112739923631183;;-0.025814990709380883;0.0005435686907730997;0.00039584573823958635;-0.021466616541147232;-0.00010769429245168945;-0.007557252225317854;-0.012993562958496603;0.024064057293846988;
c89211c9-5358-43ff-add7-1d9716081707;1515137427.609;;-0.025829309597611427;0.00008897230873117223;-0.9996663928031921;;-63.21244812011719;-37.97105407714844;33.41453552246094;;;;0.000024899186235249126;;-0.02583218250020546;-0.0009956415742635727;-0.000027937152481172234;-0.02204689383506775;-0.00008897231203991123;-0.005123921937312454;-0.017731859169965582;0.025214276568652213;
c89211c9-5358-43ff-add7-1d9716081707;1515137427.619;;-0.02584308758378029;0.00003367575482116081;-0.9996660351753235;;-64.78402709960938;-38.1468505859375;33.920806884765625;;;;0.00003127561171910968;;-0.025845965122159215;-0.00044780608732253313;-0.001315414090640843;-0.020841801539063454;-0.00003367575612311672;-0.007568437501896187;-0.0141765391147098;0.025260349255510583;
c89211c9-5358-43ff-add7-1d9716081707;1515137427.657;;-0.025901662185788155;0.000029199731216067448;-0.9996644854545593;;-64.95864868164062;-37.619476318359375;35.102142333984375;;;;0.00003778004059929375;;-0.025904560059024383;-0.0023576144594699144;-0.00015127004007808864;-0.021209528669714928;-0.000029199732035368073;-0.0051052798096818995;-0.011797803629051026;0.02407018256435417;
c89211c9-5358-43ff-add7-1d9716081707;1515137427.667;;-0.0258935559540987;0.000023703096303506754;-0.9996647238731384;;-64.78402709960938;-36.740509033203125;33.920806884765625;;;;0.00003799985133983401;;-0.025896449704765113;0.0007623297860845923;-0.00009999704343499616;-0.021407682448625565;-0.00002370309587626633;-0.008787898965043471;-0.016560867238657743;0.024028370935239927;
c89211c9-5358-43ff-add7-1d9716081707;1515137427.708;;-0.0258935559540987;0.000023703096303506754;-0.9996647238731384;;-65.13327026367188;-37.09210205078125;33.24577331542969;;;;0.00003799985133983401;;-0.025896449704765113;0.0007623297860845923;-0.00009999704343499616;-0.021407682448625565;-0.00002370309587626633;-0.008787898965043471;-0.016560867238657743;0.024028370935239927;
c89211c9-5358-43ff-add7-1d9716081707;1515137427.718;;-0.025934534147381783;0.000057360815844731405;-0.9996636509895325;;-63.910919189453125;-36.91630554199219;32.73948669433594;;;;0.000004570081423574401;;-0.025937442003571776;0.0008490844629704952;0.0003851440560538322;-0.022339532151818275;-0.00005736081513707232;-0.008780442113991248;-0.017753430774795225;0.022805979994893557;
c89211c9-5358-43ff-add7-1d9716081707;1515137427.728;;-0.025934534147381783;0.000057360815844731405;-0.9996636509895325;;-64.60940551757812;-37.26789855957031;34.089569091796875;;;;0.000004570081423574401;;-0.025937442003571776;0.0008490844629704952;0.0003851440560538322;-0.022339532151818275;-0.00005736081513707232;-0.008780442113991248;-0.017753430774795225;0.022805979994893557;
c89211c9-5358-43ff-add7-1d9716081707;1515137427.738;;-0.025993432849645615;0.000057855009799823165;-0.9996621012687683;;-64.78402709960938;-38.1468505859375;34.258331298828125;;;;-0.000014883265894227617;;-0.025996361781285164;-0.001747045200318098;0.000003180149406034616;-0.020616818219423294;-0.000057855008189654244;-0.005101551384155789;-0.01536590685753919;0.022821692645325024;
c89211c9-5358-43ff-add7-1d9716081707;1515137427.748;;-0.026023566722869873;0.00009878459968604147;-0.9996613264083862;;-64.95864868164062;-38.32264709472656;34.427093505859375;;;;-0.000015186339267851722;;-0.026026504913073435;-0.0014117358950898051;0.0006946724024601281;-0.02192986197769642;-0.00009878459822131742;-0.008784170539517359;-0.014185327546307063;0.024054469913922703;
c89211c9-5358-43ff-add7-1d9716081707;1515137427.807;;-0.02606997638940811;0.00023006110859569162;-0.999660074710846;;-64.95864868164062;-37.97105407714844;32.73948669433594;;;;0.000010188564824910585;;-0.02607293188912576;-0.0004955741460435092;0.0015246996190398932;-0.02142755314707756;-0.00023006111508348202;-0.0063564328898011255;-0.016543290375463218;0.026440129618415686;
c89211c9-5358-43ff-add7-1d9716081707;1515137427.857;;-0.02606194280087948;0.00024414248764514923;-0.999660313129425;;-66.18098449707031;-36.38893127441406;34.258331298828125;;;;0.00000995742094767223;;-0.026064894080670767;0.0010375288547948003;0.0008239727467298508;-0.021595193073153496;-0.00024414248913973347;-0.007560980650843965;-0.015369102650847283;0.024037958315164212;
c89211c9-5358-43ff-add7-1d9716081707;1515137427.867;;-0.026047412306070328;0.00023951675393618643;-0.9996606707572937;;-63.736297607421875;-36.740509033203125;33.920806884765625;;;;0.000036000772204034746;;-0.026050359889059203;0.0000006592455292775412;-0.0005294337752275169;-0.021640589460730553;-0.00023951675824544473;-0.00635084025151196;-0.012979980836937199;0.02647927808643985;
c89211c9-5358-43ff-add7-1d9716081707;1515137427.922;;-0.026045728474855423;0.00025338883278891444;-0.9996607303619385;;-66.00636291503906;-37.97105407714844;35.43965148925781;;;;0.0000292626534927449;;-0.026048674411932832;0.0009602793725207448;-0.00031442398903891444;-0.02118278481066227;-0.00025338884896237393;-0.008806541092674024;-0.016551279858733458;0.02644705383724989;
c89211c9-5358-43ff-add7-1d9716081707;1515137427.955;;-0.026045728474855423;0.00025338883278891444;-0.9996607303619385;;-64.08554077148438;-37.09210205078125;33.24577331542969;;;;0.0000292626534927449;;-0.026048674411932832;0.0009602793725207448;-0.00031442398903891444;-0.02118278481066227;-0.00025338884896237393;-0.007534881672161189;-0.010627610646070209;0.021671473370519802;
c89211c9-5358-43ff-add7-1d9716081707;1515137427.965;;-0.026027360931038857;0.00015856388199608773;-0.9996612071990967;;-65.30789184570312;-37.26789855957031;33.41453552246094;;;;-0.0000027804556051444667;;-0.026030301517075315;-0.0004161189717706293;-0.002126947743818164;-0.019870031625032425;-0.0001585638841683759;-0.007568437501896187;-0.0141765391147098;0.025260349255510583;
c89211c9-5358-43ff-add7-1d9716081707;1515137428.022;;-0.025998450815677643;0.0001347360375802964;-0.9996619820594788;;-64.95864868164062;-39.37739562988281;34.089569091796875;;;;0.000004552094125241692;;-0.026001380690804102;-0.00042977085104212165;-0.0008671579416841269;-0.020876355469226837;-0.00013473603913435143;-0.005114600873497177;-0.011793009939088883;0.025279524015359153;
c89211c9-5358-43ff-add7-1d9716081707;1515137428.055;;-0.025998450815677643;0.0001347360375802964;-0.9996619820594788;;-63.03782653808594;-37.09210205078125;32.90824890136719;;;;0.000004552094125241692;;-0.026001380690804102;-0.00042977085104212165;-0.0008671579416841269;-0.020876355469226837;-0.00013473603913435143;-0.00876739262464986;-0.015382684772406688;0.02162273752257135;
c89211c9-5358-43ff-add7-1d9716081707;1515137428.065;;-0.025990473106503487;0.00014837905473541468;-0.9996621608734131;;-64.78402709960938;-37.09210205078125;33.920806884765625;;;;-0.000008549982671918274;;-0.025993399749268266;-0.002039924031123519;-0.00020941421098541468;-0.021135549992322922;-0.00014837905699252975;-0.010031595194110475;-0.016555274600368576;0.026450515946666992;
c89211c9-5358-43ff-add7-1d9716081707;1515137428.107;;-0.026001347228884697;0.00016291368228849024;-0.999661922454834;;-64.43478393554688;-38.1468505859375;32.57072448730469;;;;0.000003898784725806831;;-0.02600427788184985;-0.0005489459726959467;0.00015752088802400976;-0.021135834977030754;-0.00016291368085555712;-0.006345247613222793;-0.015360314219250023;0.025243837656752092;
c89211c9-5358-43ff-add7-1d9716081707;1515137428.117;;-0.026018425822257996;0.0001515810436103493;-0.9996614456176758;;-64.08554077148438;-37.79527282714844;33.920806884765625;;;;0.000023330184988559195;;-0.026021361827445175;-0.0007454915321432054;-0.000029510736567317508;-0.02060222066938877;-0.00015158104794195563;-0.006345247613222793;-0.015360314219250023;0.025243837656752092;
c89211c9-5358-43ff-add7-1d9716081707;1515137428.172;;-0.025956379249691963;0.00024222195497713983;-0.9996630549430847;;-65.65711975097656;-37.97105407714844;35.102142333984375;;;;0.00002308260993381079;;-0.025959294679208784;0.0008709278772585094;0.0016193502815440297;-0.02177555114030838;-0.0002422219630654929;-0.007560980650843965;-0.015369102650847283;0.024037958315164212;
c89211c9-5358-43ff-add7-1d9716081707;1515137428.206;;-0.02595461532473564;0.0002297845494467765;-0.9996631145477295;;-64.43478393554688;-38.85002136230469;33.920806884765625;;;;0.000010538209690553832;;-0.025957529989423325;0.0010370125528424978;0.001616528956219554;-0.023011464625597;-0.00022978454659463974;-0.007560980650843965;-0.015369102650847283;0.024037958315164212;
c89211c9-5358-43ff-add7-1d9716081707;1515137428.255;;-0.025940146297216415;0.00022450419783126563;-0.9996634721755981;;-64.26016235351562;-37.26789855957031;33.41453552246094;;;;0.000017294797068214658;;-0.025943056246838757;-0.0007932530716061592;0.00102671654894948;-0.022415995597839355;-0.00022450419270093604;-0.006343383400459738;-0.014172544373074683;0.02525688714609348;
c89211c9-5358-43ff-add7-1d9716081707;1515137428.265;;-0.026034701615571976;0.00017003387620206922;-0.9996610283851624;;-64.60940551757812;-36.91630554199219;33.75205993652344;;;;0.00002389475339455464;;-0.026037644018340907;-0.0023771640844643116;-0.0009482321329414845;-0.019198838621377945;-0.00017003387401353504;-0.006343383400459738;-0.014172544373074683;0.02525688714609348;
c89211c9-5358-43ff-add7-1d9716081707;1515137428.275;;-0.026034701615571976;0.00017003387620206922;-0.9996610283851624;;-63.910919189453125;-38.32264709472656;33.75205993652344;;;;0.00002389475339455464;;-0.026037644018340907;-0.0023771640844643116;-0.0009482321329414845;-0.019198838621377945;-0.00017003387401353504;-0.006343383400459738;-0.014172544373074683;0.02525688714609348;
c89211c9-5358-43ff-add7-1d9716081707;1515137428.356;;-0.026039090007543564;-0.00009577082528267056;-0.9996609091758728;;-64.60940551757812;-38.674224853515625;34.089569091796875;;;;0.00004948556170903154;;-0.02604203408459265;-0.0005417211796157062;-0.002925469307228923;-0.021136809140443802;0.00009577082848289101;-0.00635456867703807;-0.01535552052928788;0.026453179107757074;
c89211c9-5358-43ff-add7-1d9716081707;1515137428.366;;-0.026039090007543564;-0.00009577082528267056;-0.9996609091758728;;-64.26016235351562;-37.26789855957031;34.427093505859375;;;;0.00004948556170903154;;-0.02604203408459265;-0.0005417211796157062;-0.002925469307228923;-0.021136809140443802;0.00009577082848289101;-0.007564709076370076;-0.011800999422359121;0.02528644823419336;
c89211c9-5358-43ff-add7-1d9716081707;1515137428.407;;-0.02599133737385273;-0.00009420634887646884;-0.9996621608734131;;-64.60940551757812;-37.619476318359375;34.764617919921875;;;;0.00003716146333857737;;-0.025994265274779882;-0.0008488728199154139;-0.002515046624466777;-0.021013494580984116;0.00009420635260608288;-0.006330333911118349;-0.011801798370686144;0.024073644673771273;
c89211c9-5358-43ff-add7-1d9716081707;1515137428.455;;-0.02596076764166355;0.000006648054295510519;-0.9996629357337952;;-66.00636291503906;-37.26789855957031;35.102142333984375;;;;0.00006205905345577977;;-0.025963684863642877;0.0006311782635748386;0.001503972103819251;-0.020463380962610245;-0.000006648054256322538;-0.01003345940687353;-0.017743044446543916;0.026437466457325604;
c89211c9-5358-43ff-add7-1d9716081707;1515137428.465;;-0.025977810844779015;-0.000024657503672642633;-0.9996625185012817;;-64.60940551757812;-36.91630554199219;33.07701110839844;;;;0.00007525852044359256;;-0.025980734157626337;-0.0012438681442290545;-0.0005704352515749633;-0.02067744731903076;0.00002465750276806652;-0.006343383400459738;-0.014172544373074683;0.02525688714609348;
c89211c9-5358-43ff-add7-1d9716081707;1515137428.509;;-0.025941571220755577;0.000010630850738380104;-0.9996634721755981;;-64.26016235351562;-37.619476318359375;34.427093505859375;;;;0.0000882259398889169;;-0.025944480861648248;-0.00021199329057708383;0.000614979478996247;-0.02095116302371025;-0.00001063085073011274;-0.007575894352948409;-0.012983975578572319;0.026482740195856953;
c89211c9-5358-43ff-add7-1d9716081707;1515137428.519;;-0.025941571220755577;0.000010630850738380104;-0.9996634721755981;;-64.43478393554688;-37.44367980957031;34.595855712890625;;;;0.0000882259398889169;;-0.025944480861648248;-0.00021199329057708383;0.000614979478996247;-0.02095116302371025;-0.00001063085073011274;-0.006352704464275015;-0.014167750683112539;0.026466228597098462;
c89211c9-5358-43ff-add7-1d9716081707;1515137428.573;;-0.025981523096561432;0.00006072548058000393;-0.9996623992919922;;-64.43478393554688;-37.79527282714844;34.933380126953125;;;;0.00010106624302877547;;-0.02598444712828723;0.00033149862429127097;0.0006869551725685596;-0.02069280296564102;-0.000060725480592287184;-0.0063359265494075155;-0.015365107909212165;0.02403449620574711;
c89211c9-5358-43ff-add7-1d9716081707;1515137428.609;;-0.02593241259455681;0.00004779143273481168;-0.9996637105941772;;-63.910919189453125;-38.32264709472656;33.41453552246094;;;;0.0001013939467808603;;-0.025935319546989844;0.0003739403036888689;-0.00018512053065933287;-0.0189062487334013;-0.000047791433570910054;-0.007581486991237576;-0.01654728511709834;0.02644359172783279;
c89211c9-5358-43ff-add7-1d9716081707;1515137428.619;;-0.025956176221370697;0.00010663848661351949;-0.9996630549430847;;-65.13327026367188;-37.09210205078125;34.258331298828125;;;;0.00011371183906267653;;-0.025959091831863512;-0.0008535156375728548;0.0009767354931682348;-0.01994446851313114;-0.0001066384872833054;-0.011243599806205536;-0.014188523339615157;0.025270735583761892;
c89211c9-5358-43ff-add7-1d9716081707;1515137428.657;;-0.025926565751433372;0.0001284958707401529;-0.9996638298034668;;-64.26016235351562;-36.564727783203125;34.764617919921875;;;;0.00011314837905744737;;-0.02592947176296202;0.000246023409999907;-0.0001437546598026529;-0.019745338708162308;-0.00012849586464183625;-0.008797220028858748;-0.0165560735486956;0.02523771238624491;
c89211c9-5358-43ff-add7-1d9716081707;1515137428.708;;-0.02591424062848091;0.0000978453244897537;-0.9996641874313354;;-64.43478393554688;-38.49842834472656;34.595855712890625;;;;0.00013177106594316234;;-0.02591714216053323;0.0004778392903972417;-0.0014558775583282113;-0.02069105952978134;-0.00009784532615352844;-0.008806541092674024;-0.016551279858733458;0.02644705383724989;
c89211c9-5358-43ff-add7-1d9716081707;1515137428.718;;-0.02598627097904682;0.000142699180287309;-0.9996622800827026;;-64.26016235351562;-37.26789855957031;34.089569091796875;;;;0.00015045270923644535;;-0.02598919650301261;-0.0020593833178281784;0.0006660166545771062;-0.019197573885321617;-0.00014269918752935965;-0.007585215416763686;-0.012979181888610176;0.027692081646861936;
c89211c9-5358-43ff-add7-1d9716081707;1515137428.773;;-0.025970513001084328;0.00009560401667840779;-0.9996626973152161;;-64.26016235351562;-37.619476318359375;33.41453552246094;;;;0.00016350544923293846;;-0.02597343305326472;-0.0005187445203773677;-0.0014231186360120773;-0.02127235382795334;-0.00009560402011698108;-0.005120193511786344;-0.015356319477614903;0.02524037554733499;
c89211c9-5358-43ff-add7-1d9716081707;1515137428.783;;-0.025970513001084328;0.00009560401667840779;-0.9996626973152161;;-66.00636291503906;-36.91630554199219;33.41453552246094;;;;0.00016350544923293846;;-0.02597343305326472;-0.0005187445203773677;-0.0014231186360120773;-0.02127235382795334;-0.00009560402011698108;-0.005120193511786344;-0.015356319477614903;0.02524037554733499;
c89211c9-5358-43ff-add7-1d9716081707;1515137428.823;;-0.02598578669130802;0.00007899339107098058;-0.9996622800827026;;-64.95864868164062;-36.91630554199219;32.73948669433594;;;;0.00018957625626263546;;-0.025988711608187904;-0.0007323522004298866;-0.001009779516607523;-0.021669477224349976;-0.00007899339015530172;-0.006347111825985848;-0.016548084065425364;0.025230788167410704;
c89211c9-5358-43ff-add7-1d9716081707;1515137428.858;;-0.025976279750466347;0.00003623832162702456;-0.9996625781059265;;-63.03782653808594;-37.79527282714844;32.57072448730469;;;;0.00019592745909272587;;-0.025979201826132867;0.00046358341933228076;-0.0010738359997048974;-0.01965506747364998;-0.000036238320116735854;-0.0038988678358760046;-0.017727864428330464;0.02521081445923511;
c89211c9-5358-43ff-add7-1d9716081707;1515137428.906;;-0.02599215693771839;0.00003566857776604593;-0.9996621608734131;;-65.83174133300781;-37.44367980957031;32.57072448730469;;;;0.00020277636220325334;;-0.02599508361453929;-0.0013058186741545796;0.00034580114879645407;-0.022493615746498108;-0.00003566857606150578;-0.006343383400459738;-0.014172544373074683;0.02525688714609348;
c89211c9-5358-43ff-add7-1d9716081707;1515137428.916;;-0.02598046511411667;0.0000742408083169721;-0.999662458896637;;-64.78402709960938;-36.740509033203125;33.920806884765625;;;;0.00019644973836657178;;-0.025983388576781643;-0.0004477583570405841;0.0011464622803032398;-0.021150540560483932;-0.00007424080823665667;-0.006343383400459738;-0.014172544373074683;0.02525688714609348;
c89211c9-5358-43ff-add7-1d9716081707;1515137428.958;;-0.026026761159300804;0.00011089122563134879;-0.9996612668037415;;-64.95864868164062;-35.509979248046875;33.07701110839844;;;;0.00018332227148000154;;-0.02602970065874472;-0.0016221646219491959;0.000911447627004236;-0.020556654781103134;-0.0001108912242972571;-0.0075591164380809095;-0.014181332804671943;0.0240510078045056;
c89211c9-5358-43ff-add7-1d9716081707;1515137429.008;;-0.026024946942925453;0.00011236213322263211;-0.9996612668037415;;-64.95864868164062;-37.619476318359375;33.75205993652344;;;;0.00019623865870930872;;-0.026027885155083773;-0.00011335850285831839;-0.0002496912202332169;-0.021151700988411903;-0.0001123621305067302;-0.006343383400459738;-0.014172544373074683;0.02525688714609348;
c89211c9-5358-43ff-add7-1d9716081707;1515137429.018;;-0.02602945826947689;0.00011384120443835855;-0.9996611475944519;;-64.95864868164062;-36.91630554199219;33.75205993652344;;;;0.00020908531137907042;;-0.026032398650558793;0.0008219375158660114;-0.000007029677362879738;-0.023349083960056305;-0.00011384120267186457;-0.007570301714659242;-0.01536430896088514;0.025247299766169195;
c89211c9-5358-43ff-add7-1d9716081707;1515137429.056;;-0.02602945826947689;0.00011384120443835855;-0.9996611475944519;;-65.30789184570312;-37.26789855957031;34.089569091796875;;;;0.00020908531137907042;;-0.026032398650558793;0.0008219375158660114;-0.000007029677362879738;-0.023349083960056305;-0.00011384120267186457;-0.007570301714659242;-0.01536430896088514;0.025247299766169195;
c89211c9-5358-43ff-add7-1d9716081707;1515137429.066;;-0.026046646758913994;0.00010837914305739105;-0.9996607303619385;;-66.00636291503906;-36.91630554199219;34.089569091796875;;;;0.00020906902592997308;;-0.026049592697607916;0.002471816958859563;-0.0008713185670785606;-0.02135062962770462;-0.00010837914005131964;-0.007553523799791744;-0.016561666186984767;0.022815567374817842;
c89211c9-5358-43ff-add7-1d9716081707;1515137429.107;;-0.026063835248351097;0.00010291696526110172;-0.9996602535247803;;-63.736297607421875;-37.44367980957031;32.23321533203125;;;;0.0002090527194491738;;-0.02606678674856016;0.0004748458450194448;0.0021401250269263983;-0.022098757326602936;-0.00010291696660262894;-0.005122057724549399;-0.016544089323790243;0.0252273260579936;
c89211c9-5358-43ff-add7-1d9716081707;1515137429.156;;-0.026093827560544014;0.00004980081939720549;-0.9996594786643982;;-64.08554077148438;-37.09210205078125;34.595855712890625;;;;0.00018994580577544166;;-0.02609678983708283;-0.0010515585308894515;-0.0009958457667380571;-0.022069018334150314;-0.00004980081885962789;-0.0039025962614021156;-0.014159761199842302;0.026459304378264256;
c89211c9-5358-43ff-add7-1d9716081707;1515137429.208;;-0.026085607707500458;0.00002517161556170322;-0.9996597170829773;;-63.56169128417969;-38.674224853515625;33.41453552246094;;;;0.000203542065669256;;-0.026088567904859746;-0.0019142698729410768;0.0005394035833887756;-0.022496050223708153;-0.00002517161584006512;-0.0075516595870286874;-0.015373896340809426;0.02282861686415923;
c89211c9-5358-43ff-add7-1d9716081707;1515137429.218;;-0.02609027735888958;0.000025344234018120915;-0.9996595978736877;;-63.21244812011719;-37.97105407714844;34.764617919921875;;;;0.0001777668760948138;;-0.026093237438594406;0.0001503347884863615;-0.0003000024298671633;-0.021107621490955353;-0.000025344234835467878;-0.007533017459398134;-0.015383483720733712;0.020409933962149265;
c89211c9-5358-43ff-add7-1d9716081707;1515137429.258;;-0.026088722050189972;0.000024637960450490937;-0.9996596574783325;;-63.21244812011719;-37.97105407714844;34.764617919921875;;;;0.00012631158609064657;;-0.02609168232727173;-0.0005988989141769707;-0.002374491421505809;-0.01878824457526207;-0.00002463796019553842;-0.0063079633579616835;-0.015379488979098592;0.02040647185273216;
c89211c9-5358-43ff-add7-1d9716081707;1515137429.306;;-0.026087062433362007;0.0000315429933834821;-0.9996596574783325;;-65.13327026367188;-38.1468505859375;33.58329772949219;;;;0.00010689181342315559;;-0.026090022130078702;-0.00009701919043436646;-0.0001230957277584821;-0.021138055250048637;-0.000031542994286919966;-0.00635456867703807;-0.01535552052928788;0.026453179107757074;
c89211c9-5358-43ff-add7-1d9716081707;1515137429.316;;-0.02609148621559143;0.000013670563021150883;-0.999659538269043;;-64.78402709960938;-37.44367980957031;33.58329772949219;;;;0.000126634273812935;;-0.026094447886507374;0.001234919880516827;0.0012222913792356849;-0.02045152522623539;-0.000013670563234309579;-0.00635456867703807;-0.01535552052928788;0.026453179107757074;
c89211c9-5358-43ff-add7-1d9716081707;1515137429.359;;-0.02613537199795246;0.00000306373863168119;-0.9996584057807922;;-63.56169128417969;-37.619476318359375;34.427093505859375;;;;0.00012682070800019375;;-0.026138348960301237;-0.0018034687964245677;-0.0002472043561283499;-0.021169833838939667;-0.0000030637386684201754;-0.010014817279242975;-0.011808988905629357;0.025293372453027565;
c89211c9-5358-43ff-add7-1d9716081707;1515137429.369;;-0.02612105756998062;0.000030174616767908446;-0.9996587634086609;;-62.86320495605469;-37.97105407714844;34.089569091796875;;;;0.0001263995466986133;;-0.026124028547649454;-0.0012074337573722005;0.0017703624907881021;-0.02008608728647232;-0.000030174617444766745;-0.010014817279242975;-0.011808988905629357;0.025293372453027565;
c89211c9-5358-43ff-add7-1d9716081707;1515137429.424;;-0.026113050058484077;0.000044029929995303974;-0.99965900182724;;-65.83174133300781;-38.49842834472656;34.933380126953125;;;;0.0001197752606367068;;-0.026116017947103005;-0.0014748425455763936;-0.0012647330295294523;-0.019261904060840607;-0.00004402993064076045;-0.008786034752280415;-0.015373097392482403;0.024041420424581315;
c89211c9-5358-43ff-add7-1d9716081707;1515137429.458;;-0.02611755020916462;0.000032245592592516914;-0.9996588826179504;;-64.43478393554688;-37.44367980957031;34.595855712890625;;;;0.0001264943692843015;;-0.026120520158068372;-0.002462162170559168;-0.0005663032061420381;-0.01926201954483986;-0.00003224559201462061;-0.005131378788364676;-0.0165392956338281;0.026436667508998583;
c89211c9-5358-43ff-add7-1d9716081707;1515137429.507;;-0.026115650311112404;0.000021106721760588698;-0.9996589422225952;;-64.78402709960938;-37.44367980957031;34.933380126953125;;;;0.00015259559937305872;;-0.026118620246791745;0.00020622691954486072;-0.0001889534032670781;-0.02011646330356598;-0.000021106721505740764;-0.005138835639416898;-0.015346732097690618;0.02765905844934495;
c89211c9-5358-43ff-add7-1d9716081707;1515137429.517;;-0.026115650311112404;0.000021106721760588698;-0.9996589422225952;;-64.43478393554688;-38.1468505859375;33.24577331542969;;;;0.00015259559937305872;;-0.026118620246791745;0.00020622691954486072;-0.0001889534032670781;-0.02011646330356598;-0.000021106721505740764;-0.0075591164380809095;-0.014181332804671943;0.0240510078045056;
c89211c9-5358-43ff-add7-1d9716081707;1515137429.557;;-0.02607809565961361;-0.00007790397648932412;-0.9996598958969116;;-65.30789184570312;-37.619476318359375;33.07701110839844;;;;0.00015306760722153057;;-0.02608105306705091;0.000031344079616246745;-0.0016158216167241335;-0.018223395571112633;0.00007790397974713381;-0.00635084025151196;-0.012979980836937199;0.02647927808643985;
c89211c9-5358-43ff-add7-1d9716081707;1515137429.567;;-0.02607809565961361;-0.00007790397648932412;-0.9996598958969116;;-63.736297607421875;-38.1468505859375;33.920806884765625;;;;0.00015306760722153057;;-0.02608105306705091;0.000031344079616246745;-0.0016158216167241335;-0.018223395571112633;0.00007790397974713381;-0.008772985262939027;-0.013002351390093864;0.02285817795225911;
c89211c9-5358-43ff-add7-1d9716081707;1515137429.608;;-0.026076387614011765;-0.0000638259225524962;-0.9996599555015564;;-63.910919189453125;-38.32264709472656;32.73948669433594;;;;0.00015281477681262473;;-0.026079343177640938;-0.0010384819470345974;0.000048567133489996195;-0.021351400762796402;0.00006382592563145479;-0.0063359265494075155;-0.015365107909212165;0.02403449620574711;
c89211c9-5358-43ff-add7-1d9716081707;1515137429.657;;-0.026007426902651787;-0.00004687393447966315;-0.9996617436408997;;-63.910919189453125;-37.97105407714844;33.75205993652344;;;;0.00014027917654095353;;-0.026010359259584514;0.00046421310980804265;0.00042834365740418434;-0.020586663857102394;0.00004687393628936868;-0.003887682559297672;-0.016544888272117267;0.024014522497571515;
c89211c9-5358-43ff-add7-1d9716081707;1515137429.667;;-0.026011889800429344;-0.00007844649371691048;-0.9996616244316101;;-64.26016235351562;-38.32264709472656;33.07701110839844;;;;0.00014101816323978735;;-0.026014823697062078;0.0004686758911702782;0.0004599162202794105;-0.020586783066391945;0.00007844649174179323;-0.006343383400459738;-0.014172544373074683;0.02525688714609348;
c89211c9-5358-43ff-add7-1d9716081707;1515137429.709;;-0.026010112836956978;-0.00008393552707275376;-0.9996616840362549;;-64.60940551757812;-37.97105407714844;33.41453552246094;;;;0.0001412217029428784;;-0.02601304668443763;0.0004211234045214951;-0.0009536621510051191;-0.018816716969013214;0.00008393552468810505;-0.006343383400459738;-0.014172544373074683;0.02525688714609348;
c89211c9-5358-43ff-add7-1d9716081707;1515137429.756;;-0.026022814214229584;-0.000029246186386444606;-0.9996613264083862;;-65.48249816894531;-37.79527282714844;33.58329772949219;;;;0.00013483866600468199;;-0.026025751630758293;-0.0008479127427563071;0.001021067495457828;-0.02197561413049698;0.000029246186563784076;-0.008806541092674024;-0.016551279858733458;0.02644705383724989;
c89211c9-5358-43ff-add7-1d9716081707;1515137429.798;;-0.02603997476398945;-0.000014269895473262295;-0.9996609091758728;;-63.910919189453125;-38.32264709472656;32.73948669433594;;;;0.00016013020518819987;;-0.02604291793151926;-0.0014868812868371606;0.000029528684535762295;-0.019275255501270294;0.00001426989553014275;-0.008806541092674024;-0.016551279858733458;0.02644705383724989;
c89211c9-5358-43ff-add7-1d9716081707;1515137429.808;;-0.026031753048300743;-0.000025417561118956655;-0.9996610879898071;;-64.60940551757812;-37.26789855957031;33.07701110839844;;;;0.00018630639366021772;;-0.02603469354976841;-0.00012181149941170588;0.00010171150643145666;-0.020938249304890633;0.000025417561266645774;-0.007570301714659242;-0.01536430896088514;0.025247299766169195;
c89211c9-5358-43ff-add7-1d9716081707;1515137429.845;;-0.026036318391561508;-0.00001763230284268502;-0.9996609687805176;;-62.33934020996094;-37.44367980957031;33.920806884765625;;;;0.00019257634797036435;;-0.02603926125983548;-0.0002850916644092649;0.0009484184556640685;-0.019336195662617683;0.000017632302298453597;-0.007570301714659242;-0.01536430896088514;0.025247299766169195;
c89211c9-5358-43ff-add7-1d9716081707;1515137429.889;;-0.02604728564620018;-0.000010490924069017638;-0.9996607303619385;;-63.56169128417969;-36.564727783203125;33.75205993652344;;;;0.0001794641027938108;;-0.026050232688801814;-0.0004114540643058717;0.0003004079044330865;-0.020587701350450516;0.000010490924161653218;-0.008776713688465138;-0.015377891082444545;0.022832078973576333;
c89211c9-5358-43ff-add7-1d9716081707;1515137429.899;;-0.026037994772195816;0.000007772102435410488;-0.9996609687805176;;-64.08554077148438;-38.1468505859375;33.58329772949219;;;;0.00018580644280790414;;-0.026040937491662336;-0.0004512628074735403;0.0001753333635861054;-0.022311702370643616;-0.000007772102352082675;-0.006347111825985848;-0.016548084065425364;0.025230788167410704;
c89211c9-5358-43ff-add7-1d9716081707;1515137429.942;;-0.026120886206626892;0.0000847831615828909;-0.9996587634086609;;-64.26016235351562;-37.619476318359375;34.764617919921875;;;;0.00020524125277314863;;-0.02612385801120198;-0.0021689089480787516;0.0013800605665892363;-0.01880434714257717;-0.00008478315839138382;-0.0075796227784745195;-0.015359515270922998;0.026456641217174177;
c89211c9-5358-43ff-add7-1d9716081707;1515137429.991;;-0.02619466744363308;0.00010270316124660894;-0.9996568560600281;;-66.00636291503906;-37.97105407714844;33.41453552246094;;;;0.00019212609792144757;;-0.026197665029193375;-0.0017441752133890986;0.00020247262727934867;-0.020774662494659424;-0.0001027031618703608;-0.0075460669487395216;-0.01775422972312225;0.02159317643447147;
c89211c9-5358-43ff-add7-1d9716081707;1515137430.039;;-0.0261860154569149;0.0001272002118639648;-0.9996570944786072;;-64.26016235351562;-37.619476318359375;34.764617919921875;;;;0.00017901944424800187;;-0.026189008999490424;-0.00016591418534517288;0.0003458222490735352;-0.021903589367866516;-0.00012720021545443544;-0.007553523799791744;-0.016561666186984767;0.022815567374817842;
c89211c9-5358-43ff-add7-1d9716081707;1515137430.049;;-0.02616792544722557;0.00013671908527612686;-0.9996575713157654;;-63.03782653808594;-38.1468505859375;33.920806884765625;;;;0.00018529627062940324;;-0.02617091248431923;-0.000046675097109982744;0.00003112759441137314;-0.02019413188099861;-0.0001367190862792347;-0.008795355816095692;-0.01536830370252026;0.025250761875586298;
c89211c9-5358-43ff-add7-1d9716081707;1515137430.091;;-0.026174217462539673;0.00007528844435000792;-0.999657392501831;;-64.95864868164062;-38.32264709472656;33.41453552246094;;;;0.00019163956314965791;;-0.0261772062132517;-0.0007270295172929764;-0.0015248734271153808;-0.020957229658961296;-0.00007528844379841192;-0.007570301714659242;-0.01536430896088514;0.025247299766169195;
c89211c9-5358-43ff-add7-1d9716081707;1515137430.139;;-0.026171447709202766;0.00008471179899061099;-0.9996574521064758;;-64.43478393554688;-38.1468505859375;33.58329772949219;;;;0.00019182386529240672;;-0.026174436711074178;-0.0011570430360734463;0.00003735851350938901;-0.021979497745633125;-0.00008471180262202633;-0.006343383400459738;-0.014172544373074683;0.02525688714609348;
c89211c9-5358-43ff-add7-1d9716081707;1515137430.149;;-0.026150858029723167;0.0000913788317120634;-0.9996579885482788;;-64.78402709960938;-37.79527282714844;34.258331298828125;;;;0.00016619071456027825;;-0.026153839755105508;-0.00046046910574659705;0.0010377715807408094;-0.018377885222434998;-0.00009137883162783603;-0.006311691783487795;-0.011811385750610429;0.021654961771761308;
c89211c9-5358-43ff-add7-1d9716081707;1515137430.159;;-0.026150858029723167;0.0000913788317120634;-0.9996579885482788;;-64.60940551757812;-37.619476318359375;34.427093505859375;;;;0.00016619071456027825;;-0.026153839755105508;-0.00046046910574659705;0.0010377715807408094;-0.018377885222434998;-0.00009137883162783603;-0.006311691783487795;-0.011811385750610429;0.021654961771761308;
c89211c9-5358-43ff-add7-1d9716081707;1515137430.207;;-0.026168042793869972;0.00011962624557781965;-0.9996575713157654;;-65.30789184570312;-38.32264709472656;31.051895141601562;;;;0.00019761934085206495;;-0.02617103070984508;-0.0005348389386199415;-0.0010198948439210653;-0.01912601850926876;-0.00011962624835677785;-0.005150020915995231;-0.016529708253903815;0.028855350411008545;
c89211c9-5358-43ff-add7-1d9716081707;1515137430.241;;-0.0261466633528471;0.000160607261932455;-0.9996581077575684;;-64.95864868164062;-37.619476318359375;32.73948669433594;;;;0.00023654296787614863;;-0.026149643773588062;0.00008465176506433636;0.0011363897938281298;-0.01817942038178444;-0.00016060726445751662;-0.008815862156489301;-0.016546486168771316;0.02765639528825487;
c89211c9-5358-43ff-add7-1d9716081707;1515137430.29;;-0.026109371334314346;0.000022972526494413614;-0.9996591210365295;;-64.43478393554688;-37.09210205078125;33.58329772949219;;;;0.0002624270055933382;;-0.026112338251513274;0.000047358349547721446;-0.0031815418042242527;-0.023045986890792847;-0.000022972525806147388;-0.008774849475702081;-0.014190121236269206;0.02284512846291772;
c89211c9-5358-43ff-add7-1d9716081707;1515137430.3;;-0.026079580187797546;0.00009973741543944925;-0.9996598362922668;;-63.910919189453125;-37.97105407714844;34.089569091796875;;;;0.00023606475284694036;;-0.02608253724324812;0.0002617082209326327;0.0011820008512586355;-0.021717699244618416;-0.00009973741519468973;-0.010014817279242975;-0.0177526318264682;0.024018783555315643;
c89211c9-5358-43ff-add7-1d9716081707;1515137430.341;;-0.02610957995057106;0.0001399553002556786;-0.9996590614318848;;-63.910919189453125;-36.91630554199219;33.75205993652344;;;;0.00023486779039017476;;-0.026112548439838422;-0.0011120990384370089;-0.0004298723069950938;-0.02113865315914154;-0.00013995530076699699;-0.010020409917532141;-0.015372298444155379;0.0252542239850034;
c89211c9-5358-43ff-add7-1d9716081707;1515137430.39;;-0.026114244014024734;0.00016709488409105688;-0.9996589422225952;;-63.56169128417969;-37.26789855957031;32.73948669433594;;;;0.00023425298898783846;;-0.026117212782918637;0.0009372418862767518;-0.0007621876429766417;-0.01968919299542904;-0.00016709488426630778;-0.0063489760387489035;-0.017735853911600704;0.025217738678069316;
c89211c9-5358-43ff-add7-1d9716081707;1515137430.4;;-0.026125051081180573;0.00015554101264569908;-0.9996586441993713;;-65.48249816894531;-37.44367980957031;32.57072448730469;;;;0.00024735515945737145;;-0.026128023272835615;-0.001615428365767002;0.0009430918144062161;-0.021276388317346573;-0.00015554101806413085;-0.010011088853716864;-0.015377092134117521;0.02404488253399842;
c89211c9-5358-43ff-add7-1d9716081707;1515137430.439;;-0.026125051081180573;0.00015554101264569908;-0.9996586441993713;;-63.736297607421875;-37.09210205078125;32.23321533203125;;;;0.00024735515945737145;;-0.026128023272835615;-0.001615428365767002;0.0009430918144062161;-0.021276388317346573;-0.00015554101806413085;-0.010011088853716864;-0.015377092134117521;0.02404488253399842;
c89211c9-5358-43ff-add7-1d9716081707;1515137430.489;;-0.026102785021066666;0.00017607584595680237;-0.9996592402458191;;-64.43478393554688;-38.85002136230469;34.933380126953125;;;;0.00021504628376536015;;-0.026105750848701315;-0.0002949211630038917;0.00003754720455617644;-0.019658377394080162;-0.00017607585019357658;-0.0063210128473030714;-0.011806592060648286;0.02286430322276629;
c89211c9-5358-43ff-add7-1d9716081707;1515137430.499;;-0.026076648384332657;0.00014862502575851977;-0.9996599555015564;;-64.26016235351562;-37.97105407714844;33.07701110839844;;;;0.00021511601372306227;;-0.026079605776208648;-0.00006165627564769238;-0.0005758710904046893;-0.021275123581290245;-0.00014862502831155893;-0.006345247613222793;-0.015360314219250023;0.025243837656752092;
c89211c9-5358-43ff-add7-1d9716081707;1515137430.541;;-0.026068605482578278;0.00014943875430617481;-0.9996601343154907;;-65.30789184570312;-36.91630554199219;31.389404296875;;;;0.00020881407102700262;;-0.02607155932838996;0.0015782503178343177;0.0016510983696207404;-0.021305430680513382;-0.00014943875741499707;-0.00633406233664446;-0.014177338063036825;0.024047545695088497;
c89211c9-5358-43ff-add7-1d9716081707;1515137430.59;;-0.02607954666018486;0.00017028064758051187;-0.9996598362922668;;-64.43478393554688;-37.44367980957031;33.24577331542969;;;;0.00021472280111598056;;-0.026082504711705302;-0.0005775577737949789;-0.0011010668240487576;-0.020466485992074013;-0.0001702806413564387;-0.010031595194110475;-0.016555274600368576;0.026450515946666992;
c89211c9-5358-43ff-add7-1d9716081707;1515137430.6;;-0.0260652806609869;0.0001769565569702536;-0.9996602535247803;;-64.95864868164062;-38.32264709472656;31.389404296875;;;;0.00018902647669638006;;-0.026068234097827016;0.00046103354543447495;-0.0013061069184914231;-0.020481374114751816;-0.0001769565564578309;-0.008772985262939027;-0.013002351390093864;0.02285817795225911;
c89211c9-5358-43ff-add7-1d9716081707;1515137430.641;;-0.02605723962187767;0.00017777035827748477;-0.9996604323387146;;-63.910919189453125;-35.86155700683594;32.064453125;;;;0.00018272453507111355;;-0.02606018930698442;-0.001561169046908617;-0.0016273553483188152;-0.021488245576620102;-0.00017777036082807597;-0.007547931161502577;-0.012998356648458746;0.022854715842842006;
c89211c9-5358-43ff-add7-1d9716081707;1515137430.689;;-0.026061754673719406;0.00019273358338978142;-0.999660313129425;;-63.56169128417969;-38.32264709472656;34.427093505859375;;;;0.00020816728661078652;;-0.0260647058272473;-0.0012819963740184903;0.0006464998004958034;-0.019855674356222153;-0.0001927335860316813;-0.007588943842289797;-0.015354721580960856;0.027665982668179157;
c89211c9-5358-43ff-add7-1d9716081707;1515137430.699;;-0.026060044765472412;0.0002135591785190627;-0.9996603727340698;;-64.08554077148438;-37.79527282714844;32.90824890136719;;;;0.00021421570509296778;;-0.026062996468046107;-0.0003681772795971483;0.00019842811161652207;-0.02162565477192402;-0.00021355918593444814;-0.01124546401896859;-0.015376293185790497;0.025257686094420504;
c89211c9-5358-43ff-add7-1d9716081707;1515137430.74;;-0.026060044765472412;0.0002135591785190627;-0.9996603727340698;;-65.30789184570312;-38.674224853515625;33.41453552246094;;;;0.00021421570509296778;;-0.026062996468046107;-0.0003681772795971483;0.00019842811161652207;-0.02162565477192402;-0.00021355918593444814;-0.0026738137344395553;-0.011780226765856503;0.02648194124752993;
c89211c9-5358-43ff-add7-1d9716081707;1515137430.789;;-0.0260391216725111;0.0001760890008881688;-0.9996609091758728;;-63.03782653808594;-36.740509033203125;32.90824890136719;;;;0.00023471226606088013;;-0.026042065565102128;-0.00040436090785078704;-0.0015036036493256688;-0.018054544925689697;-0.00017608900762623213;-0.007574030140185354;-0.017739848653235822;0.02522120078748642;
c89211c9-5358-43ff-add7-1d9716081707;1515137430.799;;-0.026050064712762833;0.00019019041792489588;-0.9996606111526489;;-64.95864868164062;-37.619476318359375;34.089569091796875;;;;0.0002343355181918314;;-0.02605301228800771;0.001208757166750729;0.0005117138498462737;-0.021152367815375328;-0.00019019041819018123;-0.008797220028858748;-0.0165560735486956;0.02523771238624491;
c89211c9-5358-43ff-add7-1d9716081707;1515137430.84;;-0.02606736682355404;0.00019734205852728337;-0.9996601939201355;;-63.56169128417969;-38.674224853515625;33.75205993652344;;;;0.00022116563774275268;;-0.02607031986577496;-0.0005287021049298346;0.0003519743331708014;-0.020328843966126442;-0.00019734205331871802;-0.006337790762170571;-0.016552877755387507;0.02402144671640572;
c89211c9-5358-43ff-add7-1d9716081707;1515137430.889;;-0.026078300550580025;0.00019143964163959026;-0.9996598958969116;;-62.86320495605469;-37.97105407714844;33.41453552246094;;;;0.00020836872114350657;;-0.026081258516326485;0.0008707826491445303;-0.0019614591728895903;-0.018894802778959274;-0.0001914396387346442;-0.006347111825985848;-0.016548084065425364;0.025230788167410704;
c89211c9-5358-43ff-add7-1d9716081707;1515137430.899;;-0.02608918957412243;0.00017923179257195443;-0.9996595978736877;;-64.26016235351562;-37.619476318359375;34.764617919921875;;;;0.00020216111391530418;;-0.026092150545860573;-0.0013613725313916802;-0.0015372639754787087;-0.019917422905564308;-0.0001792317978494255;-0.00510900823520801;-0.014173343321401705;0.024044083585671394;
c89211c9-5358-43ff-add7-1d9716081707;1515137430.942;;-0.026093779131770134;0.00016679819964338094;-0.9996594786643982;;-64.43478393554688;-37.44367980957031;33.58329772949219;;;;0.00018958577892698304;;-0.026096741657534207;-0.000822725472971797;0.0012980455067008734;-0.02066522091627121;-0.00016679820682139729;-0.0075591164380809095;-0.014181332804671943;0.0240510078045056;
c89211c9-5358-43ff-add7-1d9716081707;1515137430.952;;-0.026073137298226357;0.00017390090215485543;-0.9996600151062012;;-64.26016235351562;-37.619476318359375;32.73948669433594;;;;0.00017683405602125736;;-0.026076092496998316;-0.0024455406237393618;-0.0006621821667067707;-0.02014588564634323;-0.00017390090149412566;-0.0075591164380809095;-0.014181332804671943;0.0240510078045056;
c89211c9-5358-43ff-add7-1d9716081707;1515137431.006;;-0.02606518566608429;0.0001940658112289384;-0.9996602535247803;;-63.38706970214844;-38.1468505859375;34.595855712890625;;;;0.00016363967275226173;;-0.026068138044927473;-0.0003782973508350551;0.001560694887302816;-0.022068288177251816;-0.0001940658116717935;-0.008774849475702081;-0.014190121236269206;0.02284512846291772;
c89211c9-5358-43ff-add7-1d9716081707;1515137431.042;;-0.02607595920562744;0.00018946868658531457;-0.9996599555015564;;-65.30789184570312;-36.91630554199219;32.73948669433594;;;;0.00018946757919053935;;-0.026078916343956576;0.0002580872969701886;0.0020535732619464397;-0.02235848642885685;-0.00018946868193031182;-0.007588943842289797;-0.015354721580960856;0.027665982668179157;
c89211c9-5358-43ff-add7-1d9716081707;1515137431.052;;-0.0260932557284832;0.00020336068700999022;-0.9996594786643982;;-63.56169128417969;-37.26789855957031;33.75205993652344;;;;0.00018258314736455903;;-0.026096217301160744;-0.0005180739099159837;-0.0005848304135724902;-0.021397637203335762;-0.0002033606894687214;-0.006324741272829183;-0.014182131752998968;0.022838204244083515;
c89211c9-5358-43ff-add7-1d9716081707;1515137431.09;;-0.02629312500357628;-0.000027330808734404854;-0.9996542930603027;;-64.60940551757812;-38.32264709472656;33.41453552246094;;;;0.0001694480902663186;;-0.026296155924835984;-0.0015541655011475086;-0.0016511359717696905;-0.01929713971912861;0.00002733080893209585;-0.006347111825985848;-0.022491726986264206;0.023956199269698778;
c89211c9-5358-43ff-add7-1d9716081707;1515137431.14;;-0.02627861686050892;-0.000031957271858118474;-0.9996546506881714;;-64.43478393554688;-38.1468505859375;33.24577331542969;;;;0.00019556530752428309;;-0.026281642736329373;-0.0015686716651543975;-0.0016465095104649663;-0.019296759739518166;0.000031957271540248;-0.006360161315327237;-0.012975187146975056;0.027688619537444833;
c89211c9-5358-43ff-add7-1d9716081707;1515137431.15;;-0.02627861686050892;-0.000031957271858118474;-0.9996546506881714;;-63.910919189453125;-37.619476318359375;35.102142333984375;;;;0.00019556530752428309;;-0.026281642736329373;-0.0015686716651543975;-0.0016465095104649663;-0.019296759739518166;0.000031957271540248;-0.006345247613222793;-0.015360314219250023;0.025243837656752092;
c89211c9-5358-43ff-add7-1d9716081707;1515137431.206;;-0.02626863308250904;-0.000048365887778345495;-0.9996548891067505;;-64.95864868164062;-36.91630554199219;34.089569091796875;;;;0.0002284311474969666;;-0.026271654849671814;0.00014558581460732967;-0.0002568099007476121;-0.021646350622177124;0.00004836588737476454;-0.005127650362838565;-0.01416375594147742;0.02646276648768136;
c89211c9-5358-43ff-add7-1d9716081707;1515137431.241;;-0.02626863308250904;-0.000048365887778345495;-0.9996548891067505;;-64.26016235351562;-37.619476318359375;32.73948669433594;;;;0.0002284311474969666;;-0.026271654849671814;0.00014558581460732967;-0.0002568099007476121;-0.021646350622177124;0.00004836588737476454;-0.00880467687991097;-0.015363510012558118;0.02646010332659128;
c89211c9-5358-43ff-add7-1d9716081707;1515137431.289;;-0.02629665844142437;-0.00005189888543100096;-0.9996541738510132;;-65.83174133300781;-36.740509033203125;33.920806884765625;;;;0.0002541353563753409;;-0.02629968951344677;-0.001184420776553452;0.00031129829585552216;-0.02427159994840622;0.000051898883728802705;-0.005122057724549399;-0.016544089323790243;0.0252273260579936;
c89211c9-5358-43ff-add7-1d9716081707;1515137431.299;;-0.02629665844142437;-0.00005189888543100096;-0.9996541738510132;;-63.910919189453125;-37.97105407714844;32.064453125;;;;0.0002541353563753409;;-0.02629968951344677;-0.001184420776553452;0.00031129829585552216;-0.02427159994840622;0.000051898883728802705;-0.00635456867703807;-0.01535552052928788;0.026453179107757074;
c89211c9-5358-43ff-add7-1d9716081707;1515137431.339;;-0.026313800364732742;-0.0000634453899692744;-0.9996537566184998;;-64.08554077148438;-37.79527282714844;33.24577331542969;;;;0.0002671823498924872;;-0.026316838410619492;0.00023653070093132555;0.0004143975384067744;-0.019465532153844833;0.00006344538913332127;-0.0063359265494075155;-0.015365107909212165;0.02403449620574711;
c89211c9-5358-43ff-add7-1d9716081707;1515137431.349;;-0.026331037282943726;-0.00006238418427528813;-0.9996532797813416;;-64.60940551757812;-38.32264709472656;31.7269287109375;;;;0.0002670480890534107;;-0.026334081818233063;-0.00014296200242824852;0.00015393691137433052;-0.020427290350198746;0.00006238418544672592;-0.0063359265494075155;-0.015365107909212165;0.02403449620574711;
c89211c9-5358-43ff-add7-1d9716081707;1515137431.392;;-0.026341905817389488;-0.00007437680324073881;-0.9996529817581177;;-64.78402709960938;-37.09210205078125;32.57072448730469;;;;0.00026729038827249824;;-0.026344953526260904;0.0003256710770074278;0.00012015317042823881;-0.020213954150676727;0.00007437680424186398;-0.005122057724549399;-0.016544089323790243;0.0252273260579936;
c89211c9-5358-43ff-add7-1d9716081707;1515137431.402;;-0.02635905332863331;-0.00009266485722037032;-0.9996525645256042;;-65.13327026367188;-37.44367980957031;32.90824890136719;;;;0.0002740539865950069;;-0.02636210702682864;-0.000237015905440785;-0.0013569201109930873;-0.02024492621421814;0.00009266485707490759;-0.005122057724549399;-0.016544089323790243;0.0252273260579936;
c89211c9-5358-43ff-add7-1d9716081707;1515137431.456;;-0.026376288384199142;-0.00009160376794170588;-0.999652087688446;;-64.43478393554688;-37.79527282714844;33.58329772949219;;;;0.00027391975249612755;;-0.026379348578055205;-0.0018829881446436048;-0.0008086647721938789;-0.022763080894947052;0.0000916037690659398;-0.0063210128473030714;-0.01775023498148713;0.02158971432505437;
c89211c9-5358-43ff-add7-1d9716081707;1515137431.491;;-0.026393605396151543;-0.00009794379002414644;-0.9996516108512878;;-62.68858337402344;-37.44367980957031;33.24577331542969;;;;0.0002481895596135785;;-0.02639667022097925;-0.0016367920907214284;-0.000970171473454684;-0.020779894664883614;0.00009794378780048097;-0.0063210128473030714;-0.01775023498148713;0.02158971432505437;
