track_uuid;t;alt;g_x;g_y;g_z;lat;m_x;m_y;m_z;long;speed;course;att_yaw;heading;att_roll;user_a_x;user_a_y;user_a_z;att_pitch;rot_rate_x;rot_rate_y;rot_rate_z;name
6aefcdd8-84d1-4978-b452-61677426993a;1515137566.061;;-0.19346261024475098;-0.007330696564167738;-0.9810802340507507;;-77.18205261230469;-40.78373718261719;14.850906372070312;;;;0.00208722203535649;;-0.1946955050964306;-0.005298374220728874;-0.0034114904701709747;-0.02223089709877968;0.007330762346049183;-0.005079180830999123;-0.012999954545112793;0.020429108721997838;
6aefcdd8-84d1-4978-b452-61677426993a;1515137566.071;;-0.19346261024475098;-0.007330696564167738;-0.9810802340507507;;-76.83280944824219;-41.48689270019531;17.888580322265625;;;;0.00208722203535649;;-0.1946955050964306;-0.005298374220728874;-0.0034114904701709747;-0.02223089709877968;0.007330762346049183;-0.005079180830999123;-0.012999954545112793;0.020429108721997838;
6aefcdd8-84d1-4978-b452-61677426993a;1515137566.081;;-0.1934710592031479;-0.007333633955568075;-0.981078565120697;;-76.48356628417969;-42.1900634765625;16.538497924804688;;;;0.0020867358384890795;;-0.19470413267840367;-0.00472533842548728;-0.00023472533212043345;-0.02452140487730503;0.007333699676250942;-0.006347111825985848;-0.016548084065425364;0.025230788167410704;
6aefcdd8-84d1-4978-b452-61677426993a;1515137566.091;;-0.1934756487607956;-0.007325396873056889;-0.9810777306556702;;-75.78507995605469;-41.48689270019531;17.888580322265625;;;;0.0020897250552287844;;-0.19470879519077305;-0.005834656301885843;0.001527056796476245;-0.019837796688079834;0.007325462550302677;-0.005099687171392734;-0.014178137011363848;0.02283474213466641;
6aefcdd8-84d1-4978-b452-61677426993a;1515137566.101;;-0.19345307350158691;-0.007316787261515856;-0.9810822606086731;;-75.26123046875;-41.662689208984375;16.707260131835938;;;;0.002080688715701867;;-0.19468576594928633;-0.004194027278572321;0.0012132712872698903;-0.02312917821109295;0.007316852461571043;-0.010007360428190754;-0.013001552441766841;0.024070981512681194;
6aefcdd8-84d1-4978-b452-61677426993a;1515137566.111;;-0.19343678653240204;-0.007308111991733313;-0.9810855388641357;;-78.22976684570312;-42.1900634765625;17.213546752929688;;;;0.0021043757966072063;;-0.19466915639400398;-0.005064802709966898;-0.0005959405680187047;-0.0252316165715456;0.007308177260538081;-0.007568437501896187;-0.0141765391147098;0.025260349255510583;
6aefcdd8-84d1-4978-b452-61677426993a;1515137566.121;;-0.1934266984462738;-0.007294331211596727;-0.9810876250267029;;-77.70590209960938;-40.95951843261719;16.707260131835938;;;;0.0021204387594268544;;-0.1946588547285207;-0.0034116737078875303;-0.0003350634651724249;-0.023749424144625664;0.007294395726557643;-0.007555388012554799;-0.011805793112321264;0.024077106783188376;
6aefcdd8-84d1-4978-b452-61677426993a;1515137566.131;;-0.19342274963855743;-0.007301062811166048;-0.9810883402824402;;-77.35667419433594;-42.0142822265625;16.369735717773438;;;;0.002133854125736144;;-0.1946548423029162;-0.0057197087444365025;-0.000709801388438791;-0.023580847308039665;0.007301127884112916;-0.006343383400459738;-0.014172544373074683;0.02525688714609348;
6aefcdd8-84d1-4978-b452-61677426993a;1515137566.141;;-0.19344976544380188;-0.007310402113944292;-0.9810829162597656;;-77.35667419433594;-42.0142822265625;16.707260131835938;;;;0.002134299115382633;;-0.19468238802148696;-0.004990777000784874;0.000306617992464453;-0.024333925917744637;0.007310467251366911;-0.006347111825985848;-0.016548084065425364;0.025230788167410704;
6aefcdd8-84d1-4978-b452-61677426993a;1515137566.151;;-0.1934582144021988;-0.007318435702472925;-0.9810812473297119;;-76.48356628417969;-41.83848571777344;16.876022338867188;;;;0.0021412644854695733;;-0.19469100817727056;-0.006950729060918093;0.0005282746278680861;-0.023465897887945175;0.007318500978091074;-0.006337790762170571;-0.016552877755387507;0.02402144671640572;
6aefcdd8-84d1-4978-b452-61677426993a;1515137566.161;;-0.1934582144021988;-0.007318435702472925;-0.9810812473297119;;-77.53128051757812;-41.83848571777344;16.876022338867188;;;;0.0021412644854695733;;-0.19469100817727056;-0.006950729060918093;0.0005282746278680861;-0.023465897887945175;0.007318500978091074;-0.006337790762170571;-0.016552877755387507;0.02402144671640572;
6aefcdd8-84d1-4978-b452-61677426993a;1515137566.171;;-0.193448007106781;-0.007337972987443209;-0.9810830950737;;-76.30894470214844;-42.717437744140625;17.044784545898438;;;;0.002157238522625627;;-0.1946806332995677;-0.005419796798378229;-0.0003829742781817913;-0.024669475853443146;0.007338038839898786;-0.003891410984823783;-0.012976785043629103;0.02526301241660066;
6aefcdd8-84d1-4978-b452-61677426993a;1515137566.181;;-0.19343160092830658;-0.007357507012784481;-0.9810861945152283;;-75.43585205078125;-42.541656494140625;16.20098876953125;;;;0.002173282240625177;;-0.194663939121047;-0.005237843841314316;-0.0029726934153586626;-0.02245386131107807;0.007357573171391723;-0.0051257861500755095;-0.01297598609530208;0.026475815977022747;
6aefcdd8-84d1-4978-b452-61677426993a;1515137566.191;;-0.1934213638305664;-0.00736811850219965;-0.9810881018638611;;-76.65818786621094;-41.31111145019531;16.707260131835938;;;;0.0021678380363468323;;-0.19465352590551374;-0.006682400591671467;-0.0009479214786551893;-0.02376418001949787;0.0073681851469030064;-0.006311691783487795;-0.011811385750610429;0.021654961771761308;
6aefcdd8-84d1-4978-b452-61677426993a;1515137566.235;;-0.193411186337471;-0.007349295075982809;-0.981090247631073;;-76.83280944824219;-42.1900634765625;15.18841552734375;;;;0.0021435541732368456;;-0.19464311896573877;-0.006692570634186268;0.00066594552481547;-0.022022532299160957;0.007349361402166602;-0.01000922464095381;-0.014189322287942181;0.024057932023339806;
6aefcdd8-84d1-4978-b452-61677426993a;1515137566.268;;-0.1934134066104889;-0.007357324939221144;-0.9810897707939148;;-75.95970153808594;-41.662689208984375;15.6947021484375;;;;0.0021505893795837356;;-0.19464540451443563;-0.003150305477902293;0.0005519053665921092;-0.02429659105837345;0.007357391467416919;-0.006326605485592238;-0.015369901599174307;0.022825154754742127;
6aefcdd8-84d1-4978-b452-61677426993a;1515137566.301;;-0.19343431293964386;-0.007357667200267315;-0.9810856580734253;;-76.83280944824219;-42.1900634765625;16.20098876953125;;;;0.002162480124121369;;-0.19466670040128772;-0.005692894570529461;0.001544068451039493;-0.02390398271381855;0.007357733700815341;-0.008806541092674024;-0.016551279858733458;0.02644705383724989;
6aefcdd8-84d1-4978-b452-61677426993a;1515137566.311;;-0.1934489607810974;-0.007369519677013159;-0.9810826778411865;;-77.70590209960938;-41.662689208984375;16.0322265625;;;;0.002183239059595113;;-0.19468165984137945;-0.005647715181112289;-0.00006151047273306176;-0.02416636236011982;0.007369586616641247;-0.00635456867703807;-0.01535552052928788;0.026453179107757074;
6aefcdd8-84d1-4978-b452-61677426993a;1515137566.368;;-0.19343876838684082;-0.007367322221398354;-0.9810847043991089;;-77.18205261230469;-42.89323425292969;15.18841552734375;;;;0.0021753068269746057;;-0.19467127055986203;-0.003643743460997939;0.0011112185893580317;-0.024744171649217606;0.007367388992188876;-0.006322877060066128;-0.012994361906823628;0.022851253733424903;
6aefcdd8-84d1-4978-b452-61677426993a;1515137566.378;;-0.1934473216533661;-0.007342037279158831;-0.9810832142829895;;-76.83280944824219;-42.1900634765625;16.876022338867188;;;;0.0021823614393801146;;-0.19467995230439744;-0.006412283517420292;0.00009411235805600882;-0.023997988551855087;0.007342103179299141;-0.011249192444494701;-0.017751832878141176;0.025231587115737728;
6aefcdd8-84d1-4978-b452-61677426993a;1515137566.419;;-0.19346827268600464;-0.007329569198191166;-0.9810791611671448;;-77.18205261230469;-41.83848571777344;15.18841552734375;;;;0.002191763745291348;;-0.19470127586375832;-0.004224606789648533;0.0006157018942758441;-0.024627631530165672;0.0073296347520981344;-0.008787898965043471;-0.016560867238657743;0.024028370935239927;
6aefcdd8-84d1-4978-b452-61677426993a;1515137566.451;;-0.19344565272331238;-0.007310728542506695;-0.9810837507247925;;-75.95970153808594;-42.0142822265625;17.044784545898438;;;;0.002167526012066532;;-0.19467819539407827;-0.005712063517421484;0.002168516628444195;-0.02456199750304222;0.0073107937735859265;-0.00876366419912375;-0.013007145080056006;0.021648836501254126;
6aefcdd8-84d1-4978-b452-61677426993a;1515137566.461;;-0.19344565272331238;-0.007310728542506695;-0.9810837507247925;;-76.30894470214844;-43.42060852050781;17.382308959960938;;;;0.002167526012066532;;-0.19467819539407827;-0.005712063517421484;0.002168516628444195;-0.02456199750304222;0.0073107937735859265;-0.00876366419912375;-0.013007145080056006;0.021648836501254126;
6aefcdd8-84d1-4978-b452-61677426993a;1515137566.502;;-0.19341887533664703;-0.0073396265506744385;-0.9810888171195984;;-77.00743103027344;-41.662689208984375;17.044784545898438;;;;0.00215145514246728;;-0.19465095202301422;-0.0056472839787602425;-0.00027450936613604426;-0.02362614870071411;0.00733969246991325;-0.007540474310450355;-0.014190920184596228;0.021632324902495635;
6aefcdd8-84d1-4978-b452-61677426993a;1515137566.512;;-0.19341887533664703;-0.0073396265506744385;-0.9810888171195984;;-75.78507995605469;-42.541656494140625;17.213546752929688;;;;0.00215145514246728;;-0.19465095202301422;-0.0056472839787602425;-0.00027450936613604426;-0.02362614870071411;0.00733969246991325;-0.007540474310450355;-0.014190920184596228;0.021632324902495635;
6aefcdd8-84d1-4978-b452-61677426993a;1515137566.568;;-0.19339852035045624;-0.00733514130115509;-0.9810928702354431;;-76.65818786621094;-43.06903076171875;17.719818115234375;;;;0.0021681973099503594;;-0.1946301981109801;-0.006735750008374453;-0.001347109442576766;-0.02305752784013748;0.007335207264507727;-0.007564709076370076;-0.011800999422359121;0.02528644823419336;
6aefcdd8-84d1-4978-b452-61677426993a;1515137566.578;;-0.19339852035045624;-0.00733514130115509;-0.9810928702354431;;-77.18205261230469;-42.89323425292969;16.20098876953125;;;;0.0021681973099503594;;-0.1946301981109801;-0.006735750008374453;-0.001347109442576766;-0.02305752784013748;0.007335207264507727;-0.007564709076370076;-0.011800999422359121;0.02528644823419336;
6aefcdd8-84d1-4978-b452-61677426993a;1515137566.588;;-0.19340701401233673;-0.00732776615768671;-0.9810912609100342;;-74.9119873046875;-41.31111145019531;17.382308959960938;;;;0.002185201055207563;;-0.19463884480456276;-0.0038738702423870564;-0.000484733609482646;-0.023623721674084663;0.007327831926797464;-0.007570301714659242;-0.01536430896088514;0.025247299766169195;
6aefcdd8-84d1-4978-b452-61677426993a;1515137566.653;;-0.19341550767421722;-0.00729865487664938;-0.9810897707939148;;-76.13432312011719;-42.89323425292969;16.20098876953125;;;;0.002178299327928274;;-0.19464746183847143;-0.004674082156270742;0.0019275613594800234;-0.02522735297679901;0.007298719891660329;-0.010011088853716864;-0.015377092134117521;0.02404488253399842;
6aefcdd8-84d1-4978-b452-61677426993a;1515137566.663;;-0.19344259798526764;-0.007292584981769323;-0.9810844659805298;;-76.30894470214844;-42.717437744140625;17.044784545898438;;;;0.0021887825888942058;;-0.19467506038742807;-0.00299905170686543;-0.0003825857420451939;-0.022623393684625626;0.007292649802790459;-0.007562844863607021;-0.016556872497022625;0.024024908825822824;
6aefcdd8-84d1-4978-b452-61677426993a;1515137566.701;;-0.19363932311534882;-0.007559829857200384;-0.9810436367988586;;-75.95970153808594;-42.717437744140625;16.707260131835938;;;;0.002173215475445903;;-0.19487596998813142;-0.005304771475493908;-0.0008325041271746159;-0.024205364286899567;0.007559901993003081;-0.006324741272829183;-0.014182131752998968;0.022838204244083515;
6aefcdd8-84d1-4978-b452-61677426993a;1515137566.735;;-0.19360849261283875;-0.007144595496356487;-0.9810528755187988;;-76.13432312011719;-42.1900634765625;18.226104736328125;;;;0.00218374204570502;;-0.19484394658690346;-0.004603175912052393;0.0013157380744814873;-0.023952027782797813;0.007144656309828522;-0.007568437501896187;-0.0141765391147098;0.025260349255510583;
6aefcdd8-84d1-4978-b452-61677426993a;1515137566.768;;-0.1936952769756317;-0.006986366119235754;-0.9810368418693542;;-76.65818786621094;-41.662689208984375;16.707260131835938;;;;0.0021865576335591045;;-0.19493219128387115;-0.00495888851583004;0.00048612194950692356;-0.02271679975092411;0.006986423153456269;-0.008772985262939027;-0.013002351390093864;0.02285817795225911;
6aefcdd8-84d1-4978-b452-61677426993a;1515137566.802;;-0.1936974823474884;-0.006980344653129578;-0.9810364842414856;;-76.65818786621094;-42.0142822265625;15.6947021484375;;;;0.0021645436314922687;;-0.19493441866308428;-0.0037512565031647682;-0.0008474139031022787;-0.02514333464205265;0.006980401561142516;-0.0075516595870286874;-0.015373896340809426;0.02282861686415923;
6aefcdd8-84d1-4978-b452-61677426993a;1515137566.812;;-0.19371221959590912;-0.006955040618777275;-0.9810337424278259;;-75.43585205078125;-43.24481201171875;17.213546752929688;;;;0.0021714450708209656;;-0.19494941610149188;-0.004880925640463829;-0.003680335357785225;-0.021956980228424072;0.006955096667649879;-0.008793491603332636;-0.014180533856344919;0.025263811364927686;
6aefcdd8-84d1-4978-b452-61677426993a;1515137566.868;;-0.19355322420597076;-0.00702645955607295;-0.9810646176338196;;-76.83280944824219;-42.1900634765625;16.876022338867188;;;;0.0021642972398435377;;-0.1947874451402541;-0.0039107720367610455;-0.000511382648255676;-0.02523726411163807;0.007026517224302156;-0.0051052798096818995;-0.01774144654988987;0.022795593666642248;
6aefcdd8-84d1-4978-b452-61677426993a;1515137566.878;;-0.19355538487434387;-0.007037057541310787;-0.9810641407966614;;-76.83280944824219;-41.83848571777344;17.551071166992188;;;;0.002158639327011081;;-0.19478965642794252;-0.0023216938134282827;0.001070871134288609;-0.02485629729926586;0.007037115698219542;-0.006322877060066128;-0.012994361906823628;0.022851253733424903;
6aefcdd8-84d1-4978-b452-61677426993a;1515137566.938;;-0.19348138570785522;-0.007018044590950012;-0.9810788631439209;;-75.6104736328125;-41.31111145019531;17.719818115234375;;;;0.002158631174511643;;-0.19471421371238468;-0.004486142657697201;0.000014260367606766522;-0.025650281459093094;0.007018102098494104;-0.005110872447971066;-0.015361113167577045;0.024031034096330006;
6aefcdd8-84d1-4978-b452-61677426993a;1515137566.948;;-0.1935051679611206;-0.00706468615680933;-0.981073796749115;;-76.83280944824219;-42.1900634765625;15.86346435546875;;;;0.002167103101846121;;-0.1947385080980813;-0.004828575067222118;-0.0006867790943942964;-0.02335122786462307;0.007064744829500919;-0.008784170539517359;-0.014185327546307063;0.024054469913922703;
6aefcdd8-84d1-4978-b452-61677426993a;1515137566.958;;-0.19350729882717133;-0.007080384064465761;-0.981073260307312;;-76.83280944824219;-42.541656494140625;16.538497924804688;;;;0.002168908068115718;;-0.19474069960474222;-0.005467312876135111;0.000168152735568583;-0.0244809128344059;0.0070804431774250205;-0.005110872447971066;-0.015361113167577045;0.024031034096330006;
6aefcdd8-84d1-4978-b452-61677426993a;1515137566.99;;-0.19351570308208466;-0.007087091449648142;-0.9810715913772583;;-76.48356628417969;-41.48689270019531;15.86346435546875;;;;0.0021820182178853326;;-0.19474927926367924;-0.005352102220058441;0.002311090473085642;-0.023353466764092445;0.007087150580485567;-0.007568437501896187;-0.0141765391147098;0.025260349255510583;
6aefcdd8-84d1-4978-b452-61677426993a;1515137567;;-0.19349929690361023;-0.007087379228323698;-0.9810748100280762;;-77.18205261230469;-42.541656494140625;17.213546752929688;;;;0.0021941641341295336;;-0.1947325602492644;-0.005643163342028856;0.0015942150494083762;-0.02483033575117588;0.007087438586901201;-0.006339654974933626;-0.011797004680724001;0.025282986124776256;
6aefcdd8-84d1-4978-b452-61677426993a;1515137567.01;;-0.19349531829357147;-0.007086379453539848;-0.9810755848884583;;-75.95970153808594;-41.662689208984375;16.369735717773438;;;;0.0022124794830905266;;-0.19472850585648688;-0.005387734621763229;-0.0007108618156053126;-0.023868242278695107;0.007086438727326261;-0.0075796227784745195;-0.015359515270922998;0.026456641217174177;
6aefcdd8-84d1-4978-b452-61677426993a;1515137567.02;;-0.19348512589931488;-0.007096890825778246;-0.9810775518417358;;-75.95970153808594;-41.31111145019531;16.707260131835938;;;;0.002239663705381177;;-0.19471812518233247;-0.006405012682080269;-0.0002578457642812282;-0.023179661482572556;0.007096950373754793;-0.0075591164380809095;-0.014181332804671943;0.0240510078045056;
6aefcdd8-84d1-4978-b452-61677426993a;1515137567.03;;-0.19348512589931488;-0.007096890825778246;-0.9810775518417358;;-75.6104736328125;-42.717437744140625;17.044784545898438;;;;0.002239663705381177;;-0.19471812518233247;-0.006405012682080269;-0.0002578457642812282;-0.023179661482572556;0.007096950373754793;-0.0075591164380809095;-0.014181332804671943;0.0240510078045056;
6aefcdd8-84d1-4978-b452-61677426993a;1515137567.04;;-0.19349977374076843;-0.007090792525559664;-0.9810746908187866;;-76.30894470214844;-42.717437744140625;17.382308959960938;;;;0.002250214659459741;;-0.1947330528490189;-0.005047592334449291;-0.0016372351674363017;-0.02472364343702793;0.007090851946127172;-0.00635456867703807;-0.01535552052928788;0.026453179107757074;
6aefcdd8-84d1-4978-b452-61677426993a;1515137567.05;;-0.19348958134651184;-0.0070846788585186005;-0.9810767769813538;;-78.05514526367188;-42.717437744140625;16.0322265625;;;;0.002261045938860097;;-0.19472265622892265;-0.003989653196185827;-0.00030057475669309497;-0.021196812391281128;0.007084738062322352;-0.007570301714659242;-0.01536430896088514;0.025247299766169195;
6aefcdd8-84d1-4978-b452-61677426993a;1515137567.06;;-0.19349807500839233;-0.007070877589285374;-0.9810751676559448;;-77.35667419433594;-42.36585998535156;17.382308959960938;;;;0.0022767322647748232;;-0.19473129555678645;-0.004484710283577442;-0.00299992342479527;-0.026630515232682228;0.007070936376155235;-0.008802812667147913;-0.014175740166382777;0.02647315281593267;
6aefcdd8-84d1-4978-b452-61677426993a;1515137567.07;;-0.19349409639835358;-0.0070507340133190155;-0.9810761213302612;;-78.75363159179688;-42.36585998535156;15.6947021484375;;;;0.0022585210882140935;;-0.194727201514686;-0.004595511592924595;0.00035212532384321094;-0.024142399430274963;0.007050792444596356;-0.009999903577138532;-0.014194115977904324;0.022848590572334824;
6aefcdd8-84d1-4978-b452-61677426993a;1515137567.08;;-0.19350245594978333;-0.0070395926013588905;-0.9810745120048523;;-76.13432312011719;-41.48689270019531;15.86346435546875;;;;0.002228794428930998;;-0.1947357097009023;-0.004999137949198484;-0.00042195533751510084;-0.022648608312010765;0.007039650703406861;-0.00876366419912375;-0.013007145080056006;0.021648836501254126;
6aefcdd8-84d1-4978-b452-61677426993a;1515137567.09;;-0.19349844753742218;-0.007039887364953756;-0.9810753464698792;;-77.53128051757812;-42.1900634765625;15.52593994140625;;;;0.0022407999808639867;;-0.19473163367464588;-0.004972612019628286;0.0003717969811987132;-0.02467724122107029;0.0070399456136196635;-0.006345247613222793;-0.015360314219250023;0.025243837656752092;
6aefcdd8-84d1-4978-b452-61677426993a;1515137567.1;;-0.19349434971809387;-0.007067096885293722;-0.9810759425163269;;-76.13432312011719;-42.541656494140625;15.86346435546875;;;;0.002251473921488083;;-0.1947274955797766;-0.0055260248482227325;0.001543415361084044;-0.022967645898461342;0.00706715575360774;-0.006341519187696682;-0.012984774526899341;0.025269936635434868;
6aefcdd8-84d1-4978-b452-61677426993a;1515137567.11;;-0.19347797334194183;-0.007071199826896191;-0.9810791611671448;;-78.22976684570312;-41.83848571777344;15.86346435546875;;;;0.0022774838550849146;;-0.19471080908212737;-0.005374561529606581;0.004126253537833691;-0.025512661784887314;0.007071258833064185;-0.006362025528090292;-0.014162956993150396;0.027675570048103445;
6aefcdd8-84d1-4978-b452-61677426993a;1515137567.12;;-0.19349251687526703;-0.00707668624818325;-0.9810762405395508;;-76.48356628417969;-40.78373718261719;15.86346435546875;;;;0.0022640400004881375;;-0.19472563731037226;-0.005726228468120098;0.0019039567559957504;-0.026888860389590263;0.00707674536055143;-0.0075460669487395216;-0.01775422972312225;0.02159317643447147;
6aefcdd8-84d1-4978-b452-61677426993a;1515137567.13;;-0.19350087642669678;-0.007091093808412552;-0.9810744524002075;;-75.95970153808594;-42.36585998535156;16.0322265625;;;;0.0022720846556645567;;-0.19473418212023727;-0.005870458669960499;0.0011706833029165864;-0.02516636997461319;0.007091153140116939;-0.006345247613222793;-0.015360314219250023;0.025243837656752092;
6aefcdd8-84d1-4978-b452-61677426993a;1515137567.14;;-0.19350922107696533;-0.0071093058213591576;-0.981072723865509;;-75.6104736328125;-43.42060852050781;16.0322265625;;;;0.0022938983353027443;;-0.19474271421274056;-0.005724775604903698;0.0001207805034937337;-0.024740902706980705;0.007109365571641353;-0.0063359265494075155;-0.015365107909212165;0.02403449620574711;
6aefcdd8-84d1-4978-b452-61677426993a;1515137567.15;;-0.19351139664649963;-0.007105780765414238;-0.9810723066329956;;-76.48356628417969;-42.89323425292969;15.18841552734375;;;;0.0022918750090565533;;-0.19474491379713757;-0.004791819490492344;-0.0012560354080051184;-0.02495492808520794;0.007105840711451562;-0.006326605485592238;-0.015369901599174307;0.022825154754742127;
6aefcdd8-84d1-4978-b452-61677426993a;1515137567.16;;-0.19351139664649963;-0.007105780765414238;-0.9810723066329956;;-75.08660888671875;-42.1900634765625;16.20098876953125;;;;0.0022918750090565533;;-0.19474491379713757;-0.004791819490492344;-0.0012560354080051184;-0.02495492808520794;0.007105840711451562;-0.006326605485592238;-0.015369901599174307;0.022825154754742127;
6aefcdd8-84d1-4978-b452-61677426993a;1515137567.17;;-0.19348473846912384;-0.0071127465926110744;-0.9810774922370911;;-77.35667419433594;-42.0142822265625;15.0196533203125;;;;0.002317151507197454;;-0.19471775513565523;-0.0030179517343640327;0.0007803492480888963;-0.02275245264172554;0.007112806733775652;-0.007577758565711464;-0.014171745424747658;0.026469690706515565;
6aefcdd8-84d1-4978-b452-61677426993a;1515137567.18;;-0.19348473846912384;-0.0071127465926110744;-0.9810774922370911;;-76.30894470214844;-40.95951843261719;16.707260131835938;;;;0.002317151507197454;;-0.19471775513565523;-0.0030179517343640327;0.0007803492480888963;-0.02275245264172554;0.007112806733775652;-0.007577758565711464;-0.014171745424747658;0.026469690706515565;
6aefcdd8-84d1-4978-b452-61677426993a;1515137567.19;;-0.19348075985908508;-0.007115553133189678;-0.9810782670974731;;-77.70590209960938;-43.42060852050781;16.369735717773438;;;;0.0023492360321500185;;-0.19471369986333426;-0.005783766508102417;-0.0020244617480784655;-0.025208353996276855;0.007115613063499602;-0.005120193511786344;-0.015356319477614903;0.02524037554733499;
6aefcdd8-84d1-4978-b452-61677426993a;1515137567.2;;-0.19347672164440155;-0.007106914184987545;-0.9810791015625;;-76.65818786621094;-43.42060852050781;17.044784545898438;;;;0.002339728648940073;;-0.19470958312984982;-0.005909872706979513;0.00007261268910951912;-0.02369687706232071;0.007106974143848892;-0.008784170539517359;-0.014185327546307063;0.024054469913922703;
6aefcdd8-84d1-4978-b452-61677426993a;1515137567.21;;-0.19349132478237152;-0.0071123214438557625;-0.981076180934906;;-76.48356628417969;-42.89323425292969;17.213546752929688;;;;0.002358983304886883;;-0.19472446296129636;-0.005620612762868404;-0.0004865554510615766;-0.024737393483519554;0.0071123814381458825;-0.005129514575601621;-0.01535152578765276;0.02644971699833997;
6aefcdd8-84d1-4978-b452-61677426993a;1515137567.22;;-0.19349350035190582;-0.007134345360100269;-0.981075644493103;;-75.78507995605469;-42.1900634765625;16.20098876953125;;;;0.002394731154882717;;-0.1947267175433332;-0.0036805772688239813;0.0012444526655599475;-0.023822452872991562;0.0071344057437963335;-0.003911917325217393;-0.014154967509880158;0.02766864582926924;
6aefcdd8-84d1-4978-b452-61677426993a;1515137567.23;;-0.19346460700035095;-0.007147425785660744;-0.9810812473297119;;-77.18205261230469;-41.48689270019531;16.20098876953125;;;;0.0024094110879199783;;-0.19469729103963065;-0.004838608205318451;0.0020967668388038874;-0.024717120453715324;0.0071474867304775255;-0.007557252225317854;-0.012993562958496603;0.024064057293846988;
6aefcdd8-84d1-4978-b452-61677426993a;1515137567.24;;-0.19346678256988525;-0.007154121063649654;-0.9810807704925537;;-75.95970153808594;-41.31111145019531;15.6947021484375;;;;0.002422496063751851;;-0.19469950683707335;-0.005263684317469597;0.0003029247163794935;-0.023435859009623528;0.007154182090484224;-0.0038858183465346166;-0.015357118425941927;0.024027571986912903;
6aefcdd8-84d1-4978-b452-61677426993a;1515137567.25;;-0.1934751570224762;-0.007155709899961948;-0.9810791015625;;-76.65818786621094;-42.717437744140625;15.0196533203125;;;;0.002427956738166573;;-0.19470804921903284;-0.0050416854210197926;0.001220040605403483;-0.02223207801580429;0.007155770792559656;-0.006343383400459738;-0.014172544373074683;0.02525688714609348;
6aefcdd8-84d1-4978-b452-61677426993a;1515137567.26;;-0.1934773176908493;-0.007158589083701372;-0.9810786247253418;;-77.18205261230469;-41.83848571777344;17.551071166992188;;;;0.002427177822563486;;-0.19471025030850905;-0.007511460687965155;0.0005057572852820158;-0.023849954828619957;0.007158650310661019;-0.007560980650843965;-0.015369102650847283;0.024037958315164212;
6aefcdd8-84d1-4978-b452-61677426993a;1515137567.27;;-0.1934732347726822;-0.007167870178818703;-0.9810793399810791;;-75.78507995605469;-41.48689270019531;15.18841552734375;;;;0.0024277133588483653;;-0.19470610331457225;-0.0057302601635456085;-0.0019111094297841191;-0.02389499545097351;0.007167931545193649;-0.006341519187696682;-0.012984774526899341;0.025269936635434868;
6aefcdd8-84d1-4978-b452-61677426993a;1515137567.28;;-0.1934732347726822;-0.007167870178818703;-0.9810793399810791;;-76.30894470214844;-42.0142822265625;15.0196533203125;;;;0.0024277133588483653;;-0.19470610331457225;-0.0057302601635456085;-0.0019111094297841191;-0.02389499545097351;0.007167931545193649;-0.006341519187696682;-0.012984774526899341;0.025269936635434868;
6aefcdd8-84d1-4978-b452-61677426993a;1515137567.29;;-0.19347143173217773;-0.007167151663452387;-0.9810797572135925;;-76.13432312011719;-41.13531494140625;17.213546752929688;;;;0.0024577746880267894;;-0.19470427509114044;-0.006922248285263777;-0.00009603174112271518;-0.02612241730093956;0.007167213174451381;-0.0075516595870286874;-0.015373896340809426;0.02282861686415923;
6aefcdd8-84d1-4978-b452-61677426993a;1515137567.3;;-0.19347143173217773;-0.007167151663452387;-0.9810797572135925;;-75.78507995605469;-42.1900634765625;15.52593994140625;;;;0.0024577746880267894;;-0.19470427509114044;-0.006922248285263777;-0.00009603174112271518;-0.02612241730093956;0.007167213174451381;-0.0075516595870286874;-0.015373896340809426;0.02282861686415923;
6aefcdd8-84d1-4978-b452-61677426993a;1515137567.31;;-0.19348211586475372;-0.007161261048167944;-0.9810776710510254;;-76.65818786621094;-42.0142822265625;17.044784545898438;;;;0.002512934833995306;;-0.19471515006807252;-0.0034630687441676855;0.001393438782542944;-0.021974092349410057;0.007161322081286203;-0.005136971426653842;-0.014158962251515278;0.027672107938686342;
6aefcdd8-84d1-4978-b452-61677426993a;1515137567.32;;-0.19369986653327942;-0.007012395653873682;-0.9810357689857483;;-76.48356628417969;-41.48689270019531;18.901153564453125;;;;0.002533913795550819;;-0.19493690043898423;-0.005244222469627857;0.00019171691383235157;-0.02387755736708641;0.007012453158022867;-0.008784170539517359;-0.014185327546307063;0.024054469913922703;
6aefcdd8-84d1-4978-b452-61677426993a;1515137567.33;;-0.19368958473205566;-0.007011428475379944;-0.9810377955436707;;-77.00743103027344;-43.06903076171875;16.707260131835938;;;;0.002519323743089634;;-0.19492641734585617;-0.005193473771214485;-0.0001754609984345734;-0.024684235453605652;0.007011485924704369;-0.007557252225317854;-0.012993562958496603;0.024064057293846988;
6aefcdd8-84d1-4978-b452-61677426993a;1515137567.34;;-0.19368958473205566;-0.007011428475379944;-0.9810377955436707;;-75.78507995605469;-42.89323425292969;16.876022338867188;;;;0.002519323743089634;;-0.19492641734585617;-0.005193473771214485;-0.0001754609984345734;-0.024684235453605652;0.007011485924704369;-0.007557252225317854;-0.012993562958496603;0.024064057293846988;
6aefcdd8-84d1-4978-b452-61677426993a;1515137567.35;;-0.19360965490341187;-0.006819962058216333;-0.981054961681366;;-76.13432312011719;-43.94798278808594;17.551071166992188;;;;0.002513042172091579;;-0.19484468405506725;-0.0049529592506587505;0.0005028237937949598;-0.026330318301916122;0.006820015072208459;-0.005101551384155789;-0.01536590685753919;0.022821692645325024;
6aefcdd8-84d1-4978-b452-61677426993a;1515137567.36;;-0.19386711716651917;-0.0072450959123671055;-0.9810010194778442;;-75.95970153808594;-41.662689208984375;17.719818115234375;;;;0.002514127333327858;;-0.19510770809084796;-0.0062976800836622715;-0.002032248070463538;-0.025880668312311172;0.0072451594290154865;-0.007557252225317854;-0.012993562958496603;0.024064057293846988;
6aefcdd8-84d1-4978-b452-61677426993a;1515137567.37;;-0.19390329718589783;-0.006933182943612337;-0.9809961318969727;;-76.83280944824219;-43.24481201171875;15.86346435546875;;;;0.002526470490775079;;-0.1951441588389952;-0.005040796473622322;0.0015010536881163716;-0.0239629577845335;0.00693323832008278;-0.007555388012554799;-0.011805793112321264;0.024077106783188376;
6aefcdd8-84d1-4978-b452-61677426993a;1515137567.38;;-0.19394496083259583;-0.007022549398243427;-0.9809872508049011;;-76.48356628417969;-41.83848571777344;16.876022338867188;;;;0.0025172006401160043;;-0.19518675200483132;-0.004861793480813503;-0.0007899501943029463;-0.023056304082274437;0.007022607292621538;-0.007549795374265632;-0.014186126494634086;0.022841666353500618;
6aefcdd8-84d1-4978-b452-61677426993a;1515137567.39;;-0.19394083321094513;-0.007025482598692179;-0.980988085269928;;-75.95970153808594;-40.95951843261719;17.044784545898438;;;;0.002483615629180875;;-0.19518255159163916;-0.004316615406423807;-0.000893829099368304;-0.023467494174838066;0.007025540343375262;-0.0075311532466350774;-0.01419571387455837;0.020422983451490653;
6aefcdd8-84d1-4978-b452-61677426993a;1515137567.4;;-0.19394293427467346;-0.007036035880446434;-0.9809876084327698;;-76.13432312011719;-41.83848571777344;16.20098876953125;;;;0.0024776918079245135;;-0.19518470295724713;-0.0038414872251451015;-0.0014325923984870315;-0.024932829663157463;0.007036093792518775;-0.006343383400459738;-0.014172544373074683;0.02525688714609348;
6aefcdd8-84d1-4978-b452-61677426993a;1515137567.41;;-0.19395750761032104;-0.007044000551104546;-0.980984628200531;;-76.48356628417969;-41.83848571777344;16.538497924804688;;;;0.002484246372926831;;-0.19519956702395208;-0.004269435536116362;-0.00035651226062327623;-0.02496628277003765;0.007044058917977866;-0.006326605485592238;-0.015369901599174307;0.022825154754742127;
6aefcdd8-84d1-4978-b452-61677426993a;1515137567.42;;-0.1939721405506134;-0.007036561146378517;-0.9809818267822266;;-75.78507995605469;-42.89323425292969;17.551071166992188;;;;0.002500924257813472;;-0.19521446975774076;-0.004498936701565981;0.000017517906599096023;-0.024633431807160378;0.0070366191537713845;-0.007581486991237576;-0.01654728511709834;0.02644359172783279;
6aefcdd8-84d1-4978-b452-61677426993a;1515137567.43;;-0.19397427141666412;-0.0070356042124331;-0.9809814095497131;;-76.65818786621094;-41.662689208984375;17.044784545898438;;;;0.002486196474887523;;-0.19521664143315803;-0.004100081045180559;-0.00010550922888796777;-0.025305232033133507;0.007035662086571388;-0.0075591164380809095;-0.014181332804671943;0.0240510078045056;
6aefcdd8-84d1-4978-b452-61677426993a;1515137567.44;;-0.19414785504341125;-0.006947064306586981;-0.9809476733207703;;-76.83280944824219;-42.89323425292969;17.551071166992188;;;;0.00250918329897038;;-0.19539347325229972;-0.005864360835403204;0.0003247498825658113;-0.02369099110364914;0.006947120255626248;-0.010027866768584363;-0.014179734908017896;0.02647661492534977;
6aefcdd8-84d1-4978-b452-61677426993a;1515137567.45;;-0.1941438615322113;-0.006934504024684429;-0.9809485673904419;;-76.13432312011719;-41.13531494140625;16.876022338867188;;;;0.0025185152223954157;;-0.1953893922030564;-0.0060972170904278755;0.0008004707051441073;-0.0242546908557415;0.006934559493200569;-0.006345247613222793;-0.015360314219250023;0.025243837656752092;
6aefcdd8-84d1-4978-b452-61677426993a;1515137567.46;;-0.1941460222005844;-0.00694245845079422;-0.9809480905532837;;-75.78507995605469;-42.541656494140625;17.551071166992188;;;;0.00252521430018076;;-0.19539160095467065;-0.003699439112097025;0.00018281457596458495;-0.02352275140583515;0.006942513990974733;-0.006345247613222793;-0.015360314219250023;0.025243837656752092;
6aefcdd8-84d1-4978-b452-61677426993a;1515137567.47;;-0.19413577020168304;-0.006949105765670538;-0.9809500575065613;;-76.65818786621094;-42.0142822265625;17.382308959960938;;;;0.0025383623666536824;;-0.19538116022035687;-0.005037195980548859;0.000860848871525377;-0.02407008782029152;0.0069491616403894955;-0.005116465086260232;-0.012980779785264223;0.025266474526017765;
6aefcdd8-84d1-4978-b452-61677426993a;1515137567.48;;-0.19413171708583832;-0.006960840430110693;-0.9809507727622986;;-75.6104736328125;-43.06903076171875;18.394866943359375;;;;0.002558896940870583;;-0.19537704723060986;-0.004293565172702074;0.0017423349199816585;-0.022299349308013916;0.00696089670096309;-0.005129514575601621;-0.01535152578765276;0.02644971699833997;
6aefcdd8-84d1-4978-b452-61677426993a;1515137567.49;;-0.19412770867347717;-0.006964872591197491;-0.9809515476226807;;-77.70590209960938;-42.36585998535156;18.394866943359375;;;;0.002584491906445778;;-0.1953729685083205;-0.0033362703397870064;0.0008308396209031343;-0.024541625753045082;0.006964928864797426;-0.006352704464275015;-0.014167750683112539;0.026466228597098462;
6aefcdd8-84d1-4978-b452-61677426993a;1515137567.5;;-0.1941174864768982;-0.006959990598261356;-0.980953574180603;;-76.30894470214844;-42.0142822265625;17.382308959960938;;;;0.0025887332023849336;;-0.19536254407240006;-0.004780828021466732;0.0013447562232613564;-0.021350480616092682;0.006960046990597648;-0.008786034752280415;-0.015373097392482403;0.024041420424581315;
6aefcdd8-84d1-4978-b452-61677426993a;1515137567.51;;-0.1941174864768982;-0.006959990598261356;-0.980953574180603;;-75.78507995605469;-42.541656494140625;18.563629150390625;;;;0.0025887332023849336;;-0.19536254407240006;-0.004780828021466732;0.0013447562232613564;-0.021350480616092682;0.006960046990597648;-0.008786034752280415;-0.015373097392482403;0.024041420424581315;
6aefcdd8-84d1-4978-b452-61677426993a;1515137567.52;;-0.19411349296569824;-0.006952513940632343;-0.9809544682502747;;-76.30894470214844;-40.95951843261719;16.707260131835938;;;;0.002605521957587008;;-0.19535845515525313;-0.0032741946633905172;-0.001989136217162013;-0.02380630373954773;0.006952570041155059;-0.007575894352948409;-0.012983975578572319;0.026482740195856953;
6aefcdd8-84d1-4978-b452-61677426993a;1515137567.53;;-0.1941033899784088;-0.006924523040652275;-0.9809566140174866;;-75.78507995605469;-43.24481201171875;16.876022338867188;;;;0.0026249447567951016;;-0.19534811693955184;-0.004108279012143612;0.00011910330795217305;-0.023468410596251488;0.006924578174121822;-0.010029730981347419;-0.015367504754193236;0.026463565436008384;
6aefcdd8-84d1-4978-b452-61677426993a;1515137567.54;;-0.1941118985414505;-0.006891438737511635;-0.980955183506012;;-75.43585205078125;-42.1900634765625;16.538497924804688;;;;0.0026365997670542516;;-0.19535674584249946;-0.005137369967997074;0.002176472684368491;-0.02266114577651024;0.006891493086497588;-0.010029730981347419;-0.015367504754193236;0.026463565436008384;
6aefcdd8-84d1-4978-b452-61677426993a;1515137567.55;;-0.19411404430866241;-0.006887862924486399;-0.9809547662734985;;-76.30894470214844;-42.36585998535156;17.719818115234375;;;;0.0026343917611873547;;-0.19535892926954257;-0.005119951907545328;0.002996871480718255;-0.024629931896924973;0.0068879172045890735;-0.0063359265494075155;-0.015365107909212165;0.02403449620574711;
6aefcdd8-84d1-4978-b452-61677426993a;1515137567.56;;-0.1941472589969635;-0.006883006542921066;-0.980948269367218;;-75.78507995605469;-42.89323425292969;16.20098876953125;;;;0.002638142071942055;;-0.19539277945755734;-0.004735796246677637;0.0010694079101085663;-0.024056633934378624;0.006883060985834533;-0.007581486991237576;-0.01654728511709834;0.02644359172783279;
6aefcdd8-84d1-4978-b452-61677426993a;1515137567.57;;-0.1941618025302887;-0.006890946999192238;-0.9809452891349792;;-75.6104736328125;-43.42060852050781;17.382308959960938;;;;0.002644600040985076;;-0.19540761702574702;-0.004965390078723431;0.0008942428394220769;-0.024654662236571312;0.006891001438678702;-0.00633406233664446;-0.014177338063036825;0.024047545695088497;
6aefcdd8-84d1-4978-b452-61677426993a;1515137567.58;;-0.1941329389810562;-0.006897561717778444;-0.9809509515762329;;-76.83280944824219;-41.83848571777344;15.86346435546875;;;;0.002657857739125106;;-0.19537819679862967;-0.0043228729628026485;-0.00001466953290218953;-0.023290961980819702;0.006897616270579457;-0.006337790762170571;-0.010609234834548661;0.025296035614117644;
6aefcdd8-84d1-4978-b452-61677426993a;1515137567.59;;-0.19411660730838776;-0.0068797767162323;-0.9809543490409851;;-76.48356628417969;-43.24481201171875;16.538497924804688;;;;0.0026924651478948216;;-0.19536153826975697;-0.0033321124501526356;0.0007457436877302825;-0.025194957852363586;0.006879831038245147;-0.007596400693342019;-0.014162158044823374;0.028888373608525527;
6aefcdd8-84d1-4978-b452-61677426993a;1515137567.6;;-0.19413132965564728;-0.0068518007174134254;-0.9809516072273254;;-77.35667419433594;-41.31111145019531;17.044784545898438;;;;0.002711606826958955;;-0.1953764978113174;-0.005133199039846659;-0.0013726865872740746;-0.024923013523221016;0.006851854338915585;-0.011236142955153313;-0.015381086875752641;0.02404834464341552;
6aefcdd8-84d1-4978-b452-61677426993a;1515137567.61;;-0.19413349032402039;-0.006853329949080944;-0.980951189994812;;-74.9119873046875;-43.06903076171875;16.707260131835938;;;;0.0027169563520755067;;-0.1953787005272298;-0.004276549443602562;-0.004010927863419056;-0.024770863354206085;0.006853383714163454;-0.006324741272829183;-0.014182131752998968;0.022838204244083515;
6aefcdd8-84d1-4978-b452-61677426993a;1515137567.62;;-0.19411687552928925;-0.006880554836243391;-0.9809542894363403;;-77.53128051757812;-42.1900634765625;16.876022338867188;;;;0.002694716908340443;;-0.19536180508150822;-0.004308425355702639;-0.0030681758653372526;-0.022860417142510414;0.006880609193783461;-0.005092230320340512;-0.015370700547501332;0.02161235119432004;
6aefcdd8-84d1-4978-b452-61677426993a;1515137567.63;;-0.19411687552928925;-0.006880554836243391;-0.9809542894363403;;-77.18205261230469;-42.89323425292969;17.888580322265625;;;;0.002694716908340443;;-0.19536180508150822;-0.004308425355702639;-0.0030681758653372526;-0.022860417142510414;0.006880609193783461;-0.005092230320340512;-0.015370700547501332;0.02161235119432004;
6aefcdd8-84d1-4978-b452-61677426993a;1515137567.64;;-0.1941336691379547;-0.006858004257082939;-0.9809511303901672;;-74.9119873046875;-42.36585998535156;16.707260131835938;;;;0.0027002812752349686;;-0.19537889392995766;-0.0057564605958759785;-0.0018852815264835954;-0.024038512259721756;0.00685805809569837;-0.006345247613222793;-0.015360314219250023;0.025243837656752092;
6aefcdd8-84d1-4978-b452-61677426993a;1515137567.65;;-0.1941336691379547;-0.006858004257082939;-0.9809511303901672;;-77.00743103027344;-41.31111145019531;17.044784545898438;;;;0.0027002812752349686;;-0.19537889392995766;-0.0057564605958759785;-0.0018852815264835954;-0.024038512259721756;0.00685805809569837;-0.006345247613222793;-0.015360314219250023;0.025243837656752092;
6aefcdd8-84d1-4978-b452-61677426993a;1515137567.66;;-0.1941440999507904;-0.006885330658406019;-0.9809488654136658;;-76.83280944824219;-43.24481201171875;18.226104736328125;;;;0.0027220033271174258;;-0.19538956600562854;-0.004326964728534222;-0.00005741853965446353;-0.025475094094872475;0.006885384964986895;-0.003895139410349894;-0.015352324735979785;0.025236913437917886;
6aefcdd8-84d1-4978-b452-61677426993a;1515137567.67;;-0.1941440999507904;-0.006885330658406019;-0.9809488654136658;;-77.35667419433594;-42.717437744140625;15.6947021484375;;;;0.0027220033271174258;;-0.19538956600562854;-0.004326964728534222;-0.00005741853965446353;-0.025475094094872475;0.006885384964986895;-0.003895139410349894;-0.015352324735979785;0.025236913437917886;
6aefcdd8-84d1-4978-b452-61677426993a;1515137567.68;;-0.194133922457695;-0.006861210335046053;-0.9809510111808777;;-75.95970153808594;-42.36585998535156;16.0322265625;;;;0.002722393342081987;;-0.19537916341869174;-0.004962756764143705;0.0013985636178404093;-0.023000985383987427;0.006861263971574603;-0.008774849475702081;-0.014190121236269206;0.02284512846291772;
6aefcdd8-84d1-4978-b452-61677426993a;1515137567.69;;-0.19416096806526184;-0.006842216942459345;-0.9809458255767822;;-76.13432312011719;-41.48689270019531;16.20098876953125;;;;0.002729919822967473;;-0.19540670852270048;-0.005286662373691797;0.001135429716669023;-0.02196860872209072;0.0068422702672225975;-0.010031595194110475;-0.016555274600368576;0.026450515946666992;
6aefcdd8-84d1-4978-b452-61677426993a;1515137567.7;;-0.1941569298505783;-0.006842416245490313;-0.9809466004371643;;-76.65818786621094;-42.0142822265625;15.357177734375;;;;0.0027415432443439903;;-0.19540258475204492;-0.005428033415228128;0.0013339936267584562;-0.0240887813270092;0.006842469637536449;-0.006341519187696682;-0.012984774526899341;0.025269936635434868;
6aefcdd8-84d1-4978-b452-61677426993a;1515137567.71;;-0.19414669275283813;-0.006831103935837746;-0.9809487462043762;;-76.13432312011719;-42.89323425292969;17.551071166992188;;;;0.0027444301405567095;;-0.1953921416859547;-0.004782129544764757;0.0005902591510675848;-0.02411719597876072;0.006831157130805787;-0.0075516595870286874;-0.015373896340809426;0.02282861686415923;
6aefcdd8-84d1-4978-b452-61677426993a;1515137567.72;;-0.19414888322353363;-0.006819798611104488;-0.9809483885765076;;-75.08660888671875;-41.48689270019531;16.876022338867188;;;;0.0027471771483901356;;-0.19539435771399213;-0.004154333379119635;0.0004416249576024711;-0.025948604568839073;0.0068198514845003114;-0.007568437501896187;-0.0141765391147098;0.025260349255510583;
6aefcdd8-84d1-4978-b452-61677426993a;1515137567.73;;-0.19413474202156067;-0.00679068174213171;-0.9809513688087463;;-75.78507995605469;-40.08056640625;16.876022338867188;;;;0.0027844260269264424;;-0.19537989400916478;-0.005938502494245768;-0.00151009950786829;-0.024969041347503662;0.006790734012890991;-0.00881213373096319;-0.014170946476420634;0.02768249426693765;
6aefcdd8-84d1-4978-b452-61677426993a;1515137567.74;;-0.19413474202156067;-0.00679068174213171;-0.9809513688087463;;-76.83280944824219;-41.13531494140625;15.86346435546875;;;;0.0027844260269264424;;-0.19537989400916478;-0.005938502494245768;-0.00151009950786829;-0.024969041347503662;0.006790734012890991;-0.00881213373096319;-0.014170946476420634;0.02768249426693765;
6aefcdd8-84d1-4978-b452-61677426993a;1515137567.75;;-0.19420737028121948;-0.006761662196367979;-0.9809371829032898;;-76.65818786621094;-41.662689208984375;17.044784545898438;;;;0.002804037966900616;;-0.19545389222567006;-0.005148713476955891;-0.00007427549280691892;-0.02502899244427681;0.006761713752716705;-0.00635456867703807;-0.01535552052928788;0.026453179107757074;
6aefcdd8-84d1-4978-b452-61677426993a;1515137567.76;;-0.19424843788146973;-0.006092701107263565;-0.980933427810669;;-76.48356628417969;-41.48689270019531;16.876022338867188;;;;0.0028158558962168997;;-0.19549490870991967;-0.0044820248149335384;0.002354297786951065;-0.02190469019114971;0.006092738694326899;-0.005129514575601621;-0.01535152578765276;0.02644971699833997;
6aefcdd8-84d1-4978-b452-61677426993a;1515137567.77;;-0.19393114745616913;-0.0061084977351129055;-0.9809961318969727;;-77.00743103027344;-43.42060852050781;16.369735717773438;;;;0.0028091589370385977;;-0.1951714851630931;-0.0032887000124901533;0.0000660172154312022;-0.02417660504579544;0.006108535930359474;-0.0026383936919415012;-0.012987171371880412;0.02163152595416861;
6aefcdd8-84d1-4978-b452-61677426993a;1515137567.78;;-0.1940917819738388;-0.00605175131931901;-0.980964720249176;;-76.30894470214844;-43.06903076171875;16.0322265625;;;;0.0028267712839668536;;-0.19533516458653846;-0.005538951605558395;0.00013134114851709455;-0.02324672043323517;0.006051788352229722;-0.006362025528090292;-0.014162956993150396;0.027675570048103445;
6aefcdd8-84d1-4978-b452-61677426993a;1515137567.79;;-0.19412915408611298;-0.0061033242382109165;-0.9809569716453552;;-76.30894470214844;-42.0142822265625;16.0322265625;;;;0.002837462185836753;;-0.1953733274487398;-0.004692856688052416;-0.00027484941529110074;-0.021972697228193283;0.0061033622763784065;-0.0038709046444301725;-0.011798602577378048;0.022857379003932084;
6aefcdd8-84d1-4978-b452-61677426993a;1515137567.8;;-0.19413743913173676;-0.006116420030593872;-0.9809552431106567;;-76.30894470214844;-43.06903076171875;18.057342529296875;;;;0.002818666031833432;;-0.19538178000846507;-0.004943977575749159;-0.0029778184834867716;-0.024171682074666023;0.006116458001362281;-0.006326605485592238;-0.015369901599174307;0.022825154754742127;
6aefcdd8-84d1-4978-b452-61677426993a;1515137567.81;;-0.19413964450359344;-0.006103804334998131;-0.9809548854827881;;-75.95970153808594;-43.42060852050781;16.369735717773438;;;;0.002827738886999101;;-0.19538402525523932;-0.003537961281836033;-0.000762650859542191;-0.023622725158929825;0.006103842103953792;-0.008806541092674024;-0.016551279858733458;0.02644705383724989;
6aefcdd8-84d1-4978-b452-61677426993a;1515137567.82;;-0.19414187967777252;-0.006097471807152033;-0.9809545278549194;;-77.00743103027344;-41.31111145019531;17.382308959960938;;;;0.0028707447450756827;;-0.19538629381563455;-0.006358615588396788;-0.001974427839741111;-0.02414192445576191;0.006097509654226396;-0.0075870796295267415;-0.014166951734785516;0.027679032157520548;
6aefcdd8-84d1-4978-b452-61677426993a;1515137567.83;;-0.19414187967777252;-0.006097471807152033;-0.9809545278549194;;-75.78507995605469;-41.83848571777344;16.20098876953125;;;;0.0028707447450756827;;-0.19538629381563455;-0.006358615588396788;-0.001974427839741111;-0.02414192445576191;0.006097509654226396;-0.0075870796295267415;-0.014166951734785516;0.027679032157520548;
6aefcdd8-84d1-4978-b452-61677426993a;1515137567.84;;-0.19399507343769073;-0.006418138276785612;-0.9809815287590027;;-76.65818786621094;-42.36585998535156;15.6947021484375;;;;0.0028880073515199457;;-0.19523703944146042;-0.0038503706455230713;-0.0025540292263031006;-0.024252260103821754;0.006418182559156671;-0.006341519187696682;-0.012984774526899341;0.025269936635434868;
6aefcdd8-84d1-4978-b452-61677426993a;1515137567.85;;-0.19406864047050476;-0.006687150336802006;-0.9809651374816895;;-76.65818786621094;-42.36585998535156;16.369735717773438;;;;0.0028938650602722046;;-0.19531237538196944;-0.005424771457910538;-0.002422346966341138;-0.023688770830631256;0.00668720012016318;-0.006343383400459738;-0.014172544373074683;0.02525688714609348;
6aefcdd8-84d1-4978-b452-61677426993a;1515137567.86;;-0.19407077133655548;-0.006683508865535259;-0.9809647798538208;;-76.30894470214844;-41.31111145019531;16.0322265625;;;;0.00289146318152333;;-0.19531454262984313;-0.00363734969869256;-0.0024870233610272408;-0.02411641553044319;0.006683558679047172;-0.008782306326754304;-0.012997557700131722;0.02406751940326409;
6aefcdd8-84d1-4978-b452-61677426993a;1515137567.87;;-0.1940542608499527;-0.0066977692767977715;-0.9809679388999939;;-75.78507995605469;-42.1900634765625;16.876022338867188;;;;0.0028993252833252924;;-0.19529773292964822;-0.004004818852990866;-0.00003135644874419086;-0.0243421271443367;0.006697819579139467;-0.006326605485592238;-0.015369901599174307;0.022825154754742127;
6aefcdd8-84d1-4978-b452-61677426993a;1515137567.88;;-0.19404400885105133;-0.006692822091281414;-0.9809699654579163;;-76.65818786621094;-42.0142822265625;15.357177734375;;;;0.0029033726528427933;;-0.1952872764275156;-0.004961112514138222;-0.00038725603371858597;-0.023744972422719002;0.006692872124670921;-0.00635084025151196;-0.012979980836937199;0.02647927808643985;
6aefcdd8-84d1-4978-b452-61677426993a;1515137567.89;;-0.19404616951942444;-0.006684075575321913;-0.9809696078300476;;-77.35667419433594;-41.662689208984375;16.0322265625;;;;0.0028934140476385133;;-0.19528946228143598;-0.00665269186720252;0.00022960737987887114;-0.02354697324335575;0.006684125310820111;-0.00999244672608631;-0.015386679514041806;0.021626199631988453;
6aefcdd8-84d1-4978-b452-61677426993a;1515137567.9;;-0.19404830038547516;-0.006680433638393879;-0.980969250202179;;-76.48356628417969;-43.24481201171875;16.20098876953125;;;;0.0028910123935492167;;-0.19529162953052798;-0.003751378273591399;0.0005006241262890399;-0.025195322930812836;0.006680483356424699;-0.006343383400459738;-0.014172544373074683;0.02525688714609348;
6aefcdd8-84d1-4978-b452-61677426993a;1515137567.91;;-0.1940256655216217;-0.006663969252258539;-0.9809738397598267;;-75.78507995605469;-40.78373718261719;15.86346435546875;;;;0.0028863951248169627;;-0.19526853740870456;-0.003041591728106141;0.0006825238233432174;-0.02288665622472763;0.006664018372353346;-0.008782306326754304;-0.012997557700131722;0.02406751940326409;
6aefcdd8-84d1-4978-b452-61677426993a;1515137567.92;;-0.19404646754264832;-0.006657741963863373;-0.9809697270393372;;-77.70590209960938;-41.662689208984375;17.044784545898438;;;;0.002896401302309186;;-0.19528973527831806;-0.003951582591980696;-0.0004986301646567881;-0.0214716587215662;0.0066577911285768615;-0.0075796227784745195;-0.015359515270922998;0.026456641217174177;
6aefcdd8-84d1-4978-b452-61677426993a;1515137567.93;;-0.19405488669872284;-0.006643804255872965;-0.980968177318573;;-76.13432312011719;-42.541656494140625;14.850906372070312;;;;0.002911608403701344;;-0.19529829503318227;-0.004080488812178373;0.0013337458949536085;-0.02359420247375965;0.006643853316840763;-0.0075796227784745195;-0.015359515270922998;0.026456641217174177;
6aefcdd8-84d1-4978-b452-61677426993a;1515137567.94;;-0.19405707716941833;-0.006617144215852022;-0.9809679388999939;;-76.48356628417969;-42.1900634765625;13.838333129882812;;;;0.0028915961892406316;;-0.19530049820813059;-0.0051616705022752285;0.0012002739822492003;-0.023151950910687447;0.006617192412545335;-0.009990582513323255;-0.014198909667866466;0.02163924912132984;
6aefcdd8-84d1-4978-b452-61677426993a;1515137567.95;;-0.1940654218196869;-0.006618611980229616;-0.9809662699699402;;-77.53128051757812;-42.541656494140625;15.52593994140625;;;;0.0028966815290953313;;-0.1953090083331932;-0.004115727264434099;-0.0015143227064982057;-0.02330620028078556;0.006618660167494128;-0.007581486991237576;-0.01654728511709834;0.02644359172783279;
6aefcdd8-84d1-4978-b452-61677426993a;1515137567.96;;-0.19407391548156738;-0.006590567529201508;-0.9809647798538208;;-75.95970153808594;-42.36585998535156;15.357177734375;;;;0.00291570098691408;;-0.19531762377680364;-0.0035121524706482887;-0.0011456386419013143;-0.025764353573322296;0.006590615319797429;-0.010029730981347419;-0.015367504754193236;0.026463565436008384;
6aefcdd8-84d1-4978-b452-61677426993a;1515137567.97;;-0.1940697878599167;-0.006601028610020876;-0.9809654951095581;;-75.78507995605469;-42.89323425292969;14.850906372070312;;;;0.0029095566847010847;;-0.19531342649349182;-0.005576210096478462;-0.0009215539903379977;-0.022986510768532753;0.006601076689786044;-0.0063154202090139056;-0.01418692544296111;0.021628862793078532;
6aefcdd8-84d1-4978-b452-61677426993a;1515137567.98;;-0.1940697878599167;-0.006601028610020876;-0.9809654951095581;;-76.65818786621094;-42.36585998535156;15.357177734375;;;;0.0029095566847010847;;-0.19531342649349182;-0.005576210096478462;-0.0009215539903379977;-0.022986510768532753;0.006601076689786044;-0.0063154202090139056;-0.01418692544296111;0.021628862793078532;
6aefcdd8-84d1-4978-b452-61677426993a;1515137567.99;;-0.19406789541244507;-0.006606461014598608;-0.9809658527374268;;-77.70590209960938;-42.0142822265625;14.682144165039062;;;;0.002940112833428449;;-0.19531150362604233;-0.0057154325768351555;0.000045181732275523245;-0.024237392470240593;0.006606508938668882;-0.005127650362838565;-0.01416375594147742;0.02646276648768136;
6aefcdd8-84d1-4978-b452-61677426993a;1515137568;;-0.19406789541244507;-0.006606461014598608;-0.9809658527374268;;-76.30894470214844;-41.31111145019531;16.0322265625;;;;0.002940112833428449;;-0.19531150362604233;-0.0057154325768351555;0.000045181732275523245;-0.024237392470240593;0.006606508938668882;-0.005127650362838565;-0.01416375594147742;0.02646276648768136;
6aefcdd8-84d1-4978-b452-61677426993a;1515137568.01;;-0.1940762847661972;-0.006584893446415663;-0.9809643626213074;;-77.18205261230469;-41.83848571777344;17.551071166992188;;;;0.002927528406654002;;-0.19532003421092914;-0.005157730542123318;-0.00017475035565439612;-0.023689590394496918;0.006584941022094688;-0.01000922464095381;-0.014189322287942181;0.024057932023339806;
6aefcdd8-84d1-4978-b452-61677426993a;1515137568.02;;-0.19406597316265106;-0.006602930836379528;-0.9809662699699402;;-75.95970153808594;-42.0142822265625;16.369735717773438;;;;0.002949068735288508;;-0.1953095411803636;-0.004893388133496046;0.0003010506625287235;-0.02528984285891056;0.0066029787242460605;-0.0039007320486390603;-0.01297199135366696;0.026472353867605644;
6aefcdd8-84d1-4978-b452-61677426993a;1515137568.03;;-0.19409292936325073;-0.006608182564377785;-0.9809609055519104;;-76.13432312011719;-41.83848571777344;15.52593994140625;;;;0.0029676921997271745;;-0.19533702741382378;-0.005476782564073801;-0.00015146123769227415;-0.020030930638313293;0.0066082306093394536;-0.005114600873497177;-0.017736652859927725;0.02400493511764723;
6aefcdd8-84d1-4978-b452-61677426993a;1515137568.04;;-0.1940702497959137;-0.006608298514038324;-0.9809653759002686;;-77.88052368164062;-41.83848571777344;16.538497924804688;;;;0.002979319299121199;;-0.1953139074506786;-0.0064760250970721245;-0.0006548850215040147;-0.022803543135523796;0.0066083467080294;-0.008787898965043471;-0.0106172243178189;0.02530295983295185;
6aefcdd8-84d1-4978-b452-61677426993a;1515137568.05;;-0.194066122174263;-0.0066123222932219505;-0.9809661507606506;;-76.48356628417969;-40.78373718261719;15.86346435546875;;;;0.0029718089013259434;;-0.19530970692608055;-0.0042065829038619995;0.00026466615963727236;-0.02214662730693817;0.006612370373375283;-0.006324741272829183;-0.014182131752998968;0.022838204244083515;
6aefcdd8-84d1-4978-b452-61677426993a;1515137568.06;;-0.19406820833683014;-0.006616349332034588;-0.9809657335281372;;-76.83280944824219;-41.48689270019531;17.551071166992188;;;;0.0029642283410932497;;-0.19531184158864526;-0.004509671125560999;-0.0006926099886186421;-0.02419174648821354;0.0066163978316018685;-0.007560980650843965;-0.015369102650847283;0.024037958315164212;
6aefcdd8-84d1-4978-b452-61677426993a;1515137568.07;;-0.19407039880752563;-0.006603673100471497;-0.9809653759002686;;-75.78507995605469;-41.83848571777344;16.538497924804688;;;;0.0029730785569181996;;-0.19531405653340578;-0.006491131614893675;-0.0003543344500940293;-0.023993726819753647;0.006603721205957687;-0.007557252225317854;-0.012993562958496603;0.024064057293846988;
6aefcdd8-84d1-4978-b452-61677426993a;1515137568.08;;-0.19407247006893158;-0.006603894289582968;-0.9809649586677551;;-76.83280944824219;-40.78373718261719;17.551071166992188;;;;0.0029516318528656693;;-0.1953161636024831;-0.00368144060485065;0.0019347049528732896;-0.022834470495581627;0.006603942382293393;-0.008784170539517359;-0.014185327546307063;0.024054469913922703;
6aefcdd8-84d1-4978-b452-61677426993a;1515137568.09;;-0.19406841695308685;-0.006593811325728893;-0.9809658527374268;;-77.53128051757812;-41.83848571777344;16.876022338867188;;;;0.002947934168847623;;-0.19531201876412926;-0.004265332594513893;0.001466858317144215;-0.023978009819984436;0.0065938591180109436;-0.007549795374265632;-0.014186126494634086;0.022841666353500618;
6aefcdd8-84d1-4978-b452-61677426993a;1515137568.1;;-0.19406841695308685;-0.006593811325728893;-0.9809658527374268;;-76.13432312011719;-41.48689270019531;16.876022338867188;;;;0.002947934168847623;;-0.19531201876412926;-0.004265332594513893;0.001466858317144215;-0.023978009819984436;0.0065938591180109436;-0.007549795374265632;-0.014186126494634086;0.022841666353500618;
6aefcdd8-84d1-4978-b452-61677426993a;1515137568.11;;-0.19405406713485718;-0.006599169224500656;-0.9809686541557312;;-75.43585205078125;-41.13531494140625;16.538497924804688;;;;0.002978394671634134;;-0.19529740577553398;-0.0037456133868545294;-0.00045039172982797027;-0.023776846006512642;0.006599217136907469;-0.006343383400459738;-0.014172544373074683;0.02525688714609348;
6aefcdd8-84d1-4978-b452-61677426993a;1515137568.12;;-0.19405406713485718;-0.006599169224500656;-0.9809686541557312;;-77.00743103027344;-42.717437744140625;15.357177734375;;;;0.002978394671634134;;-0.19529740577553398;-0.0037456133868545294;-0.00045039172982797027;-0.023776846006512642;0.006599217136907469;-0.006343383400459738;-0.014172544373074683;0.02525688714609348;
6aefcdd8-84d1-4978-b452-61677426993a;1515137568.13;;-0.19407692551612854;-0.006607146002352238;-0.9809640645980835;;-77.18205261230469;-41.83848571777344;17.551071166992188;;;;0.002995816654411574;;-0.19532071147712118;-0.004424660000950098;0.0008545825839973986;-0.022652270272374153;0.006607194081882224;-0.005112736660734122;-0.016548883013752385;0.024017984606988618;
6aefcdd8-84d1-4978-b452-61677426993a;1515137568.14;;-0.19407296180725098;-0.006590569391846657;-0.9809649586677551;;-76.65818786621094;-42.0142822265625;16.707260131835938;;;;0.003023663798423528;;-0.1953166505639834;-0.004886394366621971;-0.0017407294362783432;-0.023338017985224724;0.006590617153593639;-0.007585215416763686;-0.012979181888610176;0.027692081646861936;
6aefcdd8-84d1-4978-b452-61677426993a;1515137568.15;;-0.19407296180725098;-0.006590569391846657;-0.9809649586677551;;-75.78507995605469;-43.24481201171875;17.888580322265625;;;;0.003023663798423528;;-0.1953166505639834;-0.004886394366621971;-0.0017407294362783432;-0.023338017985224724;0.006590617153593639;-0.007585215416763686;-0.012979181888610176;0.027692081646861936;
6aefcdd8-84d1-4978-b452-61677426993a;1515137568.16;;-0.19375985860824585;-0.0069782608188688755;-0.9810241460800171;;-75.43585205078125;-42.541656494140625;17.213546752929688;;;;0.0030832006362046076;;-0.19499800596629033;-0.00402456521987915;-0.0013225205475464463;-0.02521667443215847;0.006978317307377464;-0.006393717145062235;-0.01652411561561465;0.03127749542243561;
6aefcdd8-84d1-4978-b452-61677426993a;1515137568.17;;-0.1942494809627533;-0.006472797133028507;-0.9809308052062988;;-76.30894470214844;-41.31111145019531;16.369735717773438;;;;0.003134491619148325;;-0.19549644289841353;-0.006586698815226555;0.0018951606471091509;-0.02329588122665882;0.006472842352281402;-0.003911917325217393;-0.014154967509880158;0.02766864582926924;
6aefcdd8-84d1-4978-b452-61677426993a;1515137568.18;;-0.19415538012981415;-0.006386947818100452;-0.9809499979019165;;-76.83280944824219;-42.1900634765625;16.538497924804688;;;;0.0031576628073339335;;-0.19540040399050235;-0.0041020773351192474;0.0004360201128292829;-0.023169875144958496;0.0063869911618686034;-0.0039025962614021156;-0.014159761199842302;0.026459304378264256;
6aefcdd8-84d1-4978-b452-61677426993a;1515137568.19;;-0.1940990835428238;-0.006287654396146536;-0.980961799621582;;-75.95970153808594;-43.06903076171875;17.382308959960938;;;;0.00320803097573178;;-0.19534290266193635;-0.004524571821093559;0.00021465608733706176;-0.02405836246907711;0.006287695699336554;-0.008819590582015414;-0.012978382940283152;0.028904885207284018;
