track_uuid;t;alt;g_x;g_y;g_z;lat;m_x;m_y;m_z;long;speed;course;att_yaw;heading;att_roll;user_a_x;user_a_y;user_a_z;att_pitch;rot_rate_x;rot_rate_y;rot_rate_z;name
7910ea1e-e247-43be-b202-e7e1fa929c31;1514169114.204;0;0.9888798594474792;0.10012166202068329;-0.10996425151824951;31.297232801649304;-93.07246398925781;-114.0889892578125;-7.2566986083984375;121.46866726345486;0;0;0.0892109152438499;;1.4600504929396434;0.0003778796235565096;-0.0029689623042941093;-0.010015641339123249;-0.10028970048328352;-0.09695637422596978;-0.018055433242410213;0.019427227519910027;
7910ea1e-e247-43be-b202-e7e1fa929c31;1514169114.254;;0.9888755679130554;0.09992556273937225;-0.11018142104148865;;-93.77095031738281;-113.38581848144531;-7.9317474365234375;;;;0.0872141974096855;;1.4598330924167153;-0.0038292037788778543;-0.019298119470477104;-0.012346639297902584;-0.10009260554390689;0.032815470951956374;-0.029476133261106017;0.0273951391853181;
7910ea1e-e247-43be-b202-e7e1fa929c31;1514169114.304;;0.9888927340507507;0.09980879724025726;-0.11013400554656982;;-94.46943664550781;-115.49531555175781;-6.9191741943359375;;;;0.08633684294216823;;1.4598823599141821;0.013060465455055237;-0.007096393965184689;-0.02188497968018055;-0.09997525596197965;-0.08964892651090137;-0.021575599571276947;0.02420467219940317;
7910ea1e-e247-43be-b202-e7e1fa929c31;1514169114.354;;0.9888889193534851;0.10023202747106552;-0.10978265106678009;;-94.46943664550781;-113.03424072265625;-6.244140625;;;;0.08780482863854025;;1.4602328974974448;0.00960045587271452;-0.0035828598774969578;-0.01285221055150032;-0.10040061804382248;0.04508278988118837;-0.012802614308337922;0.028752552392931487;
7910ea1e-e247-43be-b202-e7e1fa929c31;1514169114.404;;0.9891220331192017;0.09722212702035904;-0.11038737744092941;;-95.342529296875;-114.61636352539062;-8.100494384765625;;;;0.0856253199406866;;1.4596548501507396;0.002119368640705943;-0.012917320244014263;-0.019968537613749504;-0.09737594452595424;0.026684607806484958;-0.009284844824452257;0.03247165685522714;
7910ea1e-e247-43be-b202-e7e1fa929c31;1514169114.454;;0.9891129732131958;0.09025907516479492;-0.11622778326272964;;-94.9932861328125;-114.96794128417969;-6.41290283203125;;;;0.08591378499096312;;1.4538256446440767;0.009864728897809982;0.005169393960386515;-0.013410847634077072;-0.09038207963096578;-0.06869996874412006;0.009335977517381777;0.014810371454148659;
7910ea1e-e247-43be-b202-e7e1fa929c31;1514169114.504;;0.9891018867492676;0.08997640758752823;-0.11654095351696014;;-95.51715087890625;-116.55007934570312;-6.9191741943359375;;;;0.08440382877403729;;1.45351204566866;0.003650243626907468;-0.01458272896707058;-0.014592996798455715;-0.09009825582811144;0.051254665707447;0.0050243197125434905;0.026512301283956832;
7910ea1e-e247-43be-b202-e7e1fa929c31;1514169114.554;;0.9891452193260193;0.08982323110103607;-0.11629055440425873;;-93.94557189941406;-114.26478576660156;-6.7504119873046875;;;;0.08503399237004075;;1.4537668308798175;0.011480383574962616;0.0004172481712885201;-0.019405797123908997;-0.08994445475962466;-0.047924382764302914;0.00705231688263883;0.020772123870400044;
7910ea1e-e247-43be-b202-e7e1fa929c31;1514169114.604;;0.9891416430473328;0.08965209871530533;-0.11645297706127167;;-94.64404296875;-115.31953430175781;-8.100494384765625;;;;0.0838831423220997;;1.453604449382748;0.004083454608917236;-0.005164182744920254;-0.011018880642950535;-0.08977262805173987;0.04753476229682432;-0.011606854978892344;0.02875867766343867;
7910ea1e-e247-43be-b202-e7e1fa929c31;1514169114.654;;0.9891384243965149;0.08970176428556442;-0.11644211411476135;;-93.42170715332031;-113.73739624023438;-7.5942230224609375;;;;0.08422277317707476;;1.4536149023108227;-0.0024746032431721687;0.0013626908184960485;-0.0013099155621603131;-0.08982249590051025;-0.034465565563369466;-0.0273682412583083;0.01551823967189172;
7910ea1e-e247-43be-b202-e7e1fa929c31;1514169114.704;;0.9891385436058044;0.08957772701978683;-0.1165366843342781;;-93.42170715332031;-113.73739624023438;-6.244140625;;;;0.08356364247819152;;1.4535206169105894;-0.0011624485487118363;-0.018868498504161835;0.0031029093079268932;-0.08969795703665735;0.04022172194346674;-0.023537284030229314;0.021392906720497512;
7910ea1e-e247-43be-b202-e7e1fa929c31;1514169114.754;;0.9893080592155457;0.08677218854427338;-0.11721791326999664;;-94.81866455078125;-115.14373779296875;-5.569091796875;;;;0.08385606086334257;;1.4528614121161831;0.000499010260682553;-0.006999246310442686;-0.00199903454631567;-0.08688145189649034;-0.012433233865143932;-0.009455819766435343;0.021698371297529603;
7910ea1e-e247-43be-b202-e7e1fa929c31;1514169114.804;;0.989025890827179;0.08511849492788315;-0.12075859308242798;;-93.42170715332031;-114.44056701660156;-7.9317474365234375;;;;0.08370163033442173;;1.4492991859858608;0.010729970410466194;0.0017955725779756904;-0.01055856328457594;-0.08522161090439145;0.032849026781691375;0.00973465273256664;0.03145379668659886;
7910ea1e-e247-43be-b202-e7e1fa929c31;1514169114.854;;0.9891274571418762;0.08455236256122589;-0.12032400816679001;;-94.29481506347656;-114.26478576660156;-8.100494384765625;;;;0.08344859067053985;;1.449744475379281;0.002724400721490383;0.008312635123729706;-0.004096127115190029;-0.08465343096060214;-0.012505938162903095;0.00960122836195367;0.03520991908804662;
7910ea1e-e247-43be-b202-e7e1fa929c31;1514169114.904;;0.9891118407249451;0.08463042974472046;-0.12039720267057419;;-93.94557189941406;-114.96794128417969;-7.0879364013671875;;;;0.08346746258841875;;1.449669664731295;-0.005499757826328278;0.0021462992299348116;-0.006082841660827398;-0.08473178444970612;-0.019824571154549848;0.00005113269292952138;0.029079588574793216;
7910ea1e-e247-43be-b202-e7e1fa929c31;1514169114.954;;0.9890888929367065;0.08465877175331116;-0.12056577950716019;;-94.46943664550781;-114.0889892578125;-7.2566986083984375;;;;0.08338686095310872;;1.4494989350254155;0.002442507538944483;0.009564255364239216;-0.0008941653650254011;-0.08476022252202513;-0.01371980698776121;-0.01893800482766247;0.027644144747240508;
7910ea1e-e247-43be-b202-e7e1fa929c31;1514169115.004;;0.9890810251235962;0.08476337790489197;-0.12055688351392746;;-91.67550659179688;-113.38581848144531;-6.9191741943359375;;;;0.08340785638511668;;1.449506840435434;-0.004263482056558132;-0.002884720219299197;0.007153595332056284;-0.0848652113650432;-0.014894527344595163;-0.02847771416843531;0.01907782078489163;
7910ea1e-e247-43be-b202-e7e1fa929c31;1514169115.054;;0.9890959858894348;0.0847279280424118;-0.12045890837907791;;-94.12019348144531;-114.44056701660156;-6.244140625;;;;0.08307193983680541;;1.4496062665028655;-0.005880631972104311;0.006672217044979334;0.0016539903590455651;-0.08482963316479497;-0.008752478922545416;-0.029655097686359343;0.016628777846454765;
7910ea1e-e247-43be-b202-e7e1fa929c31;1514169115.104;;0.9894449710845947;0.08189865201711655;-0.1195460632443428;;-94.29481506347656;-113.56161499023438;-7.7629852294921875;;;;0.08347055391401252;;1.4505578065721674;-0.008762605488300323;-0.009785613976418972;0.009011332876980305;-0.08199048459472091;-0.011176488146735539;-0.030865238085691346;0.012994628222932635;
7910ea1e-e247-43be-b202-e7e1fa929c31;1514169115.154;;0.9888754487037659;0.08519288152456284;-0.12193230539560318;;-93.94557189941406;-113.56161499023438;-6.7504119873046875;;;;0.0830628156929751;;1.4481115841845364;-0.004927704110741615;-0.006961072329431772;0.00047240054118447006;-0.08529626979051311;-0.00877112105017597;0.0000727042977591632;0.025420405237024345;
7910ea1e-e247-43be-b202-e7e1fa929c31;1514169115.204;;0.9889491200447083;0.08431432396173477;-0.12194531410932541;;-93.94557189941406;-114.96794128417969;-7.4254608154296875;;;;0.08327449469725566;;1.448107672110576;0.00976909976452589;0.006261844653636217;-0.005023115314543247;-0.0844145442891934;-0.00881213373096319;0.003659982286095897;0.03150626096007342;
7910ea1e-e247-43be-b202-e7e1fa929c31;1514169115.254;;0.9889350533485413;0.08433091640472412;-0.12204873561859131;;-94.64404296875;-114.96794128417969;-7.4254608154296875;;;;0.08322930923722287;;1.4480029325525747;0.008669393137097359;0.004688861779868603;-0.01247269008308649;-0.08443119420298532;0.0033787524749835296;-0.0045904907709695825;0.03742700069553758;
7910ea1e-e247-43be-b202-e7e1fa929c31;1514169115.304;;0.9889225959777832;0.08437687158584595;-0.1221173033118248;;-93.42170715332031;-113.03424072265625;-8.606781005859375;;;;0.08338339899446069;;1.447933110341454;0.0014185906620696187;0.00586360739544034;-0.011030860245227814;-0.0844773141285925;-0.007637413374129239;-0.010574880056486638;0.034974229331574604;
7910ea1e-e247-43be-b202-e7e1fa929c31;1514169115.354;;0.9889162182807922;0.08443565666675568;-0.12212800234556198;;-94.64404296875;-114.61636352539062;-8.100494384765625;;;;0.08347974631712785;;1.4479216679386828;0.004995478317141533;0.013281628489494324;-0.004550495184957981;-0.08453630761598577;0.00468583193799442;-0.023648337847685618;0.022702649344598484;
7910ea1e-e247-43be-b202-e7e1fa929c31;1514169115.404;;0.9884889721870422;0.08566312491893768;-0.1247049868106842;;-92.54861450195312;-114.61636352539062;-7.0879364013671875;;;;0.08324812158741939;;1.4453021157456996;0.00435463385656476;0.012298296205699444;0.0026346880476921797;-0.08576824429668235;-0.002660764245098167;-0.027240409525984496;0.021474932082071952;
7910ea1e-e247-43be-b202-e7e1fa929c31;1514169115.454;;0.9888330698013306;0.08522074669599533;-0.12225673347711563;;-94.12019348144531;-113.73739624023438;-7.2566986083984375;;;;0.08410293803391239;;1.447783211415746;0.010693978518247604;0.008483481593430042;-0.014431430026888847;-0.08532423952128843;-0.007613178608209518;-0.007021157897884904;0.0325946948975888;
7910ea1e-e247-43be-b202-e7e1fa929c31;1514169115.504;;0.9887962341308594;0.08545759320259094;-0.12238902598619461;;-94.12019348144531;-114.0889892578125;-7.9317474365234375;;;;0.08415934508299337;;1.4476468929346844;0.014087708666920662;0.006537646520882845;-0.010835476219654083;-0.08556195528686243;-0.006404902421640568;-0.017707091771827846;0.03247378738409921;
7910ea1e-e247-43be-b202-e7e1fa929c31;1514169115.554;;0.9888988733291626;0.08454613387584686;-0.12219253182411194;;-94.29481506347656;-116.72586059570312;-7.7629852294921875;;;;0.08471335007505201;;1.4478552607132917;-0.004233935382217169;0.00928016472607851;-0.0021666132379323244;-0.08464718255336061;-0.0015046860158947695;-0.01769111280528737;0.032459938946430796;
7910ea1e-e247-43be-b202-e7e1fa929c31;1514169115.604;;0.9888867139816284;0.08457650989294052;-0.12226951122283936;;-93.59632873535156;-114.61636352539062;-7.0879364013671875;;;;0.08491603778257364;;1.4477770915671235;0.004307842813432217;0.011065585538744926;-0.010069957002997398;-0.08467766471228043;-0.01741547563246417;-0.026071814439657726;0.02878557559044847;
7910ea1e-e247-43be-b202-e7e1fa929c31;1514169115.654;;0.9887429475784302;0.08633045852184296;-0.12220645695924759;;-95.51715087890625;-114.0889892578125;-6.9191741943359375;;;;0.08470350975034778;;1.4478221945291372;0.0006216603214852512;-0.007335703354328871;0.017958354204893112;-0.08643805415303349;-0.00018828548906860214;-0.030810110651126706;0.017800835042198634;
7910ea1e-e247-43be-b202-e7e1fa929c31;1514169115.704;;0.9888269305229187;0.08436840772628784;-0.12289512902498245;;-93.59632873535156;-115.31953430175781;-8.100494384765625;;;;0.08489686053790355;;1.4471466138710956;-0.003612731583416462;-0.003222170751541853;0.014298292808234692;-0.08446882004838811;-0.008698416752416808;-0.024927986751468692;0.010634268548795405;
7910ea1e-e247-43be-b202-e7e1fa929c31;1514169115.754;;0.9888390898704529;0.08428603410720825;-0.12285374104976654;;-94.29481506347656;-115.31953430175781;-8.775543212890625;;;;0.08471282176757666;;1.447189341405525;-0.011223776265978813;-0.0161097701638937;0.009038400836288929;-0.08438615381921599;0.007210508651389538;-0.02367869788411252;0.013020993517724419;
7910ea1e-e247-43be-b202-e7e1fa929c31;1514169115.804;;0.9888483285903931;0.0842667818069458;-0.12279326468706131;;-94.81866455078125;-115.84690856933594;-7.5942230224609375;;;;0.08483743356945643;;1.447250706547342;-0.008501594886183739;-0.0188981294631958;0.005254868883639574;-0.08436682892368545;-0.010001767789901587;-0.015381885824079664;0.022835541082993436;
7910ea1e-e247-43be-b202-e7e1fa929c31;1514169115.854;;0.9888261556625366;0.08442812412977219;-0.12286077439785004;;-94.64404296875;-115.67111206054688;-7.4254608154296875;;;;0.08490365135322947;;1.4471807345433003;-0.001490922411903739;-0.010453513823449612;-0.0029936698265373707;-0.08452874969689478;0.002209624756438744;0.0013203952684612862;0.031449002996636714;
7910ea1e-e247-43be-b202-e7e1fa929c31;1514169115.904;;0.9888051748275757;0.08450011163949966;-0.122979536652565;;-93.59632873535156;-113.56161499023438;-7.4254608154296875;;;;0.08512317068361708;;1.4470598614739068;0.0035501294769346714;0.016558848321437836;-0.012335376814007759;-0.08460099456251904;-0.005163070405336619;0.004874117427063022;0.03513694847417845;
7910ea1e-e247-43be-b202-e7e1fa929c31;1514169115.954;;0.9887917041778564;0.0846078172326088;-0.12301420420408249;;-94.12019348144531;-116.198486328125;-6.9191741943359375;;;;0.08521906475273545;;1.447023657184369;0.01181865856051445;0.007448449730873108;-0.011186808347702026;-0.0847090911349402;0.009537578811900775;-0.00696523151499324;0.03254622536574936;
7910ea1e-e247-43be-b202-e7e1fa929c31;1514169116.004;;0.988410234451294;0.08618181198835373;-0.1249716728925705;;-93.42170715332031;-114.79216003417969;-7.2566986083984375;;;;0.08481122373344314;;1.4450266441144024;0.0008018178050406277;-0.002853565150871873;0.004839292727410793;-0.08628885644513037;-0.012504073950140039;-0.024872859316904052;0.027575435191116465;
7910ea1e-e247-43be-b202-e7e1fa929c31;1514169116.054;;0.9888116717338562;0.08510877192020416;-0.12250697612762451;;-94.12019348144531;-115.14373779296875;-8.944305419921875;;;;0.08541084756579091;;1.4475313148057865;0.006976894102990627;0.0011339037446305156;0.002313492354005575;-0.08521185677552025;-0.011206315550944427;-0.026094983941141417;0.017884191984318117;
7910ea1e-e247-43be-b202-e7e1fa929c31;1514169116.104;;0.9888133406639099;0.08506163209676743;-0.12252616882324219;;-93.94557189941406;-116.022705078125;-8.100494384765625;;;;0.08524428408033027;;1.4475124046190773;-0.0008830602164380252;-0.0066009447909891605;0.00335502065718174;-0.0851645460659193;-0.013604225796451772;-0.022563632335696346;0.011883557416151576;
7910ea1e-e247-43be-b202-e7e1fa929c31;1514169116.154;;0.9888167977333069;0.08516144752502441;-0.12242868542671204;;-94.64404296875;-114.61636352539062;-6.41290283203125;;;;0.08556615881465636;;1.4476099325062095;-0.003541579470038414;-0.008501292206346989;0.005317420698702335;-0.08526472514047433;-0.0050568102778424575;-0.016577645153525243;0.016761935900958726;
7910ea1e-e247-43be-b202-e7e1fa929c31;1514169116.204;;0.9888176321983337;0.08514270186424255;-0.12243521958589554;;-93.94557189941406;-113.91319274902344;-6.7504119873046875;;;;0.08547542809419907;;1.4476035188509973;-0.0020317595917731524;-0.004896736703813076;-0.002015486126765609;-0.08524591238852908;0.010857707764253054;-0.005821403826804207;0.020462398235623826;
7910ea1e-e247-43be-b202-e7e1fa929c31;1514169116.254;;0.9888026714324951;0.08516949415206909;-0.12253706902265549;;-94.46943664550781;-114.0889892578125;-6.9191741943359375;;;;0.08565630627873762;;1.447500235254062;0.00675696088001132;-0.009958923794329166;-0.0022036065347492695;-0.08527279978091268;-0.002716690627989831;0.008450210138821423;0.036378514174373384;
7910ea1e-e247-43be-b202-e7e1fa929c31;1514169116.304;;0.9887983798980713;0.08513243496417999;-0.12259769439697266;;-93.77095031738281;-113.73739624023438;-7.5942230224609375;;;;0.08551566346005575;;1.4474393236104548;0.0005204442422837019;-0.003070666454732418;-0.006186520215123892;-0.08523560464166645;0.009531986173611609;0.007302387708997271;0.036330843590860966;
7910ea1e-e247-43be-b202-e7e1fa929c31;1514169116.354;;0.989296555519104;0.08035771548748016;-0.12179853022098541;;-94.29481506347656;-115.31953430175781;-6.7504119873046875;;;;0.08598917553218345;;1.44829647672768;0.0028756388928741217;0.011469674296677113;-0.0033541072625666857;-0.08044444945681747;-0.002701776925885387;-0.01770948861680892;0.02883537670283295;
7910ea1e-e247-43be-b202-e7e1fa929c31;1514169116.404;;0.989230215549469;0.08179967850446701;-0.1213769018650055;;-94.29481506347656;-115.31953430175781;-6.7504119873046875;;;;0.08590473127278339;;1.448708225908861;-0.00041492932359687984;0.006182493641972542;0.0026024782564491034;-0.0818911807657518;-0.002701776925885387;-0.01770948861680892;0.02883537670283295;
7910ea1e-e247-43be-b202-e7e1fa929c31;1514169116.454;;0.989228367805481;0.08194784075021744;-0.12129206210374832;;-94.29481506347656;-113.56161499023438;-8.775543212890625;;;;0.0861493184453723;;1.4487924873000002;0.0030506737530231476;0.010459378361701965;0.007842966355383396;-0.08203984146943641;-0.016061790850376893;-0.0213790582828291;0.013112872575332153;
7910ea1e-e247-43be-b202-e7e1fa929c31;1514169116.504;;0.9892439842224121;0.0818701907992363;-0.12121690064668655;;-92.54861450195312;-114.96794128417969;-7.7629852294921875;;;;0.08606051398332648;;1.4488692505599;-0.0004134599003009498;-0.00040352100040763617;0.005356875713914633;-0.08196192972513161;0.0023252059477481828;-0.014192518081250277;0.013139237870123938;
7910ea1e-e247-43be-b202-e7e1fa929c31;1514169116.554;;0.9892681837081909;0.08178439736366272;-0.12107744812965393;;-93.59632873535156;-114.61636352539062;-6.7504119873046875;;;;0.08607178667157035;;1.4490110850298126;0.005360717885196209;-0.006955299526453018;0.00343224685639143;-0.08187584821408833;0.00231402067116985;-0.003488208395785786;0.01688470762721138;
7910ea1e-e247-43be-b202-e7e1fa929c31;1514169116.604;;0.9892717003822327;0.0817473977804184;-0.12107408046722412;;-93.94557189941406;-114.61636352539062;-8.100494384765625;;;;0.08626172939139727;;1.4490148700837493;-0.003355528926476836;-0.0063232011161744595;-0.0014845140976831317;-0.08183872061987543;-0.009968211960166588;0.00005432848623761646;0.0217958429934265;
7910ea1e-e247-43be-b202-e7e1fa929c31;1514169116.654;;0.9892598986625671;0.08170377463102341;-0.12119924277067184;;-95.86639404296875;-114.0889892578125;-7.9317474365234375;;;;0.08616888025699829;;1.4488887814852296;0.003705746727064252;-0.0012136651203036308;-0.009385536424815655;-0.08179495354332998;0.002230131096832354;0.0024985777347123414;0.02904336958396814;
7910ea1e-e247-43be-b202-e7e1fa929c31;1514169116.704;;0.9892419576644897;0.08172021806240082;-0.12133500725030899;;-93.77095031738281;-113.03424072265625;-8.269256591796875;;;;0.08625308269594219;;1.4487513842209057;0.002380982507020235;-0.003793582785874605;0.0001344523043371737;-0.08181145208814948;-0.016205335233132164;-0.017739049704908798;0.03250148425943603;
7910ea1e-e247-43be-b202-e7e1fa929c31;1514169116.754;;0.9890549182891846;0.08461808413267136;-0.12087278068065643;;-94.12019348144531;-114.44056701660156;-5.9066162109375;;;;0.08638388707258725;;1.4491889723661247;0.0000656122065265663;0.00893355067819357;0.0009234909084625542;-0.08471939494050411;-0.0015046860158947695;-0.01769111280528737;0.032459938946430796;
7910ea1e-e247-43be-b202-e7e1fa929c31;1514169116.804;;0.98906010389328;0.08461557328701019;-0.12083147466182709;;-94.81866455078125;-115.49531555175781;-6.9191741943359375;;;;0.08649002819796753;;1.4492307507296516;0.007964398711919785;0.02387441322207451;-0.004046438727527857;-0.08471687218433993;-0.0002814961272213755;-0.024818530830666437;0.03116883844996038;
7910ea1e-e247-43be-b202-e7e1fa929c31;1514169116.854;;0.98906010389328;0.08461557328701019;-0.12083147466182709;;-94.81866455078125;-115.49531555175781;-6.9191741943359375;;;;0.08649002819796753;;1.4492307507296516;0.007964398711919785;0.02387441322207451;-0.004046438727527857;-0.08471687218433993;-0.0002814961272213755;-0.024818530830666437;0.03116883844996038;
7910ea1e-e247-43be-b202-e7e1fa929c31;1514169116.904;;0.9890823364257812;0.0845743715763092;-0.12067854404449463;;-93.77095031738281;-115.14373779296875;-7.2566986083984375;;;;0.08656826988656012;;1.4493858066869867;-0.005653379485011101;-0.003046654164791107;0.013210899196565151;-0.08467551855883379;-0.0013816479735331087;-0.016565660928619885;0.016751549572707417;
7910ea1e-e247-43be-b202-e7e1fa929c31;1514169116.954;;0.989107608795166;0.08449079096317291;-0.12052994221448898;;-94.29481506347656;-115.67111206054688;-7.0879364013671875;;;;0.08667165264705089;;1.4495369115158074;-0.007906422019004822;-0.013751044869422913;-0.0030051867943257093;-0.08459163866449454;-0.0050773166182360675;0.006018744063579078;0.024265924904474996;
7910ea1e-e247-43be-b202-e7e1fa929c31;1514169117.004;;0.9889179468154907;0.08382090926170349;-0.12253698706626892;;-94.46943664550781;-114.44056701660156;-6.9191741943359375;;;;0.08653718203694204;;1.447514544911969;0.014515252783894539;-0.0008588718483224511;-0.008291948586702347;-0.08391937756720379;-0.005054946065079402;0.014328339296844317;0.02314792987885973;
7910ea1e-e247-43be-b202-e7e1fa929c31;1514169117.054;;0.9884678721427917;0.0864432230591774;-0.12433347851037979;;-94.12019348144531;-114.79216003417969;-7.5942230224609375;;;;0.08644067024580976;;1.4456694326169044;0.015728283673524857;0.011335101909935474;-0.009165667928755283;-0.0865512406758781;-0.00140588273945283;0.021486117358650286;0.028053206290676678;
7910ea1e-e247-43be-b202-e7e1fa929c31;1514169117.104;;0.9885110259056091;0.08738032728433609;-0.12333173304796219;;-94.12019348144531;-113.73739624023438;-7.2566986083984375;;;;0.0866203921800656;;1.4466725663175746;0.0043784258887171745;0.013068287633359432;-0.012898699380457401;-0.08749190405928349;-0.006404902421640568;-0.005819805930150159;0.03502296517952305;
7910ea1e-e247-43be-b202-e7e1fa929c31;1514169117.154;;0.9885738492012024;0.08733411133289337;-0.12285985797643661;;-94.64404296875;-114.61636352539062;-7.7629852294921875;;;;0.08664119492504638;;1.4471504227501457;0.0019962494261562824;0.009742306545376778;0.00017924657731782645;-0.08744551518119473;-0.003947337367715447;-0.018891665824695092;0.03124447222491863;
7910ea1e-e247-43be-b202-e7e1fa929c31;1514169117.204;;0.9885734915733337;0.08734952658414841;-0.12285177409648895;;-94.29481506347656;-114.26478576660156;-6.7504119873046875;;;;0.08669818297168398;;1.4471584222804745;0.0020118693355470896;-0.007683396339416504;0.005374433938413858;-0.08746099186630177;-0.003910053112454338;-0.01891084058454366;0.0264071064208987;
7910ea1e-e247-43be-b202-e7e1fa929c31;1514169117.254;;0.9885768294334412;0.0873713567852974;-0.1228090226650238;;-94.29481506347656;-114.26478576660156;-6.7504119873046875;;;;0.08674096890190935;;1.4472014295528859;-0.0007686308235861361;0.001099108369089663;0.015402350574731827;-0.08748290006229936;-0.001418932228794218;-0.022490129089610157;0.02031432647901542;
7910ea1e-e247-43be-b202-e7e1fa929c31;1514169117.304;;0.9885920882225037;0.08639325946569443;-0.12337660789489746;;-94.64404296875;-113.21002197265625;-7.0879364013671875;;;;0.08668273423786002;;1.446637946648859;0.005517962388694286;-0.002744578290730715;-0.003927518613636494;-0.08650109128111488;-0.00261415892602178;-0.015377092134117521;0.01797740262247089;
7910ea1e-e247-43be-b202-e7e1fa929c31;1514169117.354;;0.9885870814323425;0.08648112416267395;-0.1233549416065216;;-92.37399291992188;-116.198486328125;-8.269256591796875;;;;0.08684198834255857;;1.4466589069752902;-0.0025947336107492447;-0.0083561260253191;0.008868206292390823;-0.08658928672747468;-0.007503190055189245;-0.008266452023605955;0.01806954799618763;
7910ea1e-e247-43be-b202-e7e1fa929c31;1514169117.404;;0.9885730743408203;0.08644822984933853;-0.12349068373441696;;-94.64404296875;-113.91319274902344;-6.41290283203125;;;;0.086845726407892;;1.4465219615653118;-0.010576260276138783;-0.0029521347023546696;-0.00009021776349982247;-0.08655626657473528;0.00344027149616436;-0.006999586293055262;0.02893551155981993;
7910ea1e-e247-43be-b202-e7e1fa929c31;1514169117.454;;0.9885578155517578;0.08717779815196991;-0.12309937924146652;;-94.29481506347656;-113.56161499023438;-5.73785400390625;;;;0.08704987679909207;;1.4469098293371248;-0.0031299723777920008;0.0036730351857841015;0.002860096050426364;-0.08728860094949974;-0.003967843708109057;-0.020069848290946147;0.033650105637587205;
7910ea1e-e247-43be-b202-e7e1fa929c31;1514169117.504;;0.9888100028038025;0.08593732118606567;-0.12194111943244934;;-93.07246398925781;-114.79216003417969;-7.2566986083984375;;;;0.08713622800809992;;1.448094764755533;-0.004434958100318909;0.0010835588909685612;0.023048941045999527;-0.08604345098765927;-0.00027963191445832;-0.035518046826168784;0.028632710143877922;
7910ea1e-e247-43be-b202-e7e1fa929c31;1514169117.554;;0.988826334476471;0.08600997924804688;-0.1217569038271904;;-94.46943664550781;-115.49531555175781;-6.9191741943359375;;;;0.08729663495616632;;1.4482802796347924;-0.012309620156884193;-0.0016288795741274953;0.024985669180750847;-0.08611638367690845;-0.006360161315327237;-0.04269340175116928;0.021315675048885215;
7910ea1e-e247-43be-b202-e7e1fa929c31;1514169117.604;;0.9888325929641724;0.08607039600610733;-0.12166313081979752;;-94.46943664550781;-114.0889892578125;-6.5816650390625;;;;0.08734651607306011;;1.4483744623609371;-0.013521349988877773;0.002216960769146681;0.020085377618670464;-0.08617701950106493;-0.0001733717869641584;-0.039138880644240516;0.014081464263793971;
7910ea1e-e247-43be-b202-e7e1fa929c31;1514169117.654;;0.9888363480567932;0.08607785403728485;-0.12162723392248154;;-96.041015625;-115.67111206054688;-8.775543212890625;;;;0.0875135631499482;;1.4484106817954485;-0.0007077344926074147;-0.007617168594151735;0.01612795889377594;-0.08618451062822344;-0.005053081852316347;-0.02608939130285225;0.014238857084217654;
7910ea1e-e247-43be-b202-e7e1fa929c31;1514169117.704;;0.9892663955688477;0.0836876779794693;-0.11978455632925034;;-94.12019348144531;-115.84690856933594;-6.9191741943359375;;;;0.08829481625055692;;1.450298703637894;-0.012261402793228626;-0.0007714196108281612;0.01300357747823;-0.08378567356657239;-0.014836736748940444;-0.00354413477867745;0.016933177159050822;
7910ea1e-e247-43be-b202-e7e1fa929c31;1514169117.754;;0.9892883896827698;0.08375027775764465;-0.11955948919057846;;-93.42170715332031;-114.44056701660156;-8.606781005859375;;;;0.08844018882848036;;1.4505255814491982;0.0017089828616008162;-0.00013211226905696094;-0.0004355579148977995;-0.08384849100758072;0.007162039119550095;-0.0010679275971217745;0.024153006874255634;
7910ea1e-e247-43be-b202-e7e1fa929c31;1514169117.804;;0.9915640950202942;0.09825796633958817;-0.08453409373760223;;-94.64404296875;-114.26478576660156;-6.41290283203125;;;;0.09237597351393824;;1.4857486950993508;-0.0037100890185683966;0.0011683017946779728;-0.038787391036748886;-0.09841676655539412;0.0045534728318174815;-0.030712638955229805;0.03834579127161492;
7910ea1e-e247-43be-b202-e7e1fa929c31;1514169117.854;;0.9915616512298584;0.09837065637111664;-0.0844317376613617;;-92.19937133789062;-114.61636352539062;-7.0879364013671875;;;;0.09287203048730923;;1.4858509685280652;0.005264529958367348;0.006136787123978138;-0.020792841911315918;-0.09853000546057263;-0.019871176473626236;-0.035586756382292827;0.02747876244354659;
7910ea1e-e247-43be-b202-e7e1fa929c31;1514169117.904;;0.991572380065918;0.09851188212633133;-0.08413995057344437;;-94.81866455078125;-114.44056701660156;-8.944305419921875;;;;0.09311486812022042;;1.4861440377852118;0.017384478822350502;0.01721077971160412;-0.004544162657111883;-0.09867191631829168;-0.006285592804805018;-0.01895717958751104;0.01673929903169305;
7910ea1e-e247-43be-b202-e7e1fa929c31;1514169117.954;;0.9916094541549683;0.09868350625038147;-0.08349968492984772;;-92.02474975585938;-113.73739624023438;-7.9317474365234375;;;;0.09346556979529552;;1.4867882869003217;0.01763734221458435;0.01813778094947338;0.007800818420946598;-0.09884437975599421;-0.01851749169153896;-0.007119428542108827;0.016904415019277964;
7910ea1e-e247-43be-b202-e7e1fa929c31;1514169118.004;;0.9916281700134277;0.09853265434503555;-0.08345621079206467;;-93.59632873535156;-113.91319274902344;-7.4254608154296875;;;;0.09417525572683312;;1.4868334029742445;-0.01108309905976057;-0.014609312638640404;-0.03524189442396164;-0.09869279327691838;-0.007512511119004523;-0.002318015412804969;0.020553478344904536;
7910ea1e-e247-43be-b202-e7e1fa929c31;1514169118.054;;0.9913379549980164;0.09654928743839264;-0.08903556317090988;;-93.94557189941406;-116.022705078125;-7.7629852294921875;;;;0.09409542770947242;;1.4812231230972628;0.011088218539953232;0.003090596990659833;-0.022124646231532097;-0.09669992465200916;-0.0038615835806148956;0.0060275324951763395;0.025471804246062872;
7910ea1e-e247-43be-b202-e7e1fa929c31;1514169118.104;;0.9909449815750122;0.0971701443195343;-0.09266047179698944;;-92.72323608398438;-115.49531555175781;-6.9191741943359375;;;;0.09534696590413927;;1.4775602562978343;0.008459897711873055;0.030698508024215698;0.023782236501574516;-0.09732371354469599;-0.013721671200524267;-0.026069417594676656;0.026356506360187198;
7910ea1e-e247-43be-b202-e7e1fa929c31;1514169118.154;;0.9909607172012329;0.09720180928707123;-0.09245855361223221;;-93.59632873535156;-114.61636352539062;-7.7629852294921875;;;;0.09619807035925922;;1.477763722997412;-0.007074045483022928;0.0018124752677977085;0.011449581943452358;-0.09735552578819162;-0.022269086719133583;-0.0023371901726535393;0.027851072363939664;
7910ea1e-e247-43be-b202-e7e1fa929c31;1514169118.204;;0.9909948110580444;0.09724497050046921;-0.09204742312431335;;-93.94557189941406;-114.96794128417969;-6.7504119873046875;;;;0.09734980016418902;;1.4781782105950614;0.004717483185231686;-0.014176112599670887;0.01732514053583145;-0.09739889037584672;-0.022297049910579413;-0.0023228091027671116;0.03147909671695461;
7910ea1e-e247-43be-b202-e7e1fa929c31;1514169118.254;;0.9909809231758118;0.09718326479196548;-0.09226150810718536;;-93.94557189941406;-114.61636352539062;-6.41290283203125;;;;0.0981903369794651;;1.4779627370597541;-0.01711924746632576;-0.0035095596686005592;-0.05339888855814934;-0.09733689338363631;-0.027197266316325214;-0.002338788069307587;0.031492945154623024;
7910ea1e-e247-43be-b202-e7e1fa929c31;1514169118.304;;0.9909312129020691;0.0974356159567833;-0.09252864867448807;;-93.77095031738281;-113.73739624023438;-7.2566986083984375;;;;0.10097908772540036;;1.4776908429004079;0.013951551169157028;0.019782403483986855;0.010802497155964375;-0.09759044641739742;-0.035722311281777865;-0.01190246585989114;0.022947393848776764;
7910ea1e-e247-43be-b202-e7e1fa929c31;1514169118.354;;0.9909374117851257;0.09759359806776047;-0.09229619801044464;;-91.32626342773438;-115.14373779296875;-5.569091796875;;;;0.10230954264263344;;1.4779239723033895;0.003004874102771282;0.004899683874100447;0.0149188581854105;-0.09774918900000211;-0.018560368585089235;0.007167365441730254;0.025526399048409497;
7910ea1e-e247-43be-b202-e7e1fa929c31;1514169118.404;;0.9902177453041077;0.09950966387987137;-0.09780844300985336;;-92.89784240722656;-115.31953430175781;-8.100494384765625;;;;0.10363019666063993;;1.4723410115631212;0.014832833781838417;0.016380833461880684;0.02558855712413788;-0.09967462340437223;-0.05408693752674627;0.01299516085515065;0.026901389119217408;
7910ea1e-e247-43be-b202-e7e1fa929c31;1514169118.454;;0.9896705746650696;0.10313555598258972;-0.099575474858284;;-94.81866455078125;-114.79216003417969;-6.244140625;;;;0.10722441996359121;;1.4705190327278166;-0.007263926789164543;-0.008393735624849796;-0.0121646448969841;-0.10331927929095505;-0.033337450525611906;0.000026365294791784458;0.03395503758240128;
7910ea1e-e247-43be-b202-e7e1fa929c31;1514169118.504;;0.9896895289421082;0.10325825214385986;-0.0992586612701416;;-92.19937133789062;-114.61636352539062;-7.4254608154296875;;;;0.10916517252840567;;1.4708378526549346;0.015330564230680466;0.009916187264025211;0.0017396988114342093;-0.10344263145170839;-0.03945899260726804;-0.003561711641871973;0.032723858210457646;
7910ea1e-e247-43be-b202-e7e1fa929c31;1514169118.554;;0.9898650646209717;0.10366741567850113;-0.0970577821135521;;-95.16790771484375;-115.49531555175781;-7.5942230224609375;;;;0.11137179026005677;;1.4730572229571741;0.0017273358535021544;0.006531551480293274;0.011822149157524109;-0.10385400526707973;-0.05166292830255615;0.002318015412804969;0.02798636094731569;
7910ea1e-e247-43be-b202-e7e1fa929c31;1514169118.604;;0.9898796677589417;0.1039176881313324;-0.09664088487625122;;-93.24708557128906;-113.91319274902344;-6.07537841796875;;;;0.1157196479439226;;1.473475822251014;0.00047683189040981233;-0.0054374635219573975;-0.02933565527200699;-0.10410563339962299;-0.05652213202751473;0.01654568722044429;0.0257381203550708;
7910ea1e-e247-43be-b202-e7e1fa929c31;1514169118.654;;0.9898358583450317;0.10414250940084457;-0.09684652835130692;;-94.9932861328125;-115.31953430175781;-5.40032958984375;;;;0.11825597524819838;;1.4732657538044545;-0.008588943630456924;0.01020685862749815;-0.0009165522060357034;-0.10433168235816936;-0.051674113579134484;-0.010752246585085916;0.026633475113555436;
7910ea1e-e247-43be-b202-e7e1fa929c31;1514169118.704;;0.9891510605812073;0.1113278716802597;-0.09584566950798035;;-93.77095031738281;-115.14373779296875;-4.8940582275390625;;;;0.1213625307022675;;1.4742009840245835;0.00865173526108265;0.024978885427117348;0.0018515968695282936;-0.11155913168431521;-0.05281900653175955;0.010599647454624377;0.02082512077609262;
7910ea1e-e247-43be-b202-e7e1fa929c31;1514169118.754;;0.9877178072929382;0.11902447789907455;-0.10122593492269516;;-94.29481506347656;-116.37428283691406;-6.07537841796875;;;;0.12654062567455784;;1.4686682127039434;0.004713824018836021;0.00798968505114317;0.01849277690052986;-0.11930731737826152;-0.056581786835932506;-0.021462947857166598;0.025320536696146374;
7910ea1e-e247-43be-b202-e7e1fa929c31;1514169118.804;;0.9880994558334351;0.12022329121828079;-0.095947265625;;-94.46943664550781;-116.198486328125;-5.9066162109375;;;;0.13094816351952343;;1.4739969594897717;0.004240651614964008;0.022797340527176857;0.04081719368696213;-0.12051480281370089;-0.0860203695256684;-0.02153964689656088;0.030240993126176775;
7910ea1e-e247-43be-b202-e7e1fa929c31;1514169118.854;;0.9881073236465454;0.1202094554901123;-0.09588336199522018;;-93.42170715332031;-115.14373779296875;-7.2566986083984375;;;;0.1345517754102201;;1.474061791498183;-0.0018249654676765203;-0.012070422992110252;0.03812885656952858;-0.12050086286639232;-0.07134209086158767;-0.03574494815104354;0.03004285394107488;
7910ea1e-e247-43be-b202-e7e1fa929c31;1514169118.904;;0.9881895184516907;0.12033961713314056;-0.09486770629882812;;-94.81866455078125;-114.79216003417969;-6.5816650390625;;;;0.14352493357261364;;1.4750881068702881;-0.008712573908269405;0.025824328884482384;0.03728105500340462;-0.12063197709514474;-0.11910055868997865;-0.018079401692220925;0.031582959999467704;
7910ea1e-e247-43be-b202-e7e1fa929c31;1514169118.954;;0.9882251024246216;0.12019994854927063;-0.09467372298240662;;-93.77095031738281;-114.79216003417969;-7.2566986083984375;;;;0.1475575223863962;;1.4752860316809693;-0.0034991528373211622;-0.012381352484226227;0.05123194307088852;-0.12049129133417112;-0.08850589777103936;-0.03817162053632374;0.031274565945236525;
7910ea1e-e247-43be-b202-e7e1fa929c31;1514169119.004;;0.9882550239562988;0.12028387188911438;-0.09425331652164459;;-93.94557189941406;-115.67111206054688;-6.7504119873046875;;;;0.15239211368174532;;1.4757104611266358;-0.021915970370173454;0.01983758807182312;0.029250847175717354;-0.12057582254224192;-0.0787874903211222;-0.03096510662656932;0.043418580515997854;
7910ea1e-e247-43be-b202-e7e1fa929c31;1514169119.054;;0.988268256187439;0.12058968096971512;-0.09372352063655853;;-94.81866455078125;-116.90165710449219;-6.9191741943359375;;;;0.158419114385839;;1.4762430019668569;0.0009133194689638913;0.011948172934353352;-0.00480247987434268;-0.12088387517873897;-0.11543471744948458;-0.0418371954607088;0.02768355953137368;
7910ea1e-e247-43be-b202-e7e1fa929c31;1514169119.104;;0.9882898330688477;0.12050886452198029;-0.09359872341156006;;-93.94557189941406;-114.96794128417969;-9.113067626953125;;;;0.16356823147704697;;1.4763702066847977;-0.030785618349909782;-0.0012766761938109994;-0.0037981930654495955;-0.12080246368006103;-0.10563242042522993;-0.0525047535231302;0.0251197343499544;
7910ea1e-e247-43be-b202-e7e1fa929c31;1514169119.154;;0.9892073273658752;0.13072533905506134;-0.06618010997772217;;-94.81866455078125;-114.44056701660156;-7.2566986083984375;;;;0.17310700726168363;;1.503993713829614;-0.021113427355885506;0.003643566742539406;0.027056587859988213;-0.13110056144707505;-0.1778826492185346;-0.05275482434948864;0.02169597445254853;
7910ea1e-e247-43be-b202-e7e1fa929c31;1514169119.204;;0.9892751574516296;0.13086169958114624;-0.06488416343927383;;-93.24708557128906;-117.07745361328125;-7.7629852294921875;;;;0.18686950151318946;;1.5053025474739792;0.012479638680815697;0.03477245941758156;-0.030849514529109;-0.1312381103056363;-0.13138465553407813;-0.06327377802308361;0.02628433469464605;
7910ea1e-e247-43be-b202-e7e1fa929c31;1514169119.254;;0.9893679618835449;0.13059231638908386;-0.0640053078532219;;-93.94557189941406;-116.022705078125;-8.775543212890625;;;;0.19410796016492693;;1.50619322479518;0.02895783819258213;0.01839449629187584;-0.02318347431719303;-0.1309663922737962;-0.13757517348796733;-0.06326019590152421;0.03476703539876644;
7910ea1e-e247-43be-b202-e7e1fa929c31;1514169119.304;;0.9894445538520813;0.13039372861385345;-0.06322138756513596;;-92.19937133789062;-116.022705078125;-10.8006591796875;;;;0.2022447629607473;;1.5069872328268954;0.006466090213507414;0.0078051271848380566;-0.057628173381090164;-0.13076608201850776;-0.14250335308515896;-0.045430865035661724;0.042232674882585565;
7910ea1e-e247-43be-b202-e7e1fa929c31;1514169119.354;;0.9896716475486755;0.1293051391839981;-0.061887986958026886;;-93.24708557128906;-117.78062438964844;-8.775543212890625;;;;0.2178821748830721;;1.508343790876992;0.04826166108250618;0.008954748511314392;-0.007325845304876566;-0.1296682005220606;-0.15109923813560772;-0.01691879608916439;0.05103548754973348;
7910ea1e-e247-43be-b202-e7e1fa929c31;1514169119.404;;0.9897530674934387;0.12896563112735748;-0.061291877180337906;;-96.041015625;-115.67111206054688;-9.450576782226562;;;;0.2269742839454698;;1.5089488731724916;0.019005458801984787;0.02073833905160427;-0.02406579628586769;-0.12932583404771567;-0.20486925949263457;0.03157523683230647;0.04446680072105304;
7910ea1e-e247-43be-b202-e7e1fa929c31;1514169119.454;;0.9896887540817261;0.12981954216957092;-0.060523293912410736;;-95.16790771484375;-117.60482788085938;-10.294387817382812;;;;0.24429199967627724;;1.5097185243652211;0.03390134498476982;0.009600009769201279;-0.05004185065627098;-0.13018698478869922;-0.17059757205662288;0.04834462958431742;0.051808603214183485;
7910ea1e-e247-43be-b202-e7e1fa929c31;1514169119.504;;0.988060474395752;0.1340055763721466;-0.07602005451917648;;-95.16790771484375;-117.60482788085938;-11.64447021484375;;;;0.25181531650251726;;1.4940089341582865;0.01563216932117939;0.02111527882516384;-0.025557778775691986;-0.13440992684969982;-0.22570636449363254;0.05409892175165163;0.05082030413365508;
7910ea1e-e247-43be-b202-e7e1fa929c31;1514169119.554;;0.9880970120429993;0.13409879803657532;-0.07537785172462463;;-94.9932861328125;-117.78062438964844;-11.813232421875;;;;0.26130103913043995;;1.4946579143235623;0.00593681400641799;0.00364228175021708;-0.07949879765510559;-0.13450398722158524;-0.18415892095952435;0.017437846185620835;0.05634476549891545;
7910ea1e-e247-43be-b202-e7e1fa929c31;1514169119.604;;0.9881638884544373;0.13461481034755707;-0.07355979084968567;;-95.6917724609375;-118.48377990722656;-11.4757080078125;;;;0.2819147709644311;;1.4964924895570513;0.008540239185094833;0.05470098927617073;0.01803300902247429;-0.13502471946603042;-0.23689217370418336;-0.012423380169110638;0.057376740421321154;
7910ea1e-e247-43be-b202-e7e1fa929c31;1514169119.654;;0.9882804751396179;0.13433235883712769;-0.07250209897756577;;-94.46943664550781;-118.65957641601562;-11.98199462890625;;;;0.29252036226235556;;1.4975656488914928;-0.02679363451898098;0.029211321845650673;-0.04448697343468666;-0.13473968987789872;-0.2393068618645582;-0.01958195717924363;0.05125866044908212;
7910ea1e-e247-43be-b202-e7e1fa929c31;1514169119.704;;0.9884357452392578;0.13375703990459442;-0.07144085317850113;;-96.39024353027344;-118.48377990722656;-12.488265991210938;;;;0.3035841309620066;;1.498645109708191;-0.036165256053209305;0.02166897989809513;-0.008545716293156147;-0.1341591246639407;-0.2417998469609814;-0.035021367282869004;0.053514624208488244;
7910ea1e-e247-43be-b202-e7e1fa929c31;1514169119.754;;0.9890276193618774;0.13090504705905914;-0.06846976280212402;;-96.21563720703125;-117.95640563964844;-12.657028198242188;;;;0.32625745061116085;;1.5016772344004596;-0.012343114241957664;0.08241281658411026;0.15118764340877533;-0.1312818330360539;-0.2162843668730412;-0.06811354067208461;0.07363533887625491;
7910ea1e-e247-43be-b202-e7e1fa929c31;1514169119.804;;0.9894615411758423;0.12814675271511078;-0.06741192936897278;;-94.9932861328125;-118.83537292480469;-13.500823974609375;;;;0.33735920897376176;;1.5027715284837202;-0.004674502648413181;0.05201376974582672;0.16769270598888397;-0.12850010583777677;-0.25296328561837556;-0.09917771689120487;0.05767847657282713;
7910ea1e-e247-43be-b202-e7e1fa929c31;1514169119.854;;0.9900937080383301;0.12412182986736298;-0.06563732028007507;;-96.56486511230469;-119.71432495117188;-12.994552612304688;;;;0.3602447432056055;;1.5045991389429814;-0.022793268784880638;0.015633413568139076;0.09290485084056854;-0.12444276486784829;-0.24203100934360025;-0.09315018439602854;0.07101532099583495;
7910ea1e-e247-43be-b202-e7e1fa929c31;1514169119.904;;0.9921274185180664;0.12498246878385544;-0.007919156923890114;;-98.83493041992188;-120.24169921875;-20.926284790039062;;;;0.519520609610216;;1.5628145007615637;0.01481540221720934;-0.05592117831110954;0.050140269100666046;-0.12531015882038404;-0.2076866176098294;-0.08949419685156776;0.0661201645961603;
7910ea1e-e247-43be-b202-e7e1fa929c31;1514169119.954;;0.9948710799217224;0.1011342704296112;0.001841593300923705;;-97.08872985839844;-121.29646301269531;-21.601318359375;;;;0.5301163706012271;;1.5726474120237415;-0.01720995083451271;0.025773100554943085;0.03876202553510666;-0.1013074678344056;-0.16214336717616631;-0.07043794767150577;0.04201402935709006;
7910ea1e-e247-43be-b202-e7e1fa929c31;1514169120.004;-16.921112060546875;0.9944906234741211;0.10466700792312622;-0.005763112101703882;;-97.78721618652344;-120.24169921875;-23.626449584960938;;2.0299999713897705;49.921875;0.5873774692454307;;1.5650013522401216;0.0675516128540039;-0.09049160033464432;-0.041798561811447144;-0.10485906533236113;-0.05535859694725911;0.06650792085087584;0.044422858563066735;
7910ea1e-e247-43be-b202-e7e1fa929c31;1514169120.054;;0.9945366382598877;0.10416608303785324;-0.006806287448853254;;-98.13644409179688;-122.35121154785156;-24.639007568359375;;;;0.5886054553230593;;1.5639527566332725;0.03060985915362835;-0.09240156412124634;-0.021590232849121094;-0.1043553875038847;-0.009977533023981865;0.04166462262207166;0.03192730672841495;
7910ea1e-e247-43be-b202-e7e1fa929c31;1514169120.104;;0.9944624900817871;0.10483117401599884;-0.007400595583021641;;-98.13644409179688;-121.99961853027344;-22.6138916015625;;;;0.5883809523809633;;1.5633546594969931;0.010817042551934719;-0.13826316595077515;-0.03369138389825821;-0.10502413824571095;-0.0073521888213817525;0.046337405070724695;0.010204434348856617;
7910ea1e-e247-43be-b202-e7e1fa929c31;1514169120.154;;0.9943521022796631;0.10584942251443863;-0.007730817422270775;;-97.61259460449219;-121.12066650390625;-22.10760498046875;;;;0.5877958624514628;;1.563021754963658;0.04533599317073822;-0.03907695412635803;-0.07933589071035385;-0.10604808667258464;0.03650554695837017;0.015699867258235124;0.035136682158069435;
7910ea1e-e247-43be-b202-e7e1fa929c31;1514169120.204;;0.99446040391922;0.10464292764663696;-0.009914256632328033;;-98.13644409179688;-121.99961853027344;-21.601318359375;;;;0.5827443120471195;;1.5608271738338122;-0.057128287851810455;-0.037260107696056366;-0.007297671865671873;-0.10483484856945191;0.04881760699391549;0.04304893375669486;0.032983516416740376;
7910ea1e-e247-43be-b202-e7e1fa929c31;1514169120.254;;0.9945399165153503;0.10377411544322968;-0.011011317372322083;;-98.48568725585938;-121.99961853027344;-20.926284790039062;;;;0.5782163312822368;;1.5597250095116393;0.054623883217573166;-0.11437897384166718;-0.0962885394692421;-0.10396128399953664;0.10260627047857289;-0.0054546865447002955;0.03713352034341085;
7910ea1e-e247-43be-b202-e7e1fa929c31;1514169120.304;;0.9947373867034912;0.101723812520504;-0.012243861332535744;;-99.18417358398438;-123.40596008300781;-21.9388427734375;;;;0.5731167489980463;;1.5584883111237349;0.032453831285238266;-0.1173182800412178;-0.09575782716274261;-0.10190006799589789;0.12542183785339073;-0.05506857870454948;0.08610266120335185;
7910ea1e-e247-43be-b202-e7e1fa929c31;1514169120.354;;0.9952600002288818;0.096033975481987;-0.015329340472817421;;-97.96183776855469;-124.28492736816406;-20.757522583007812;;;;0.5593965723399054;;1.5553951963944164;-0.029912715777754784;-0.1644238978624344;-0.07320214062929153;-0.09618220687965151;0.15618614213376808;-0.07405931412179552;0.06403917052037239;
7910ea1e-e247-43be-b202-e7e1fa929c31;1514169120.404;;0.9953599572181702;0.09476709365844727;-0.01666615903377533;;-99.35879516601562;-122.52700805664062;-20.419998168945312;;;;0.5516867612448134;;1.5540540401901701;0.0025953673757612705;-0.13543175160884857;-0.07183481007814407;-0.09490951539363598;0.16486778097131738;-0.05387761306506605;0.05456204546521641;
7910ea1e-e247-43be-b202-e7e1fa929c31;1514169120.454;;0.9954042434692383;0.0940258577466011;-0.01814945973455906;;-97.78721618652344;-122.35121154785156;-20.926284790039062;;;;0.5436184782054683;;1.5525650927143322;0.018679557368159294;-0.1962902843952179;-0.07447141408920288;-0.09416496023885473;0.20689619139829388;0.00787842945278141;0.018842663660637634;
7910ea1e-e247-43be-b202-e7e1fa929c31;1514169120.504;;0.9953244924545288;0.09463951736688614;-0.01929955929517746;;-97.26335144042969;-123.58175659179688;-21.095046997070312;;;;0.5241463012440072;;1.551408538771972;-0.0289548821747303;-0.16870568692684174;-0.07617460936307907;-0.09478136506746832;0.2031800164131973;0.01739736613705163;0.026213494609649942;
7910ea1e-e247-43be-b202-e7e1fa929c31;1514169120.554;;0.9952362179756165;0.09560773521661758;-0.019083265215158463;;-99.88264465332031;-122.70278930664062;-19.913726806640625;;;;0.5144550500580735;;1.5516240677786823;-0.008358705788850784;-0.201137512922287;-0.036306072026491165;-0.09575399572769756;0.18011650874089308;0.021967084251518595;-0.00027403927616915364;
7910ea1e-e247-43be-b202-e7e1fa929c31;1514169120.604;;0.9951471090316772;0.09638812392950058;-0.019791049882769585;;-99.18417358398438;-123.75755310058594;-19.238677978515625;;;;0.5035037674664078;;1.5509113856211767;-0.011611279100179672;-0.15231157839298248;-0.03788711875677109;-0.09653799955172088;0.254626696035239;-0.027603664698671305;0.017106815262123987;
7910ea1e-e247-43be-b202-e7e1fa929c31;1514169120.654;;0.9954133629798889;0.06886168569326401;-0.06641046702861786;;-100.23188781738281;-124.46070861816406;-18.226119995117188;;;;0.47666879407315904;;1.5041785835882377;0.018640009686350822;-0.1391589492559433;0.07347533851861954;-0.06891622304634079;0.24135430011061113;-0.06460269540703316;-0.017121196332010414;
7910ea1e-e247-43be-b202-e7e1fa929c31;1514169120.704;;0.9953591823577881;0.06881523132324219;-0.06726506352424622;;-98.66030883789062;-125.33967590332031;-18.394882202148438;;;;0.4634852102486039;;1.5033202338022797;-0.02609037421643734;-0.038007721304893494;-0.03373289853334427;-0.0688696633820157;0.28773671260375816;-0.08338330741427194;0.0006785734457521898;
7910ea1e-e247-43be-b202-e7e1fa929c31;1514169120.754;;0.995341420173645;0.06843505054712296;-0.06791260093450546;;-99.00955200195312;-125.33967590332031;-18.394882202148438;;;;0.45162508733332124;;1.5026714532408592;-0.04123985022306442;-0.09953244775533676;0.022365085780620575;-0.0684885840790673;0.23764558197656677;-0.02061446473386735;-0.0033252229370729367;
7910ea1e-e247-43be-b202-e7e1fa929c31;1514169120.804;;0.9953910708427429;0.06866442412137985;-0.06694585084915161;;-98.48568725585938;-124.46070861816406;-17.21356201171875;;;;0.4264487524644168;;1.5036416266752846;-0.006240104790776968;-0.13415515422821045;-0.017694678157567978;-0.06871849226682075;0.2805578955693406;0.0020929783006932733;-0.0031984564691851652;
7910ea1e-e247-43be-b202-e7e1fa929c31;1514169120.854;;0.9953886866569519;0.06963571161031723;-0.0659717544913292;;-97.61259460449219;-123.93333435058594;-17.719833374023438;;;;0.41483149022283455;;1.5046157391715695;0.004245127085596323;-0.09957345575094223;-0.011161372065544128;-0.06969211179410925;0.2144832710278206;0.022045381187566927;-0.008836368496882912;
7910ea1e-e247-43be-b202-e7e1fa929c31;1514169120.904;;0.9954281449317932;0.07007250189781189;-0.06490495055913925;;-98.48568725585938;-125.16387939453125;-17.21356201171875;;;;0.4014051739333029;;1.5056854476311536;0.007577831856906414;-0.0870250016450882;0.041238512843847275;-0.07012997515507019;0.2768584984991115;-0.013360013924491506;-0.0033577135023719036;
7910ea1e-e247-43be-b202-e7e1fa929c31;1514169120.954;;0.9955483078956604;0.06984762102365494;-0.06328310817480087;;-98.48568725585938;-125.86705017089844;-14.513397216796875;;;;0.38794182792599885;;1.5073156550889615;0.006725185550749302;-0.08397725224494934;0.0643359124660492;-0.0699045402719444;0.22165090278565988;0.0067098343664546405;0.011532020152261117;
7910ea1e-e247-43be-b202-e7e1fa929c31;1514169121.004;;0.9957278370857239;0.06946879625320435;-0.060830291360616684;;-97.61259460449219;-124.98808288574219;-14.682159423828125;;;;0.36138342621969716;;1.5097808741634806;0.011672762222588062;-0.09791118651628494;-0.0033175970893353224;-0.06952479353807098;0.29651342629222327;0.044923799164110635;0.0020636835287024015;
7910ea1e-e247-43be-b202-e7e1fa929c31;1514169121.054;;0.9991887211799622;0.024555973708629608;-0.03192099183797836;;-98.83493041992188;-125.16387939453125;-15.863479614257812;;;;0.3499873751092481;;1.5388602768858528;0.05409499257802963;-0.06071929261088371;-0.01660199649631977;-0.02455844247539002;0.24119024938746225;0.02701377451721875;0.02379188223044089;
7910ea1e-e247-43be-b202-e7e1fa929c31;1514169121.104;;0.9992177486419678;0.024401599541306496;-0.031119780614972115;;-98.66030883789062;-126.74600219726562;-16.032241821289062;;;;0.33735341135664476;;1.5396622473080999;0.02682899869978428;-0.06236546114087105;0.005988547578454018;-0.024404022252199706;0.3135299603933936;0.001065797068249711;0.009997773048266469;
7910ea1e-e247-43be-b202-e7e1fa929c31;1514169121.154;;0.9992265105247498;0.025668350979685783;-0.02979060262441635;;-99.88264465332031;-126.92179870605469;-13.838348388671875;;;;0.31059602919853735;;1.5409914931929543;0.016978304833173752;-0.06093140318989754;0.0026451866142451763;-0.02567117119212188;0.2473900884051667;-0.014610101740174701;0.005177717791332055;
7910ea1e-e247-43be-b202-e7e1fa929c31;1514169121.204;;0.9992548227310181;0.0258112084120512;-0.028699055314064026;;-100.40650939941406;-126.39442443847656;-12.319503784179688;;;;0.29731067811689477;;1.5420837632275366;-0.0037103614304214716;0.029456129297614098;-0.09201321750879288;-0.025814075550971136;0.26310699989437836;0.01288996599209252;0.03808506780089616;
7910ea1e-e247-43be-b202-e7e1fa929c31;1514169121.254;-4.5313720703125;0.9992765188217163;0.025750083848834038;-0.027988819405436516;;-99.35879516601562;-126.74600219726562;-14.007110595703125;;2.869999885559082;57.65625;0.28326994439455044;;1.5427945646897598;-0.01209389977157116;-0.041970185935497284;-0.020412027835845947;-0.025752931248310042;0.2512143877305205;-0.008731173633824783;-0.012907542855287044;
7910ea1e-e247-43be-b202-e7e1fa929c31;1514169121.304;;0.999263346195221;0.026998260989785194;-0.027273045852780342;31.297233314130327;-98.83493041992188;-127.27339172363281;-14.513397216796875;121.46867929168569;;;0.27085530166360733;;1.5435099495406546;0.01662103272974491;-0.009801596403121948;0.03664190322160721;-0.027001542219485652;0.2279029397607299;-0.025431057881384663;-0.011815114176136541;
7910ea1e-e247-43be-b202-e7e1fa929c31;1514169121.354;;0.9995585083961487;0.029427511617541313;-0.00408047903329134;31.29723408318236;-100.93037414550781;-128.32814025878906;-13.500823974609375;121.46869734178871;;;0.24668333145734866;;1.5667140682267218;0.0184467826038599;-0.07795047014951706;-0.08519875258207321;-0.029431760439974176;0.23651187430052004;-0.015910523300460392;-0.014153635929335119;
7910ea1e-e247-43be-b202-e7e1fa929c31;1514169121.404;;0.9999285936355591;0.011910133995115757;-0.0009016265976242721;;-99.70803833007812;-126.39442443847656;-13.669586181640625;;;;0.235596745860687;;1.5698946360743622;0.03927116468548775;-0.044808078557252884;0.0068372334353625774;-0.011910415800236438;0.23761389035959482;0.006742591247862615;0.00664964692581885;
7910ea1e-e247-43be-b202-e7e1fa929c31;1514169121.454;;0.9999170899391174;0.012869887053966522;-0.0004672501818276942;31.29723536537444;-98.66030883789062;-127.09759521484375;-12.319503784179688;121.46872743559128;;;0.22380344343235525;;1.570329037902222;0.04671378806233406;-0.020499277859926224;0.03905671834945679;-0.012870242780452646;0.2425234278291559;0.012697419445279792;0.006701045934857379;
7910ea1e-e247-43be-b202-e7e1fa929c31;1514169121.504;;0.9999006986618042;0.014079947024583817;0.00047312304377555847;;-99.88264465332031;-125.86705017089844;-13.500823974609375;;;;0.2121380919227052;;1.5712694967765795;0.05817418918013573;0.025119885802268982;0.014739830046892166;-0.01408041215192314;0.2033477955618723;0.03514200848024959;0.008269115184696035;
7910ea1e-e247-43be-b202-e7e1fa929c31;1514169121.554;;0.9998852610588074;0.015105785802006721;0.0010966673726215959;;-99.53341674804688;-125.86705017089844;-11.4757080078125;;;;0.2015846324393216;;1.5718931195968167;0.013405106030404568;0.02551310695707798;-0.03252976015210152;-0.015106360457740083;0.21316687050099445;0.023277093191728573;0.0032735576119253995;
7910ea1e-e247-43be-b202-e7e1fa929c31;1514169121.604;;0.9998217821121216;0.018554745241999626;0.003488316433504224;31.29723664740383;-99.00955200195312;-127.09759521484375;-10.96942138671875;121.46875752557551;;;0.18161389179582246;;1.5742852510268652;0.007838151417672634;0.06623834371566772;0.017889201641082764;-0.018555809959968538;0.17649168018118624;0.0005320995857978318;-0.011382616815107672;
7910ea1e-e247-43be-b202-e7e1fa929c31;1514169121.654;;0.9997802376747131;0.020563896745443344;0.004076389595866203;31.297237413194445;-100.75575256347656;-127.80076599121094;-11.64447021484375;121.46877549913195;;;0.17310735364059612;;1.5748735899660786;-0.008645586669445038;0.03639715909957886;0.02203146554529667;-0.020565346483543825;0.14591193296435137;-0.029309952009085073;-0.023715715823264625;
7910ea1e-e247-43be-b202-e7e1fa929c31;1514169121.704;;0.9996935725212097;0.02279895544052124;-0.009641125798225403;;-100.75575256347656;-126.39442443847656;-11.98199462890625;;;;0.1559804389881362;;1.5611525451345993;0.0002453837660141289;0.05627208948135376;-0.0324425995349884;-0.022800930957094758;0.19717219131008756;-0.05044053736220978;-0.003537210559843244;
7910ea1e-e247-43be-b202-e7e1fa929c31;1514169121.754;;0.999294102191925;0.032504621893167496;-0.01883651874959469;;-99.88264465332031;-125.51547241210938;-11.4757080078125;;;;0.14738747713560568;;1.5519487344652105;-0.13163354992866516;0.019009053707122803;0.04242660477757454;-0.03251034705668714;0.18374320151336299;-0.04456480504916795;-0.008271245713568099;
7910ea1e-e247-43be-b202-e7e1fa929c31;1514169121.804;;0.9992554187774658;0.034341853111982346;-0.017582615837454796;;-101.10499572753906;-125.33967590332031;-10.96942138671875;;;;0.14153320798177696;;1.5532024243633555;0.1466643363237381;0.11736103147268295;0.09370867908000946;-0.03434860733141723;0.09293819677325824;-0.1410697734703693;-0.009072058253354925;
7910ea1e-e247-43be-b202-e7e1fa929c31;1514169121.854;;0.9992800951004028;0.03359922766685486;-0.017615271732211113;;-99.70803833007812;-125.69125366210938;-10.294387817382812;;;;0.1321190604715105;;1.553170190751498;0.09288294613361359;0.10101380944252014;-0.08016311377286911;-0.03360555417700701;0.0841111493401906;-0.05181366322025464;0.04272322915537816;
7910ea1e-e247-43be-b202-e7e1fa929c31;1514169121.904;;0.9992868304252625;0.03334398567676544;-0.017721490934491158;;-99.88264465332031;-124.81230163574219;-10.8006591796875;;;;0.1202042595722603;;1.5530640469776262;-0.014576115645468235;0.07000379264354706;-0.0684906467795372;-0.033350168784305904;0.1112879093161222;-0.020934843013003884;0.02000886190198333;
7910ea1e-e247-43be-b202-e7e1fa929c31;1514169121.954;;0.9993153214454651;0.032843250781297684;-0.017040161415934563;;-100.05726623535156;-125.69125366210938;-10.294387817382812;;;;0.11258708950193251;;1.5537461430286819;-0.005037287715822458;0.030099257826805115;-0.0776558369398117;-0.03284915841138325;0.21664629046518297;-0.0063284696983552935;0.0222863972662191;
7910ea1e-e247-43be-b202-e7e1fa929c31;1514169122.004;;0.9993284344673157;0.032231345772743225;-0.017431650310754776;;-100.05726623535156;-124.63650512695312;-8.944305419921875;;;;0.10283754596453376;;1.5533547309078688;0.018737994134426117;0.00936411414295435;-0.04435110464692116;-0.032236927542474515;0.0856773543772662;-0.09002443222460253;-0.009699499006177593;
7910ea1e-e247-43be-b202-e7e1fa929c31;1514169122.054;;0.9994016289710999;0.03227765113115311;-0.012430548667907715;;-97.08872985839844;-120.24169921875;-8.100494384765625;;;;0.03872316071425878;;1.558358976917139;-0.03797585889697075;-0.0921989157795906;0.052484869956970215;-0.03228325834197925;0.1235925125006153;-0.05777328510763395;0.005057609226169481;
7910ea1e-e247-43be-b202-e7e1fa929c31;1514169122.104;;0.9993811249732971;0.033197592943906784;-0.011634409427642822;;-98.13644409179688;-119.89012145996094;-8.775543212890625;;;;0.03430692682925121;;1.5591552383674787;-0.034613631665706635;-0.017938800156116486;0.02109486609697342;-0.033203692413481936;0.0574321341719948;-0.13406379559069787;-0.01010270159521559;
7910ea1e-e247-43be-b202-e7e1fa929c31;1514169122.154;-8.416656494140625;0.9994508624076843;0.032019831240177155;-0.008526361547410488;;-98.48568725585938;-120.24169921875;-8.775543212890625;;5.070000171661377;88.9453125;0.02195803169334227;;1.5622654871838586;0.039581116288900375;0.09343793243169785;0.06242036819458008;-0.03202530379112789;0.011096326997924153;-0.07370165158739787;-0.02502705634401964;
7910ea1e-e247-43be-b202-e7e1fa929c31;1514169122.204;;0.9995107054710388;0.03036106936633587;-0.007515661884099245;;-98.48568725585938;-120.24169921875;-8.775543212890625;;;;0.023657056485892215;;1.563277127490683;-0.037947628647089005;0.04410181939601898;0.13034889101982117;-0.030365734822925282;-0.058207646681425876;-0.09852817190133455;0.0607560255285227;
7910ea1e-e247-43be-b202-e7e1fa929c31;1514169122.254;;0.9996909499168396;0.024186786264181137;-0.005739075597375631;;-97.61259460449219;-120.76908874511719;-7.5942230224609375;;;;0.022526716943420743;;1.565055540125346;-0.141811341047287;-0.07240456342697144;0.15144525468349457;-0.024189145000253418;0.04711158599961073;-0.18018868040643424;0.04746445484404623;
7910ea1e-e247-43be-b202-e7e1fa929c31;1514169122.304;;0.9997265934944153;0.023175785318017006;-0.0031056732404977083;;-97.26335144042969;-120.41749572753906;-8.944305419921875;;;;0.0224133742907174;;1.5676898142487885;-0.09433107078075409;0.015901973471045494;0.11444904655218124;-0.023177859673017113;-0.011471033763298303;-0.12343458704797361;0.031326231270384065;
