track_uuid;t;alt;g_x;g_y;g_z;lat;m_x;m_y;m_z;long;speed;course;att_yaw;heading;att_roll;user_a_x;user_a_y;user_a_z;att_pitch;rot_rate_x;rot_rate_y;rot_rate_z;name
467a7df3-c52a-4ec9-bc06-c6af968e0b44;1514171713.336;0;0.9656760692596436;0.04095148295164108;-0.256500780582428;0;-100.05726623535156;-84.204345703125;12.657012939453125;0;0;0;0.03127182078122884;;1.311173406536547;0.01732560805976391;0.022692924365401268;0.023788971826434135;-0.04096293779327913;0.00466905402312692;-0.01650733770074715;0.02640897063366176;
467a7df3-c52a-4ec9-bc06-c6af968e0b44;1514171713.386;;0.9653312563896179;0.04338035359978676;-0.25739797949790955;;-100.40650939941406;-84.204345703125;11.644454956054688;;;;0.031123806702228717;;1.3102168402483423;0.0038002324290573597;0.011581802740693092;-0.005968666635453701;-0.04339397221442675;0.0034533209855057484;-0.004628840290666724;0.027752269087497724;
467a7df3-c52a-4ec9-bc06-c6af968e0b44;1514171713.436;;0.9657590389251709;0.051883526146411896;-0.2541999816894531;;-99.53341674804688;-85.08331298828125;11.475692749023438;;;;0.031303312503579206;;1.313421415853816;0.021408354863524437;0.018718892708420753;0.007068668492138386;-0.05190683178200854;0.002241316373410687;-0.008205731950752148;0.025297899826880698;
467a7df3-c52a-4ec9-bc06-c6af968e0b44;1514171713.486;;0.9670329093933105;0.052414990961551666;-0.24919897317886353;;-99.00955200195312;-85.25910949707031;12.657012939453125;;;;0.03142617027634223;;1.3185890804285552;0.005898055620491505;-0.003083324758335948;-0.00016015181608963758;-0.05243902068722947;0.008360994242303769;0.00013821806057511246;0.027790618607194867;
467a7df3-c52a-4ec9-bc06-c6af968e0b44;1514171713.536;;0.9667290449142456;0.05364083871245384;-0.25011521577835083;;-99.53341674804688;-83.67697143554688;10.8006591796875;;;;0.03145183879550066;;1.3176245935824173;0.016287926584482193;0.006036285310983658;0.01975327357649803;-0.053666596188930445;-0.003911917325217393;-0.020098610430719;0.026394056931557313;
467a7df3-c52a-4ec9-bc06-c6af968e0b44;1514171713.586;;0.966697096824646;0.053621161729097366;-0.25024279952049255;;-100.05726623535156;-84.55593872070312;11.644454956054688;;;;0.03151149214972418;;1.3174929040965155;0.00246486347168684;0.00852788332849741;0.0038743566256016493;-0.05364689130164796;-0.005138835639416898;-0.015346732097690618;0.02765905844934495;
467a7df3-c52a-4ec9-bc06-c6af968e0b44;1514171713.636;;0.9670870900154114;0.052219800651073456;-0.24902963638305664;;-100.40650939941406;-83.50117492675781;12.319488525390625;;;;0.03153620082085313;;1.3187668229805545;0.00021337899670470506;-0.009037424810230732;0.0072236014530062675;-0.052243561179479515;-0.012477974971457263;-0.026075010232965823;0.02393436134876013;
467a7df3-c52a-4ec9-bc06-c6af968e0b44;1514171713.686;;0.9670807719230652;0.0522041879594326;-0.24905729293823242;;-100.23188781738281;-82.97380065917969;11.813217163085938;;;;0.03151442541450639;;1.3187384129380992;-0.005639694631099701;0.0031394383404403925;0.008151611313223839;-0.052227928848318485;-0.010022274130295198;-0.01656006829033072;0.025241174495662013;
467a7df3-c52a-4ec9-bc06-c6af968e0b44;1514171713.736;;0.9671446681022644;0.05440462380647659;-0.24833711981773376;;-100.05726623535156;-85.25910949707031;11.306930541992188;;;;0.03156520625413956;;1.3194528233778882;0.008914288133382797;0.009422888979315758;0.015137036330997944;-0.05443149727105642;-0.011206315550944427;-0.014207698099463728;0.020433369779741962;
467a7df3-c52a-4ec9-bc06-c6af968e0b44;1514171713.786;;0.9668701887130737;0.056863825768232346;-0.2488543689250946;;-99.88264465332031;-81.91905212402344;12.825775146484375;;;;0.0316729435825607;;1.3188826564428788;0.014117344282567501;0.00922198873013258;-0.0018780202371999621;-0.05689451446593646;0.008334895263620992;0.007284011897475725;0.032706281347263125;
467a7df3-c52a-4ec9-bc06-c6af968e0b44;1514171713.836;;0.9674841165542603;0.0564340241253376;-0.24655567109584808;;-100.75575256347656;-83.50117492675781;10.63189697265625;;;;0.031778465521456786;;1.3212656177518847;-0.00203001219779253;-0.008002625778317451;-0.00811353512108326;-0.056464021051860776;-0.006365753953616403;-0.010594853764662234;0.02892405996713259;
467a7df3-c52a-4ec9-bc06-c6af968e0b44;1514171713.886;;0.9680832624435425;0.056633781641721725;-0.24414615333080292;;-99.35879516601562;-84.55593872070312;10.969406127929688;;;;0.03203110869860608;;1.323752475441331;0.01751239039003849;0.015860725194215775;0.0031640336383134127;-0.05666410036788833;0.00714339699191954;-0.0010583402171974892;0.0265716897762656;
467a7df3-c52a-4ec9-bc06-c6af968e0b44;1514171713.936;;0.9680832624435425;0.05665215104818344;-0.24414224922657013;;-99.70803833007812;-83.50117492675781;11.644454956054688;;;;0.032065423309943525;;1.3237562562443703;-0.0019119309727102518;-0.005687791854143143;0.01550460048019886;-0.056682499261508666;-0.0038578551550887846;-0.0213151424166672;0.019124958736186033;
467a7df3-c52a-4ec9-bc06-c6af968e0b44;1514171713.986;;0.9680494666099548;0.05676400288939476;-0.2442500740289688;;-99.53341674804688;-85.43489074707031;11.475692749023438;;;;0.0321771069459685;;1.3236432652719832;-0.0026716464199125767;-0.004350063856691122;0.0002467858721502125;-0.05679453192003576;-0.003913781537980448;-0.027230023197733186;0.025106418544504003;
467a7df3-c52a-4ec9-bc06-c6af968e0b44;1514171714.036;;0.9680975675582886;0.056710246950387955;-0.244071826338768;;-99.18417358398438;-83.67697143554688;10.8006591796875;;;;0.03216947135452067;;1.3238281628229553;0.015194052830338478;0.010138512589037418;0.014777964912354946;-0.056740686975710615;-0.00018828548906860214;-0.01892282480944902;0.020350012837622482;
467a7df3-c52a-4ec9-bc06-c6af968e0b44;1514171714.086;;0.9681259989738464;0.056620042771101;-0.2439800649881363;;-100.40650939941406;-84.90751647949219;11.644454956054688;;;;0.03205229323580099;;1.323924225467997;0.0254500862210989;0.006169870030134916;0.012702634558081627;-0.05665034053449274;0.0022077605436756883;-0.011754660419391742;0.028886775711871482;
467a7df3-c52a-4ec9-bc06-c6af968e0b44;1514171714.136;;0.9681446552276611;0.05657567083835602;-0.24391613900661469;;-99.88264465332031;-82.62222290039062;11.475692749023438;;;;0.03199752586867423;;1.3239908888585425;-0.0029041930101811886;-0.013820544816553593;0.004551526624709368;-0.05660589714219372;-0.007536745884924244;-0.017759023413084392;0.02038383498346649;
467a7df3-c52a-4ec9-bc06-c6af968e0b44;1514171714.186;;0.9681116938591003;0.056687839329242706;-0.24402086436748505;;-99.35879516601562;-83.14959716796875;11.644454956054688;;;;0.03208451990254857;;1.323881116914866;-0.000017848227798822336;0.005354397930204868;-0.002545900410041213;-0.05671824443714579;-0.007575894352948409;-0.012983975578572319;0.026482740195856953;
467a7df3-c52a-4ec9-bc06-c6af968e0b44;1514171714.236;;0.9689258933067322;0.05881670489907265;-0.24025650322437286;;-98.83493041992188;-83.67697143554688;12.825775146484375;;;;0.03233369891253993;;1.3277369973037696;0.0144877964630723;0.018545357510447502;-0.017357613891363144;-0.05885066834052042;0.009569270428872718;0.0072832129491487005;0.03149347778684104;
467a7df3-c52a-4ec9-bc06-c6af968e0b44;1514171714.286;;0.9688596725463867;0.059882935136556625;-0.24026021361351013;;-98.66030883789062;-84.204345703125;11.644454956054688;;;;0.03225109290973159;;1.3277174232821458;0.0054445406422019005;-0.0060804458335042;-0.009693956933915615;-0.05991878196585264;-0.0014524880585292165;-0.014151771716572064;0.02645238015943005;
467a7df3-c52a-4ec9-bc06-c6af968e0b44;1514171714.336;;0.9688394069671631;0.05989833548665047;-0.2403380125761032;;-99.88264465332031;-84.38014221191406;11.813217163085938;;;;0.032325661675502465;;1.3276368797910674;-0.005368977785110474;-0.009406998753547668;-0.016360647976398468;-0.059934209967469745;-0.006343383400459738;-0.020116187293913526;0.023982298248381557;
467a7df3-c52a-4ec9-bc06-c6af968e0b44;1514171714.386;;0.9688296914100647;0.05990244448184967;-0.24037620425224304;;-100.05726623535156;-84.90751647949219;12.319488525390625;;;;0.03246465015737791;;1.327597404173373;0.004864150192588568;0.00618336908519268;0.004353244788944721;-0.05993832874459522;-0.005066131341657735;-0.0165728514635631;0.01797127735196371;
467a7df3-c52a-4ec9-bc06-c6af968e0b44;1514171714.436;;0.968804657459259;0.059935249388217926;-0.240468829870224;;-98.31106567382812;-84.55593872070312;11.644454956054688;;;;0.032501881171950825;;1.3275012963262856;-0.005090074613690376;-0.014219915494322777;0.0013788877986371517;-0.05997119034122945;0.00344027149616436;-0.01888687213473295;0.026386333764396083;
467a7df3-c52a-4ec9-bc06-c6af968e0b44;1514171714.486;;0.9688525199890137;0.060049187391996384;-0.24024741351604462;;-99.70803833007812;-85.61068725585938;11.644454956054688;;;;0.03241538295105957;;1.3277281453824852;0.0036205770447850227;-0.009115345776081085;0.0045143356546759605;-0.06008533341745008;-0.007536745884924244;-0.023702666333923237;0.019109246085754567;
467a7df3-c52a-4ec9-bc06-c6af968e0b44;1514171714.536;;0.9688562154769897;0.06004028394818306;-0.24023503065109253;;-99.70803833007812;-82.44642639160156;11.981979370117188;;;;0.03239649612849826;;1.327741073710852;0.016556434333324432;0.01753539964556694;0.006500956602394581;-0.060076416193117814;-0.018584603351008956;-0.026104571321065702;0.02153298899383568;
467a7df3-c52a-4ec9-bc06-c6af968e0b44;1514171714.586;;0.9682571887969971;0.06498248875141144;-0.24136148393154144;;-99.35879516601562;-84.55593872070312;11.306930541992188;;;;0.03226078014276062;;1.3265009348079035;0.006367485970258713;0.001561093027703464;0.023679612204432487;-0.06502830817888804;-0.0063284696983552935;-0.010614028524510804;0.02408669416311266;
467a7df3-c52a-4ec9-bc06-c6af968e0b44;1514171714.636;;0.9675925374031067;0.061090320348739624;-0.24501577019691467;;-99.88264465332031;-84.38014221191406;11.138168334960938;;;;0.031991423885270175;;1.322787439005549;-0.0037863438483327627;-0.019815294072031975;-0.000803308270405978;-0.06112838445580029;-0.012474246545931152;-0.02369947054061514;0.023960460327442906;
467a7df3-c52a-4ec9-bc06-c6af968e0b44;1514171714.686;;0.9672141671180725;0.06090144068002701;-0.2465517520904541;;-99.88264465332031;-85.08331298828125;10.8006591796875;;;;0.03189579677767679;;1.3212026466099485;0.008661672472953796;0.003704275470227003;-0.020400814712047577;-0.06093914972468509;-0.002660764245098167;-0.0034658378426291204;0.026573287672919648;
467a7df3-c52a-4ec9-bc06-c6af968e0b44;1514171714.736;;0.9671967625617981;0.06093061342835426;-0.2466130405664444;;-98.48568725585938;-84.73171997070312;11.475692749023438;;;;0.03189455859581577;;1.3211388296543063;0.012966886162757874;0.0058571044355630875;0.016235914081335068;-0.06096837791988119;0.001031175974078681;-0.00465121084382339;0.024131168953316986;
467a7df3-c52a-4ec9-bc06-c6af968e0b44;1514171714.786;;0.9671642780303955;0.060975246131420135;-0.24672909080982208;;-99.70803833007812;-84.204345703125;11.306930541992188;;;;0.03194372804081743;;1.3210181305730178;0.013731700368225574;0.01394540537148714;-0.004171176813542843;-0.061013094463737705;0.008333031050857937;-0.005791043790377304;0.03014405406249789;
467a7df3-c52a-4ec9-bc06-c6af968e0b44;1514171714.836;;0.9671385884284973;0.06100641191005707;-0.24682196974754333;;-100.23188781738281;-84.028564453125;12.488250732421875;;;;0.031949220137864276;;1.3209216017338337;-0.0024322234094142914;-0.014909608289599419;-0.00514646340161562;-0.06104431572702265;0.0010330401868417366;-0.015350726839325738;0.021595040647234526;
467a7df3-c52a-4ec9-bc06-c6af968e0b44;1514171714.886;;0.967133641242981;0.061052750796079636;-0.24682995676994324;;-99.53341674804688;-85.78648376464844;11.813217163085938;;;;0.03204517816115278;;1.3209126288066786;0.01505931094288826;0.014478251338005066;-0.0006981712067499757;-0.061090744357254;-0.003887682559297672;-0.016544888272117267;0.024014522497571515;
467a7df3-c52a-4ec9-bc06-c6af968e0b44;1514171714.936;;0.9694041013717651;0.0563068613409996;-0.23892520368099213;;-99.70803833007812;-84.55593872070312;12.319488525390625;;;;0.03255914905018388;;1.3291464819991423;0.009752393700182438;-0.006746315862983465;-0.014340232126414776;-0.056336656276266515;-0.001458080696818383;-0.005827795413420397;0.02896240948682973;
467a7df3-c52a-4ec9-bc06-c6af968e0b44;1514171714.986;;0.9693869948387146;0.05628189817070961;-0.23900030553340912;;-100.58113098144531;-85.78648376464844;10.8006591796875;;;;0.032607725715170635;;1.3290693575688093;0.008091003634035587;0.01486983336508274;-0.027418149635195732;-0.05631165296382503;0.012011921780693395;0.014427408889395265;0.03398353340606513;
467a7df3-c52a-4ec9-bc06-c6af968e0b44;1514171715.036;;0.969554603099823;0.05728674679994583;-0.2380799949169159;;-101.62884521484375;-84.73171997070312;11.813217163085938;;;;0.03294468957577139;;1.33000457442445;0.005970306694507599;0.0025277072563767433;-0.006976092699915171;-0.057318126329891764;-0.0026421221174676122;-0.00941906814339225;0.02288001587319776;
467a7df3-c52a-4ec9-bc06-c6af968e0b44;1514171715.086;;0.9694840908050537;0.05534493178129196;-0.2388255000114441;;-101.4542236328125;-85.25910949707031;11.306930541992188;;;;0.03284454053077417;;1.329262606079456;-0.005037014372646809;-0.013108603656291962;-0.004079113248735666;-0.05537322356861685;0.00955249251400522;0.01442421309608717;0.035199799075904314;
467a7df3-c52a-4ec9-bc06-c6af968e0b44;1514171715.136;;0.9695043563842773;0.05652425438165665;-0.23846681416034698;;-101.803466796875;-85.25910949707031;12.319488525390625;;;;0.03286599837927902;;1.3296162888029162;0.012810777872800827;-0.0024165846407413483;-0.004025804810225964;-0.056554396325037434;0.005886651273511148;0.0025201493395419832;0.03145166615772679;
467a7df3-c52a-4ec9-bc06-c6af968e0b44;1514171715.186;;0.9692337512969971;0.05779942497611046;-0.23925969004631042;;-100.75575256347656;-84.55593872070312;11.644454956054688;;;;0.0328936925787587;;1.328780342292764;0.014714020304381847;0.01393214613199234;-0.012189899571239948;-0.05783165483230806;-0.0038895467720607272;-0.011789015197453763;0.02527606190594205;
467a7df3-c52a-4ec9-bc06-c6af968e0b44;1514171715.236;;0.9694815278053284;0.059557199478149414;-0.23782041668891907;;-101.10499572753906;-84.204345703125;11.306930541992188;;;;0.03314724763803119;;1.3302396407539097;0.009613954462110996;0.004834890831261873;0.016339097172021866;-0.05959246308688134;-0.008791627390569582;-0.024880049851847268;0.022727683058845226;
467a7df3-c52a-4ec9-bc06-c6af968e0b44;1514171715.286;;0.9694787859916687;0.0595211498439312;-0.23784053325653076;;-99.00955200195312;-84.55593872070312;12.657012939453125;;;;0.033179453022950924;;1.3302194230487185;-0.007335833739489317;-0.003368806792423129;0.03157224878668785;-0.05955635252108221;-0.0075255606083459116;-0.02251969017771004;0.017912954124090972;
467a7df3-c52a-4ec9-bc06-c6af968e0b44;1514171715.336;;0.9694464802742004;0.059570446610450745;-0.23795966804027557;;-99.35879516601562;-84.90751647949219;12.319488525390625;;;;0.03317675626302689;;1.3300958061673;0.013692516833543777;0.008285386487841606;0.00030402897391468287;-0.059605736218728424;-0.006378803442957792;-0.024852885608728458;0.02755812464403095;
467a7df3-c52a-4ec9-bc06-c6af968e0b44;1514171715.386;;0.9694552421569824;0.05948084592819214;-0.23794661462306976;;-100.05726623535156;-83.85276794433594;12.994537353515625;;;;0.03319865606082575;;1.3301105918422516;0.006985207088291645;0.004804432392120361;-0.038802023977041245;-0.0595159742252276;0.010818559296228889;0.010840929849385554;0.029110481243438138;
467a7df3-c52a-4ec9-bc06-c6af968e0b44;1514171715.436;;0.9694977402687073;0.059486355632543564;-0.2377718836069107;;-98.48568725585938;-83.32539367675781;12.825775146484375;;;;0.0331931537515317;;1.3302907354582245;0.010238558985292912;-0.007072411943227053;-0.012975836172699928;-0.059521493163278774;0.00464854768273331;0.00608905151635717;0.033912959637178025;
467a7df3-c52a-4ec9-bc06-c6af968e0b44;1514171715.486;;0.9694996476173401;0.05950453504920006;-0.2377597540616989;;-99.35879516601562;-83.50117492675781;10.63189697265625;;;;0.03323209130071886;;1.3303029889541815;-0.0039692348800599575;-0.014140150509774685;-0.013903503306210041;-0.059539704983710896;0.008394550072038766;0.003687146529214705;0.024201742722204087;
467a7df3-c52a-4ec9-bc06-c6af968e0b44;1514171715.536;;0.9706763625144958;0.05887104943394661;-0.23307007551193237;;-100.05726623535156;-84.55593872070312;13.332061767578125;;;;0.03353340815100516;;1.33514637859106;0.00663384236395359;-0.0014522293349727988;0.010520605370402336;-0.05890510990938781;-0.021030983128355746;-0.029680664032824104;0.02029142329364074;
467a7df3-c52a-4ec9-bc06-c6af968e0b44;1514171715.586;;0.9687146544456482;0.057701192796230316;-0.24137617647647858;;-100.05726623535156;-84.204345703125;11.981979370117188;;;;0.03322559357303222;;1.3265974917319867;0.006794959306716919;0.0011366966646164656;0.010388574562966824;-0.0577332609367923;-0.008787898965043471;-0.022504510159496588;0.022753782037528;
467a7df3-c52a-4ec9-bc06-c6af968e0b44;1514171715.636;;0.9687051773071289;0.057674918323755264;-0.24142053723335266;;-100.58113098144531;-84.73171997070312;12.150741577148438;;;;0.03324255097079899;;1.3265520842246024;-0.01251315139234066;0.003299206728115678;-0.012211001478135586;-0.05770694004193025;-0.005079180830999123;-0.02488724038679048;0.01787993092657399;
467a7df3-c52a-4ec9-bc06-c6af968e0b44;1514171715.686;;0.9687179327011108;0.05766164883971214;-0.24137276411056519;;-97.96183776855469;-84.90751647949219;11.644454956054688;;;;0.03326272734146006;;1.3266015879387258;0.01472635567188263;0.004289038013666868;-0.036321863532066345;-0.05769364889322237;0.021844046209156937;0.010876882524101624;0.02907932225868421;
467a7df3-c52a-4ec9-bc06-c6af968e0b44;1514171715.736;;0.9687615036964417;0.05757081136107445;-0.2412191927433014;;-100.05726623535156;-83.50117492675781;10.29437255859375;;;;0.03321500033369161;;1.326761405850522;0.00018682451627682894;-0.010756845586001873;-0.008719809353351593;-0.05760265919328031;0.0034551851982688037;-0.003441070444491384;0.027765318576839115;
467a7df3-c52a-4ec9-bc06-c6af968e0b44;1514171715.786;;0.9687485694885254;0.05753854662179947;-0.2412787675857544;;-100.40650939941406;-84.204345703125;12.994537353515625;;;;0.033287686821611644;;1.3267003786248146;0.012574627064168453;0.014849144034087658;-0.012902157381176949;-0.057570343603917724;-0.011256649295546924;-0.028446555183681384;0.02390480026066025;
467a7df3-c52a-4ec9-bc06-c6af968e0b44;1514171715.836;;0.9687836766242981;0.05748676508665085;-0.24115031957626343;;-100.40650939941406;-83.85276794433594;12.657012939453125;;;;0.033361863368872584;;1.3268337171386115;-0.005542075727134943;0.0034263229463249445;0.010071278549730778;-0.05751847498456329;-0.012463061269352819;-0.022516494384401942;0.02276416836577931;
467a7df3-c52a-4ec9-bc06-c6af968e0b44;1514171715.886;;0.9688045382499695;0.05756785348057747;-0.24104703962802887;;-100.05726623535156;-85.96226501464844;10.969406127929688;;;;0.033364594256494934;;1.3269391516025713;0.014914317056536674;0.020816544070839882;0.008670943789184093;-0.057599698512363434;-0.019785422686525684;-0.028498486824937927;0.01788232777155506;
467a7df3-c52a-4ec9-bc06-c6af968e0b44;1514171715.936;;0.9684813618659973;0.05154864490032196;-0.2436937838792801;;-99.70803833007812;-83.50117492675781;12.319488525390625;;;;0.033225696037470435;;1.3242891567667987;-0.008520379662513733;-0.003941222093999386;-0.004490388557314873;-0.0515715011287573;0.013264939073575677;0.0025297367194662686;0.02780286914820923;
467a7df3-c52a-4ec9-bc06-c6af968e0b44;1514171715.986;;0.9688368439674377;0.0552348755300045;-0.24146269261837006;;-98.83493041992188;-84.73171997070312;13.500823974609375;;;;0.03328673875689478;;1.3265430056831455;0.009892378002405167;0.0010547942947596312;-0.011222864501178265;-0.05526299969561148;-0.00023302659538193334;0.017950771011570096;0.034057302968260324;
467a7df3-c52a-4ec9-bc06-c6af968e0b44;1514171716.036;;0.9697092175483704;0.057970091700553894;-0.2372836321592331;;-99.70803833007812;-84.204345703125;12.657012939453125;;;;0.03364112716317944;;1.330816195893207;0.005449483171105385;0.005430176854133606;-0.012380680069327354;-0.05800260865434667;0.010771953977152502;-0.0010223875424814196;0.0326080107030392;
467a7df3-c52a-4ec9-bc06-c6af968e0b44;1514171716.086;;0.969727635383606;0.057959526777267456;-0.23721101880073547;;-99.70803833007812;-83.85276794433594;13.332061767578125;;;;0.033647486618563816;;1.3308912183830166;0.008665940724313259;0.00435737194493413;0.005582560785114765;-0.05799202494122238;0.001031175974078681;-0.016538496685501076;0.021581991157893138;
467a7df3-c52a-4ec9-bc06-c6af968e0b44;1514171716.136;;0.9696835279464722;0.05796849727630615;-0.23738908767700195;;-99.53341674804688;-83.67697143554688;11.813217163085938;;;;0.0337774151507927;;1.330707459063999;0.0006381685379892588;0.012588144280016422;0.0018544408958405256;-0.05800101330691485;-0.012474246545931152;-0.035586756382292827;0.02141128253201906;
467a7df3-c52a-4ec9-bc06-c6af968e0b44;1514171716.186;;0.9697228074073792;0.05784334987401962;-0.23725906014442444;;-100.23188781738281;-87.19281005859375;12.825775146484375;;;;0.03374248021282832;;1.330843339686386;0.0023231185041368008;-0.0008212555549107492;-0.009704409167170525;-0.05787565479505079;-0.008784170539517359;-0.014185327546307063;0.024054469913922703;
467a7df3-c52a-4ec9-bc06-c6af968e0b44;1514171716.236;;0.9697491526603699;0.05782310292124748;-0.23715609312057495;;-101.27961730957031;-84.73171997070312;11.813217163085938;;;;0.03373783608274323;;1.3309497835837143;0.008461249060928822;-0.005927960854023695;0.002674207789823413;-0.05785537255998589;-0.011252920870020814;-0.02012737257049186;0.02520548813705495;
467a7df3-c52a-4ec9-bc06-c6af968e0b44;1514171716.286;;0.9697412848472595;0.057911477982997894;-0.23716676235198975;;-99.70803833007812;-84.204345703125;12.657012939453125;;;;0.03376649505625257;;1.3309375323928905;-0.0026087460573762655;-0.007755839265882969;0.014922437258064747;-0.05794389702079594;-0.012412727524750321;-0.014221280221023131;0.018018148987149103;
467a7df3-c52a-4ec9-bc06-c6af968e0b44;1514171716.336;;0.9698203802108765;0.05946807190775871;-0.23645709455013275;;-100.93037414550781;-82.97380065917969;12.150741577148438;;;;0.03387547981577229;;1.3316469334899046;0.008832564577460289;0.0017349267145618796;-0.0035789108369499445;-0.059503179194247253;-0.007577758565711464;-0.014171745424747658;0.026469690706515565;
467a7df3-c52a-4ec9-bc06-c6af968e0b44;1514171716.386;;0.9695353507995605;0.06037217006087303;-0.23739492893218994;31.312097439236112;-99.88264465332031;-85.43489074707031;11.475692749023438;121.45518527560763;;;0.033859200497340154;;1.3306664814686844;-0.011909040622413158;-0.0006492716493085027;-0.02143993228673935;-0.06040890622349137;0.01446016577080324;0.007303985605651319;0.03268897080017761;
467a7df3-c52a-4ec9-bc06-c6af968e0b44;1514171716.436;;0.9684948325157166;0.05868392810225487;-0.24202074110507965;;-99.35879516601562;-85.25910949707031;11.306930541992188;;;;0.033478960600445466;;1.3259177261429245;0.006724939215928316;-0.0033097814302891493;-0.013014649972319603;-0.058717662004863495;0.00100694120815896;-0.002261290081586281;0.02778529228501471;
467a7df3-c52a-4ec9-bc06-c6af968e0b44;1514171716.486;;0.9685036540031433;0.05871262773871422;-0.24197816848754883;;-99.70803833007812;-83.85276794433594;11.981979370117188;;;;0.03359014614812969;;1.3259612381573669;0.00956941582262516;0.008822768926620483;-0.020381517708301544;-0.058746412636946764;0.009580455705451052;0.008466189105361899;0.030297185825177445;
467a7df3-c52a-4ec9-bc06-c6af968e0b44;1514171716.536;;0.9685472846031189;0.05872095748782158;-0.24180179834365845;;-100.75575256347656;-84.90751647949219;11.981979370117188;;;;0.03357137488041125;;1.326143240310566;0.010944969020783901;0.0016122980741783977;0.016551608219742775;-0.0587547559068804;-0.0051257861500755095;-0.024863271936979767;0.0239266381815989;
467a7df3-c52a-4ec9-bc06-c6af968e0b44;1514171716.586;;0.9685048460960388;0.058880195021629333;-0.24193263053894043;;-99.53341674804688;-84.38014221191406;11.475692749023438;;;;0.03360584764495156;;1.32600579886634;0.008728976361453533;0.00043072033440694213;0.01714007556438446;-0.05891427033545147;-0.014926218961567107;-0.03083887279089956;0.0226797461592238;
467a7df3-c52a-4ec9-bc06-c6af968e0b44;1514171716.636;;0.9691705703735352;0.057590581476688385;-0.23956583440303802;;-99.35879516601562;-84.204345703125;11.981979370117188;;;;0.033724959896197296;;1.3284674470027327;-0.006432520225644112;-0.0004464178055059165;-0.008816802874207497;-0.05762246501424407;-0.012438826503433097;-0.018962772225800208;0.020384633931793513;
467a7df3-c52a-4ec9-bc06-c6af968e0b44;1514171716.686;;0.969188392162323;0.05757514759898186;-0.23949721455574036;;-98.66030883789062;-83.85276794433594;12.319488525390625;;;;0.03373947712121806;;1.328538461462954;0.011188778094947338;0.0012932567624375224;0.0020246682688593864;-0.05760700611402222;-0.017335314483652785;-0.016603211499990004;0.0204245813481447;
467a7df3-c52a-4ec9-bc06-c6af968e0b44;1514171716.736;;0.9691890478134155;0.058118097484111786;-0.2393636703491211;;-99.00955200195312;-84.204345703125;11.981979370117188;;;;0.0337488334460189;;1.3286684877863397;-0.005977928638458252;-0.016965141519904137;-0.0018319544615224004;-0.05815086418809321;-0.0039156457507435035;-0.010586864281391996;0.028917135748298385;
467a7df3-c52a-4ec9-bc06-c6af968e0b44;1514171716.786;;0.9692671298980713;0.05905555561184883;-0.23881709575653076;;-100.93037414550781;-84.028564453125;12.488250732421875;;;;0.03386465361105241;;1.3292188074115725;0.013459892943501472;0.004237904213368893;0.007310777436941862;-0.05908993462758751;-0.007534881672161189;-0.016571253566909052;0.020396884472807877;
467a7df3-c52a-4ec9-bc06-c6af968e0b44;1514171716.836;;0.9693294763565063;0.057922642678022385;-0.23884162306785583;;-100.23188781738281;-86.1380615234375;12.488250732421875;;;;0.03393870523488469;;1.329209886354089;0.0038913502357900143;-0.004654210992157459;-0.019108174368739128;-0.05795507994139079;0.009580455705451052;0.0025225461845230545;0.029022596927465522;
467a7df3-c52a-4ec9-bc06-c6af968e0b44;1514171716.886;;0.9693697094917297;0.05792347341775894;-0.23867803812026978;;-99.70803833007812;-84.55593872070312;11.644454956054688;;;;0.033887940210792895;;1.3293786385456374;0.023779062554240227;-0.000001111439019041427;-0.004043583758175373;-0.05795591407355508;0.01816329126655842;0.019188874602347934;0.0315997379143352;
467a7df3-c52a-4ec9-bc06-c6af968e0b44;1514171716.936;;0.969976544380188;0.05822189897298813;-0.2361263930797577;;-101.27961730957031;-85.08331298828125;12.150741577148438;;;;0.03402461780737087;;1.3320058245370487;0.03157983347773552;0.014348900876939297;-0.009463805705308914;-0.0582548416146366;0.013222062180025402;0.010872887782466506;0.03515026427962884;
467a7df3-c52a-4ec9-bc06-c6af968e0b44;1514171716.986;;0.9700504541397095;0.05813631787896156;-0.2358434498310089;;-99.18417358398438;-83.67697143554688;13.838333129882812;;;;0.033921154573678905;;1.3322987185318922;0.04261424392461777;0.0020901206880807877;-0.025219248607754707;-0.05816911671195119;0.03165380008446381;0.02279133260889812;0.03039146172776625;
467a7df3-c52a-4ec9-bc06-c6af968e0b44;1514171717.036;;0.9701083898544312;0.058057501912117004;-0.23562487959861755;;-99.53341674804688;-86.1380615234375;11.138168334960938;;;;0.033870000909659415;;1.3325251668585938;-0.011093470267951488;-0.01405115332454443;-0.07028330862522125;-0.05809016861447397;0.032839705717876096;0.027570375185045314;0.03648690483073961;
467a7df3-c52a-4ec9-bc06-c6af968e0b44;1514171717.086;;0.9702094793319702;0.05790117010474205;-0.23524661362171173;;-98.66030883789062;-84.55593872070312;12.319488525390625;;;;0.033723490845792674;;1.3329172672260825;0.012487009167671204;-0.0164888184517622;-0.04968082904815674;-0.057933572371254884;-0.011249192444494701;0.017910024646891884;0.032879120502009265;
467a7df3-c52a-4ec9-bc06-c6af968e0b44;1514171717.136;;0.9703261852264404;0.05772581323981285;-0.23480798304080963;;-99.70803833007812;-83.85276794433594;12.994537353515625;;;;0.03355446005881763;;1.3333718073143321;0.040263403207063675;-0.010133649222552776;-0.02248569019138813;-0.05775792085817509;-0.06391906195520981;-0.025059813225427614;0.022883477982614864;
467a7df3-c52a-4ec9-bc06-c6af968e0b44;1514171717.186;;0.9704370498657227;0.05757485702633858;-0.23438642919063568;;-98.48568725585938;-85.43489074707031;12.825775146484375;;;;0.033291649714074736;;1.3338083314520355;0.002066574525088072;-0.018298733979463577;-0.048603080213069916;-0.0576067122523248;-0.0651254739290157;-0.048847967030342394;0.015369901599174307;
467a7df3-c52a-4ec9-bc06-c6af968e0b44;1514171717.236;;0.970493733882904;0.05741269886493683;-0.23419176042079926;;-100.40650939941406;-83.50117492675781;11.981979370117188;;;;0.03334527598664816;;1.334011187868647;-0.037083037197589874;-0.01865537464618683;0.04061879962682724;-0.05744428548684301;-0.07609130603352597;-0.10002992844003024;-0.0033001892228261918;
467a7df3-c52a-4ec9-bc06-c6af968e0b44;1514171717.286;;0.9717330932617188;0.05374918878078461;-0.22988221049308777;;-100.05726623535156;-84.55593872070312;12.319488525390625;;;;0.02860003505861747;;1.3384977305752903;0.03269195929169655;-0.004905805457383394;-0.014792485162615776;-0.05377510238661286;0.04873744584510411;0.039523973737865974;0.042619099556756065;
467a7df3-c52a-4ec9-bc06-c6af968e0b44;1514171717.336;;0.9718080759048462;0.05360935255885124;-0.22959773242473602;;-100.58113098144531;-85.43489074707031;11.138168334960938;;;;0.028400474437952575;;1.3387922584453225;0.051019079983234406;0.030100366100668907;-0.03802618384361267;-0.05363506320929002;0.011976501738195342;0.0037470676537414882;0.036284770904002596;
467a7df3-c52a-4ec9-bc06-c6af968e0b44;1514171717.386;;0.9726768136024475;0.06133747473359108;-0.22391417622566223;;-100.58113098144531;-84.028564453125;13.500823974609375;;;;0.028463256587843325;;1.3445341284276329;-0.016957798972725868;-0.02770709991455078;-0.03572935238480568;-0.061376000230036476;-0.019777965835473463;-0.011860121598558879;0.02048370352434446;
467a7df3-c52a-4ec9-bc06-c6af968e0b44;1514171717.436;;0.9726730585098267;0.061404749751091;-0.2239118069410324;;-98.66030883789062;-84.90751647949219;12.657012939453125;;;;0.02856663902157048;;1.344535586008551;0.003095956053584814;0.030392123386263847;-0.007625002413988113;-0.06144340374958042;-0.03448607190376308;-0.04043370956623704;0.01537469528913645;
467a7df3-c52a-4ec9-bc06-c6af968e0b44;1514171717.486;;0.9726847410202026;0.061375439167022705;-0.22386953234672546;;-100.05726623535156;-83.14959716796875;13.332061767578125;;;;0.028604520827947604;;1.344579488891243;-0.030515484511852264;-0.01077729370445013;-0.012977361679077148;-0.061414039292928393;-0.023441942863204477;-0.022576415508928725;0.01674862009550833;
467a7df3-c52a-4ec9-bc06-c6af968e0b44;1514171717.536;;0.972727358341217;0.0613328292965889;-0.22369574010372162;;-101.4542236328125;-84.55593872070312;12.657012939453125;;;;0.028405326088817164;;1.3447587390146654;-0.019373469054698944;-0.0424119308590889;0.011964784935116768;-0.061371346547925684;-0.025921878470286264;-0.02970143668932672;0.01909593028030417;
467a7df3-c52a-4ec9-bc06-c6af968e0b44;1514171717.586;;0.9726887941360474;0.061354029923677444;-0.22385723888874054;;-100.23188781738281;-84.38014221191406;12.825775146484375;;;;0.028380779807168757;;1.3445923970374756;-0.018068507313728333;-0.024504056200385094;-0.020817475393414497;-0.06139258916401423;-0.006362025528090292;-0.014162956993150396;0.027675570048103445;
467a7df3-c52a-4ec9-bc06-c6af968e0b44;1514171717.636;;0.9727426767349243;0.06126611307263374;-0.22364753484725952;;-99.35879516601562;-83.85276794433594;11.981979370117188;;;;0.028301037073604686;;1.3448092450446643;0.005727202631533146;0.017774416133761406;-0.028763379901647568;-0.06130450664317297;-0.006362025528090292;-0.014162956993150396;0.027675570048103445;
467a7df3-c52a-4ec9-bc06-c6af968e0b44;1514171717.686;;0.9727924466133118;0.061172183603048325;-0.2234562784433365;;-99.00955200195312;-84.55593872070312;11.306930541992188;;;;0.028222728236790683;;1.3450071827833185;0.012803188525140285;-0.023757632821798325;-0.010003240779042244;-0.061210397725784016;-0.007588943842289797;-0.0212983645017997;0.026391393770467234;
467a7df3-c52a-4ec9-bc06-c6af968e0b44;1514171717.736;;0.9716832637786865;0.06696077436208725;-0.22660066187381744;;-99.88264465332031;-84.73171997070312;11.813217163085938;;;;0.028048924208315028;;1.3416868245289464;0.009517903439700603;0.002359907142817974;-0.041145261377096176;-0.06701091308677773;-0.01242577701409171;-0.028479312065089357;0.016652213664047462;
467a7df3-c52a-4ec9-bc06-c6af968e0b44;1514171717.786;;0.9716588854789734;0.06708018481731415;-0.22666987776756287;;-97.96183776855469;-84.90751647949219;12.994537353515625;;;;0.028136850361313713;;1.3416137120016813;0.019414691254496574;0.023801162838935852;-0.0346674770116806;-0.067130593235444;-0.008784170539517359;-0.020128970467145905;0.02277988101621078;
467a7df3-c52a-4ec9-bc06-c6af968e0b44;1514171717.836;;0.9716997146606445;0.06705844402313232;-0.22650158405303955;;-100.40650939941406;-84.90751647949219;13.669570922851562;;;;0.02802358566428492;;1.3417872627588352;0.005717364139854908;-0.01433932688087225;0.0006563144852407277;-0.06710880459861193;0.00468583193799442;-0.005817409085169088;0.026526416037734254;
467a7df3-c52a-4ec9-bc06-c6af968e0b44;1514171717.886;;0.9716886878013611;0.0670703649520874;-0.22654518485069275;;-101.4542236328125;-84.90751647949219;12.657012939453125;;;;0.02818662820481355;;1.3417422056229513;0.010260200127959251;-0.010231376625597477;-0.012849938124418259;-0.06712075539804876;-0.005148156703232176;-0.015341938407728475;0.028868399900349933;
467a7df3-c52a-4ec9-bc06-c6af968e0b44;1514171717.936;;0.9716672301292419;0.06716833263635635;-0.22660790383815765;;-100.23188781738281;-84.73171997070312;11.813217163085938;;;;0.0282054460976838;;1.3416761017940808;0.007626544218510389;0.00013818920706398785;-0.04499860107898712;-0.06721893916534424;0.01080178138136139;0.006094644154646336;0.030267624737077566;
467a7df3-c52a-4ec9-bc06-c6af968e0b44;1514171717.986;;0.9716581106185913;0.06726090610027313;-0.2266196757555008;;-99.88264465332031;-84.028564453125;13.838333129882812;;;;0.02820216800352401;;1.3416625422291273;0.011389365419745445;0.006591639947146177;-0.03067404218018055;-0.06731172120109868;0.009541307237426886;0.007297594019035129;0.03512150213985599;
467a7df3-c52a-4ec9-bc06-c6af968e0b44;1514171718.036;;0.9680946469306946;0.06537505984306335;-0.24190671741962433;;-99.35879516601562;-85.25910949707031;10.969406127929688;;;;0.02710507866043441;;1.3259313679122708;0.015547940507531166;0.008675840683281422;0.005731210112571716;-0.06542171965825576;0.0132388400948929;0.021562816398044568;0.03526770968370133;
467a7df3-c52a-4ec9-bc06-c6af968e0b44;1514171718.086;;0.969463586807251;0.059587374329566956;-0.23788589239120483;;-100.40650939941406;-85.61068725585938;12.657012939453125;;;;0.02747550200552257;;1.3301716645170485;0.00569511391222477;-0.00016965069517027587;-0.019392510876059532;-0.05962269451321793;0.0009938917188175717;0.0013116068368640248;0.03024312365504884;
467a7df3-c52a-4ec9-bc06-c6af968e0b44;1514171718.136;;0.9694079160690308;0.06074481084942818;-0.23782001435756683;;-101.27961730957031;-84.73171997070312;12.488250732421875;;;;0.02760971602498524;;1.3302224565136973;0.02078067511320114;0.0066532595083117485;0.012722328305244446;-0.06078222924827365;0.012019378631745618;0.013234845353257783;0.032761142465718755;
467a7df3-c52a-4ec9-bc06-c6af968e0b44;1514171718.186;;0.9699015021324158;0.06050226464867592;-0.2358611673116684;;-99.70803833007812;-84.204345703125;14.007095336914062;;;;0.027708761561730102;;1.3322462013693603;0.01061298418790102;-0.005631661042571068;0.005270313937216997;-0.060539235601099146;-0.00020506340393610135;-0.01178182466251055;0.024056334126685758;
467a7df3-c52a-4ec9-bc06-c6af968e0b44;1514171718.236;;0.9700301885604858;0.0626278892159462;-0.23477484285831451;;-100.05726623535156;-84.204345703125;12.657012939453125;;;;0.027890489752242523;;1.3333343140404441;0.0203415397554636;0.027688879519701004;0.011172547936439514;-0.06266890555167684;0.008392685859275712;-0.009387909158638323;0.02163951543743885;
467a7df3-c52a-4ec9-bc06-c6af968e0b44;1514171718.286;;0.9702529311180115;0.06149565055966377;-0.2341526597738266;;-100.05726623535156;-84.204345703125;13.332061767578125;;;;0.027929487289230875;;1.3339926855507536;0.006813056766986847;-0.012392870150506496;0.009863643907010555;-0.06153447806566304;0.0022469090116998534;-0.028416994095581502;0.02023869270405717;
467a7df3-c52a-4ec9-bc06-c6af968e0b44;1514171718.336;;0.9702684283256531;0.06148716062307358;-0.2340908944606781;;-99.18417358398438;-84.38014221191406;13.163299560546875;;;;0.02794176722841385;;1.334056474065995;0.0051802052184939384;-0.013681377284228802;0.007269011810421944;-0.06152597077017809;0.009580455705451052;-0.027195668419671165;0.022649652438905904;
467a7df3-c52a-4ec9-bc06-c6af968e0b44;1514171718.386;;0.9702849388122559;0.06156231462955475;-0.23400267958641052;;-100.58113098144531;-84.38014221191406;13.163299560546875;;;;0.027973480650556513;;1.3341462774810884;0.03751233592629433;0.01708148419857025;0.01874700002372265;-0.061601268706508026;-0.0014170680160311626;-0.033189645085112504;0.01777819817293296;
467a7df3-c52a-4ec9-bc06-c6af968e0b44;1514171718.436;;0.970291256904602;0.06165273115038872;-0.23395270109176636;;-100.93037414550781;-84.38014221191406;12.488250732421875;;;;0.028026759887892883;;1.3341964478773982;-0.010986407287418842;-0.021552633494138718;-0.006556271575391293;-0.061691854066133735;0.005940713443639756;-0.03435824017143928;0.016535034576083973;
467a7df3-c52a-4ec9-bc06-c6af968e0b44;1514171718.486;;0.97132807970047;0.05934540554881096;-0.23021705448627472;;-100.23188781738281;-85.78648376464844;12.825775146484375;;;;0.028135690657364872;;1.338077892545833;0.0047461544163525105;0.015666799619793892;0.00014507980085909367;-0.05938029456145574;-0.006322877060066128;-0.04865621943185669;0.015203720347153364;
467a7df3-c52a-4ec9-bc06-c6af968e0b44;1514171718.536;;0.9701681733131409;0.05628792941570282;-0.23580774664878845;;-100.75575256347656;-85.25910949707031;12.994537353515625;;;;0.027909591727746208;;1.3323613158542005;0.011155004613101482;0.03920156881213188;-0.014177067205309868;-0.05631769663617843;0.0022525016499890197;-0.030797327477894328;0.01900325227436941;
467a7df3-c52a-4ec9-bc06-c6af968e0b44;1514171718.586;;0.9702197313308716;0.05624815821647644;-0.23560501635074615;;-99.35879516601562;-86.31385803222656;11.981979370117188;;;;0.027877870702937343;;1.3325708204283804;-0.01830022595822811;-0.01088378019630909;0.005792389623820782;-0.05627786156361932;-0.012431369652380876;-0.026098978682776535;0.01788765409373522;
467a7df3-c52a-4ec9-bc06-c6af968e0b44;1514171718.636;;0.9702237248420715;0.056286536157131195;-0.23557953536510468;;-99.53341674804688;-84.38014221191406;13.163299560546875;;;;0.02799631429591238;;1.3325965644845652;0.01761501096189022;0.025119105353951454;0.004012185614556074;-0.05631629923364003;-0.012472382333168096;-0.028455343615278645;0.02269892091907237;
467a7df3-c52a-4ec9-bc06-c6af968e0b44;1514171718.686;;0.9702746272087097;0.05622546374797821;-0.2353845089673996;;-100.23188781738281;-84.028564453125;13.500823974609375;;;;0.028078991003594077;;1.332798416708121;0.00637943996116519;0.013949706219136715;0.007387696299701929;-0.05625513125078713;-0.018552911734037014;-0.02374341269860145;0.01793106361950351;
467a7df3-c52a-4ec9-bc06-c6af968e0b44;1514171718.736;;0.9702785015106201;0.056261900812387466;-0.23535968363285065;;-100.05726623535156;-85.25910949707031;11.644454956054688;;;;0.028104718022135027;;1.3328234914108574;0.012417996302247047;0.04382050037384033;-0.00685837771743536;-0.056291623276638864;-0.010027866768584363;-0.020123377828856738;0.025202026027637846;
467a7df3-c52a-4ec9-bc06-c6af968e0b44;1514171718.786;41.7132568359375;0.9684504866600037;0.05847755819559097;-0.24224799871444702;;-100.93037414550781;-84.73171997070312;12.825775146484375;;;;0.027660574808769774;;1.3256860990980799;-0.02165784128010273;-0.003057631431147456;0.007232169155031443;-0.058510937120972786;-0.011232414529627203;-0.007061904262563116;0.02534903251981022;
467a7df3-c52a-4ec9-bc06-c6af968e0b44;1514171718.836;;0.9684542417526245;0.058481864631175995;-0.24223186075687408;;-99.18417358398438;-85.08331298828125;13.500823974609375;;;;0.027769009609783943;;1.325702698617697;0.017370356246829033;0.025990793481469154;-0.007020448800176382;-0.05851525190871732;-0.03326474622785274;-0.01903068283359723;0.020443489791884265;
467a7df3-c52a-4ec9-bc06-c6af968e0b44;1514171718.886;;0.9685249328613281;0.05839497968554497;-0.2419700026512146;;-99.70803833007812;-84.55593872070312;13.669570922851562;;;;0.027768770231921685;;1.3259743487261162;-0.013172158971428871;-0.015945032238960266;-0.005939585156738758;-0.05842821984578284;-0.019789151112051796;-0.0011558119130943895;0.024229173281431902;
467a7df3-c52a-4ec9-bc06-c6af968e0b44;1514171718.936;;0.9667252898216248;0.05478831008076668;-0.2498808205127716;;-99.88264465332031;-84.73171997070312;13.500823974609375;;;;0.027263530077343303;;1.3178509338374462;-0.013676606118679047;-0.03872080519795418;0.029391294345259666;-0.05481575734242089;-0.027120833593039937;-0.01902029650534592;0.018007496342788785;
467a7df3-c52a-4ec9-bc06-c6af968e0b44;1514171718.986;;0.9667564034461975;0.05472533404827118;-0.24977438151836395;;-100.23188781738281;-86.1380615234375;13.500823974609375;;;;0.027289793421288736;;1.3179619344766829;0.00647971173748374;-0.015327137894928455;0.013476800173521042;-0.05475268507366061;-0.028407406715657217;-0.01661519572489536;0.026502447587923538;
467a7df3-c52a-4ec9-bc06-c6af968e0b44;1514171719.036;;0.9668501615524292;0.054685622453689575;-0.24942004680633545;;-99.18417358398438;-84.73171997070312;11.813217163085938;;;;0.027293936740034927;;1.318329007099413;-0.024009518325328827;-0.022642167285084724;0.016387853771448135;-0.05471291728911397;-0.03329084520653552;-0.023772174838374304;0.022809974736528675;
467a7df3-c52a-4ec9-bc06-c6af968e0b44;1514171719.086;;0.9668383002281189;0.054802726954221725;-0.24944019317626953;;-99.53341674804688;-83.32539367675781;14.175857543945312;;;;0.027368169424279273;;1.3183065019674398;-0.015727445483207703;-0.011895009316504002;0.019368134438991547;-0.05483019411082977;-0.027133883082381325;-0.021391042507734458;0.01919073881511099;
467a7df3-c52a-4ec9-bc06-c6af968e0b44;1514171719.136;;0.9668954610824585;0.054751064628362656;-0.2492300570011139;;-99.35879516601562;-85.96226501464844;12.657012939453125;;;;0.027311375804743507;;1.3185245733546502;-0.019233020022511482;-0.04275765269994736;0.05490945652127266;-0.05477845651676894;-0.01859578862758729;-0.021343904556440054;0.024003869853211197;
467a7df3-c52a-4ec9-bc06-c6af968e0b44;1514171719.186;;0.9669088125228882;0.05486349016427994;-0.24915342032909393;;-99.18417358398438;-84.38014221191406;12.150741577148438;;;;0.027453763503403266;;1.3186022557414092;0.009333310648798943;0.02466532215476036;0.017143595963716507;-0.05489105128189032;-0.029611954476700057;-0.03327193676279595;0.020276509591536297;
467a7df3-c52a-4ec9-bc06-c6af968e0b44;1514171719.236;;0.9669032692909241;0.054845333099365234;-0.24917873740196228;;-100.40650939941406;-83.50117492675781;12.319488525390625;;;;0.027490806887007866;;1.318576313232285;0.01838725619018078;-0.003438472980633378;0.015047901310026646;-0.054872867007312455;-0.012427641226854766;-0.01777979606958701;0.01918834197012992;
467a7df3-c52a-4ec9-bc06-c6af968e0b44;1514171719.286;;0.9695538878440857;0.055987875908613205;-0.23839165270328522;;-101.10499572753906;-84.90751647949219;11.981979370117188;;;;0.028081437486844215;;1.3297012515027595;0.029088053852319717;0.0037197652272880077;0.012622581794857979;-0.05601716654462853;-0.007568437501896187;-0.02606382495638749;0.022711171460086735;
467a7df3-c52a-4ec9-bc06-c6af968e0b44;1514171719.336;;0.9695565700531006;0.05597390606999397;-0.2383841574192047;;-99.35879516601562;-85.61068725585938;12.319488525390625;;;;0.028192348776645674;;1.3297091770632583;0.013841877691447735;0.012538057751953602;-0.013477429747581482;-0.0560031767146496;-0.00021065604222526775;-0.009401491280197728;0.025291774556373516;
467a7df3-c52a-4ec9-bc06-c6af968e0b44;1514171719.386;;0.9701623916625977;0.059921324253082275;-0.2349347025156021;;-100.05726623535156;-84.90751647949219;11.981979370117188;;;;0.02838864816230934;;1.3332098273040334;-0.0114221703261137;-0.022689880803227425;0.007731393910944462;-0.05995724126492693;-0.014885206280779885;-0.02253886493755861;0.019143068231598573;
467a7df3-c52a-4ec9-bc06-c6af968e0b44;1514171719.436;;0.97013920545578;0.05997508764266968;-0.23501674830913544;;-99.53341674804688;-83.32539367675781;11.813217163085938;;;;0.028557727629167515;;1.333124464520897;0.004958430305123329;-0.005058707669377327;-0.004286843817681074;-0.06001110225204985;-0.003883954133771561;-0.014169348579766587;0.02404062147625429;
467a7df3-c52a-4ec9-bc06-c6af968e0b44;1514171719.486;;0.9701465368270874;0.06002987548708916;-0.2349724918603897;;-100.75575256347656;-83.14959716796875;11.981979370117188;;;;0.028571330345801144;;1.3331692831237563;0.006476962473243475;-0.015199554152786732;0.021425673738121986;-0.06006598758557458;-0.013660152179343436;-0.028478513116762333;0.017865017224469544;
467a7df3-c52a-4ec9-bc06-c6af968e0b44;1514171719.536;;0.9701173901557922;0.06008297950029373;-0.2350793033838272;;-100.93037414550781;-84.73171997070312;13.163299560546875;;;;0.028626060663970134;;1.333058412324254;0.01750771515071392;0.005331449210643768;-0.013562721200287342;-0.06011918697155442;0.004693288789046642;-0.012953615542145415;0.024029436199675958;
467a7df3-c52a-4ec9-bc06-c6af968e0b44;1514171719.586;;0.9691997170448303;0.058638036251068115;-0.23919343948364258;;-100.05726623535156;-84.204345703125;12.657012939453125;;;;0.029569206396351456;;1.3288365969629021;0.016945304349064827;0.012696802616119385;0.028255918994545937;-0.05867169188313596;-0.000195742340120824;-0.04150483295666691;0.01647404818712116;
467a7df3-c52a-4ec9-bc06-c6af968e0b44;1514171719.636;;0.9688929915428162;0.05680479109287262;-0.24087251722812653;;-101.10499572753906;-83.85276794433594;11.306930541992188;;;;0.02943415635194;;1.3271301818933787;0.015939777716994286;0.008151871152222157;0.02210731990635395;-0.0568353849444533;0.0010125338464481264;-0.034359838068093326;0.020176907366767333;
467a7df3-c52a-4ec9-bc06-c6af968e0b44;1514171719.686;;0.967990517616272;0.061344023793935776;-0.24337458610534668;;-99.00955200195312;-85.61068725585938;12.319488525390625;;;;0.030299462744968576;;1.3244793097178271;0.00307876686565578;0.021358609199523926;-0.00009469426731811836;-0.061382562748322614;-0.018569689648904514;-0.02254605547250182;0.020362796010854865;
467a7df3-c52a-4ec9-bc06-c6af968e0b44;1514171719.736;;0.9680063724517822;0.061425644904375076;-0.24329107999801636;;-98.13644409179688;-84.73171997070312;12.150741577148438;;;;0.030370597372148568;;1.324564307953583;0.03341267630457878;0.022635024040937424;0.021977540105581284;-0.06146433710725936;-0.024730380198584815;-0.02730272749549235;0.023955932953589772;
467a7df3-c52a-4ec9-bc06-c6af968e0b44;1514171719.786;;0.9680049419403076;0.06145857274532318;-0.24328838288784027;;-98.83493041992188;-84.028564453125;14.513381958007812;;;;0.030535608057550616;;1.324566589025138;0.019437046721577644;0.00951005332171917;0.028139429166913033;-0.0614973285045427;-0.017367006100624728;-0.030851655964131943;0.021477328927053025;
467a7df3-c52a-4ec9-bc06-c6af968e0b44;1514171719.836;;0.9662477374076843;0.05630962923169136;-0.251385360956192;;-100.40650939941406;-84.204345703125;14.344619750976562;;;;0.030180718751824438;;1.3162722489367558;-0.0008546314784325659;-0.0037431044038385153;0.05674427002668381;-0.05633943110780096;-0.02955229966828228;-0.03686880213105698;0.011771970966477257;
467a7df3-c52a-4ec9-bc06-c6af968e0b44;1514171719.886;;0.9672390818595886;0.05849240720272064;-0.24703671038150787;;-99.00955200195312;-83.85276794433594;12.319488525390625;;;;0.030581898115156027;;1.3207380694673474;-0.025039412081241608;-0.008657202124595642;0.010403388179838657;-0.058525811263261965;-0.017324129207074452;-0.027307521185454493;0.016679111591057262;
467a7df3-c52a-4ec9-bc06-c6af968e0b44;1514171719.936;;0.9672426581382751;0.058624543249607086;-0.2469915747642517;;-99.35879516601562;-84.90751647949219;12.657012939453125;;;;0.0310157354008711;;1.3207827690007643;0.009914963506162167;0.01277132984250784;0.04302738234400749;-0.05865817538311227;-0.028375715098685275;-0.043972251706625325;0.01652757772503175;
467a7df3-c52a-4ec9-bc06-c6af968e0b44;1514171719.986;;0.9672339558601379;0.05876074731349945;-0.2469930350780487;;-100.23188781738281;-84.028564453125;14.175857543945312;;;;0.031247764152439864;;1.3207791867037468;0.01869739405810833;0.03152550756931305;-0.0029917063657194376;-0.05879461410647858;-0.008741293645967084;-0.0225284786093073;0.016707074782503092;
467a7df3-c52a-4ec9-bc06-c6af968e0b44;1514171720.036;;0.9672906994819641;0.05879717692732811;-0.24676208198070526;;-98.83493041992188;-85.43489074707031;13.163299560546875;;;;0.03138407745802318;;1.3210174141832114;0.028803007677197456;0.02227277122437954;0.032025113701820374;-0.05883110757827961;-0.02102352627730352;-0.030873227568961586;0.01906903235329437;
467a7df3-c52a-4ec9-bc06-c6af968e0b44;1514171720.086;;0.967309296131134;0.0587545782327652;-0.2466995269060135;;-99.35879516601562;-84.204345703125;12.319488525390625;;;;0.03165398885527846;;1.3210827264501117;0.01795073039829731;0.001075136475265026;0.03077240288257599;-0.058788435393991235;-0.029608226051173945;-0.042783682912122964;0.017753430774795225;
467a7df3-c52a-4ec9-bc06-c6af968e0b44;1514171720.136;;0.967309296131134;0.0587545782327652;-0.2466995269060135;;-99.35879516601562;-83.85276794433594;13.669570922851562;;;;0.03165398885527846;;1.3210827264501117;0.01795073039829731;0.001075136475265026;0.03077240288257599;-0.058788435393991235;-0.03199495102010296;-0.04401299807130354;0.009281915347253169;
467a7df3-c52a-4ec9-bc06-c6af968e0b44;1514171720.186;;0.9673213362693787;0.058932606130838394;-0.24660982191562653;;-98.13644409179688;-84.38014221191406;14.513381958007812;;;;0.03195982818643269;;1.321172786435274;0.03591352701187134;0.022122081369161606;0.027920808643102646;-0.058966773981840005;-0.01856223279785229;-0.03562590485031699;0.016591227275084646;
467a7df3-c52a-4ec9-bc06-c6af968e0b44;1514171720.236;;0.9673194885253906;0.05901510268449783;-0.24659724533557892;;-98.66030883789062;-85.25910949707031;14.344619750976562;;;;0.03213817540088638;;1.321184536642155;0.03513716161251068;0.02113931253552437;0.040252625942230225;-0.05904941302747117;-0.029608226051173945;-0.042783682912122964;0.017753430774795225;
467a7df3-c52a-4ec9-bc06-c6af968e0b44;1514171720.286;;0.9681165218353271;0.06733264029026031;-0.24128158390522003;;-99.35879516601562;-84.55593872070312;13.669570922851562;;;;0.03268034410020542;;1.326544532787854;-0.013541880063712597;-0.017070185393095016;0.007700090296566486;-0.06738361870031949;-0.027197266316325214;-0.026113359752662962;0.02639458956377533;
467a7df3-c52a-4ec9-bc06-c6af968e0b44;1514171720.336;;0.968122661113739;0.0673498585820198;-0.24125193059444427;;-98.66030883789062;-83.14959716796875;13.332061767578125;;;;0.03284177438922506;;1.3265748544666474;-0.01743907295167446;-0.04238647595047951;0.0068159038200974464;-0.06740087583608066;-0.021019797851777412;-0.010666759114094372;0.022918898025112915;
467a7df3-c52a-4ec9-bc06-c6af968e0b44;1514171720.386;;0.968117356300354;0.06743311136960983;-0.24125002324581146;;-99.00955200195312;-84.55593872070312;13.332061767578125;;;;0.0331183080569056;;1.3265754332483033;0.024985678493976593;0.01839757151901722;0.023583397269248962;-0.0674843254255975;-0.016140087786425224;-0.011828962613804951;0.02531068300011308;
467a7df3-c52a-4ec9-bc06-c6af968e0b44;1514171720.436;;0.9681330919265747;0.06755552440881729;-0.24115268886089325;;-97.08872985839844;-84.028564453125;14.175857543945312;;;;0.03336044593932125;;1.3266739009678137;0.0006321970140561461;-0.01799497753381729;0.019549308344721794;-0.06760701601456548;-0.03326101780232663;-0.02259878606208539;0.01919499987285512;
467a7df3-c52a-4ec9-bc06-c6af968e0b44;1514171720.486;;0.9680986404418945;0.06768328696489334;-0.24125492572784424;;-98.48568725585938;-85.43489074707031;13.163299560546875;;;;0.03364209096157403;;1.326566128007704;0.007319409400224686;-0.0036726694088429213;-0.00015442533185705543;-0.06773507182601765;-0.028345887694476386;-0.030911577088658725;0.015461780656782042;
467a7df3-c52a-4ec9-bc06-c6af968e0b44;1514171720.536;;0.9680965542793274;0.06776447594165802;-0.24124062061309814;;-100.23188781738281;-83.32539367675781;11.813217163085938;;;;0.03373971448553052;;1.3265795437588528;0.005368420854210854;0.0028989759739488363;0.03037945181131363;-0.06781644339604326;-0.0062949138686202956;-0.007065100055871211;0.02049781827812188;
467a7df3-c52a-4ec9-bc06-c6af968e0b44;1514171720.586;;0.968082070350647;0.06785581260919571;-0.24127304553985596;;-100.75575256347656;-84.204345703125;13.669570922851562;;;;0.03385891855703726;;1.3265444976470742;0.013882020488381386;0.002609275747090578;0.03459268808364868;-0.06790799161220944;-0.01618669310550161;-0.041523208768188456;0.024984445766578375;
467a7df3-c52a-4ec9-bc06-c6af968e0b44;1514171720.636;;0.9680907726287842;0.06782936304807663;-0.24124562740325928;;-98.83493041992188;-84.73171997070312;12.488250732421875;;;;0.03389649513802245;;1.32657327119701;-0.002957087941467762;-0.02685951068997383;0.019413383677601814;-0.06788148157074547;-0.014874021004201553;-0.015412245860506567;0.0192213651676469;
467a7df3-c52a-4ec9-bc06-c6af968e0b44;1514171720.686;;0.9680616855621338;0.06792054325342178;-0.2413364201784134;;-100.23188781738281;-82.97380065917969;12.825775146484375;;;;0.03400446261945207;;1.3264779138090594;0.008470237255096436;-0.0005682448390871286;-0.0033687998075038195;-0.0679728700920317;-0.013701164860130656;-0.018947592207586756;0.025225461845230543;
467a7df3-c52a-4ec9-bc06-c6af968e0b44;1514171720.736;;0.9658365845680237;0.059272199869155884;-0.2522824704647064;;-101.10499572753906;-83.50117492675781;13.332061767578125;;;;0.033307619228958786;;1.3152988042533484;-0.0027018592227250338;0.0002675933646969497;0.001794140669517219;-0.05930696250280853;-0.0051052798096818995;0.0000894822126266624;0.026619360359778018;
467a7df3-c52a-4ec9-bc06-c6af968e0b44;1514171720.786;;0.9658091068267822;0.05942272022366524;-0.2523522675037384;;-101.10499572753906;-84.90751647949219;11.981979370117188;;;;0.033358101971772774;;1.3152242092813997;0.0017811872530728579;-0.004780996590852737;0.03042837791144848;-0.05945774645445041;-0.01487961364249072;-0.02491919831987143;0.017907627801910814;
467a7df3-c52a-4ec9-bc06-c6af968e0b44;1514171720.836;;0.9657304286956787;0.059558652341365814;-0.2526213526725769;;-98.66030883789062;-85.25910949707031;12.319488525390625;;;;0.03357497959208166;;1.3149434743255424;-0.009401073679327965;0.002285222290083766;0.010372770950198174;-0.05959392013317685;0.004682103512468309;-0.0260238775400363;0.022676550365915704;
467a7df3-c52a-4ec9-bc06-c6af968e0b44;1514171720.886;;0.9657056927680969;0.059626296162605286;-0.25269991159439087;;-100.23188781738281;-84.38014221191406;13.163299560546875;;;;0.033613351119054495;;1.314861048815254;0.01357288844883442;0.010533615946769714;0.028090547770261765;-0.059661682829705034;0.007109841162184542;-0.01649455452751477;0.027611387865832535;
467a7df3-c52a-4ec9-bc06-c6af968e0b44;1514171720.936;;0.9657408595085144;0.059621334075927734;-0.2525668442249298;;-99.00955200195312;-84.204345703125;13.669570922851562;;;;0.03344320482440303;;1.3149989453873074;0.023211853578686714;0.00278711155988276;-0.012432494200766087;-0.05965671332587666;0.021817947230474158;0.00019174759848570515;0.030171218305616698;
467a7df3-c52a-4ec9-bc06-c6af968e0b44;1514171720.986;;0.9657759070396423;0.05954534560441971;-0.2524504065513611;;-100.05726623535156;-85.25910949707031;14.344619750976562;;;;0.03339785503763969;;1.3151206680687644;0.026762541383504868;-0.0008295279694721103;0.026254184544086456;-0.059580589344387674;-0.0063359265494075155;-0.015365107909212165;0.02403449620574711;
467a7df3-c52a-4ec9-bc06-c6af968e0b44;1514171721.036;;0.9695648550987244;0.061005957424640656;-0.23711231350898743;;-99.53341674804688;-84.38014221191406;12.825775146484375;;;;0.03465969750953363;;1.3309485358359274;-0.0074371942318975925;-0.017930392175912857;0.0027219876646995544;-0.06104386084531777;-0.017363277675098616;-0.03441975919262011;0.02022883900802388;
467a7df3-c52a-4ec9-bc06-c6af968e0b44;1514171721.086;;0.9695648550987244;0.061005957424640656;-0.23711231350898743;;-99.70803833007812;-84.204345703125;12.994537353515625;;;;0.03465969750953363;;1.3309485358359274;-0.0074371942318975925;-0.017930392175912857;0.0027219876646995544;-0.06104386084531777;-0.01733345027088973;-0.02730272749549235;0.017888453042062245;
467a7df3-c52a-4ec9-bc06-c6af968e0b44;1514171721.136;;0.969471275806427;0.0599648654460907;-0.2377595156431198;;-99.53341674804688;-84.73171997070312;12.488250732421875;;;;0.03474342446778158;;1.3302964553504333;0.012553820386528969;0.010240821167826653;0.029919495806097984;-0.060000859196070934;-0.017385648228255283;-0.0367857115050465;0.022621422931351064;
467a7df3-c52a-4ec9-bc06-c6af968e0b44;1514171721.186;;0.9695001244544983;0.059944793581962585;-0.2376469224691391;;-98.83493041992188;-85.08331298828125;13.163299560546875;;;;0.03473548358529434;;1.3304128843450103;-0.0016199022065848112;-0.009636569768190384;0.015936756506562233;-0.05998075248332533;-0.01610466774392717;-0.030866835982345395;0.01663650101361599;
467a7df3-c52a-4ec9-bc06-c6af968e0b44;1514171721.236;;0.9694512486457825;0.06007688492536545;-0.2378128319978714;;-99.70803833007812;-83.85276794433594;13.332061767578125;;;;0.0348781605309316;;1.330239801275974;0.006744971498847008;0.001553364098072052;0.006382709369063377;-0.060113081580695005;-0.012448147567248375;-0.02490162145667691;0.02031938648508657;
467a7df3-c52a-4ec9-bc06-c6af968e0b44;1514171721.286;;0.9694331884384155;0.06008947640657425;-0.23788340389728546;;-99.35879516601562;-83.50117492675781;13.332061767578125;;;;0.0348881806658052;;1.3301668198969796;-0.009045029990375042;-0.017212282866239548;-0.005311208311468363;-0.06012569733778045;0.005899700762852536;0.004890895341930521;0.03026842368540459;
467a7df3-c52a-4ec9-bc06-c6af968e0b44;1514171721.336;;0.9694456458091736;0.06011844053864479;-0.2378254383802414;;-98.83493041992188;-84.73171997070312;12.825775146484375;;;;0.034960637544738105;;1.3302261893425775;0.01282365620136261;0.002061124425381422;0.010622075758874416;-0.060154715040849564;0.0021686120756515236;-0.0010359696640408237;0.03626026982197387;
467a7df3-c52a-4ec9-bc06-c6af968e0b44;1514171721.386;;0.9662477374076843;0.06159793585538864;-0.25014179944992065;;-100.23188781738281;-85.78648376464844;13.163299560546875;;;;0.03422545759284221;;1.3174780403577766;0.010192641988396645;0.004487876780331135;-0.032817211002111435;-0.06163695589013351;0.005895972337326426;0.020346284412096374;0.034066091399857584;
467a7df3-c52a-4ec9-bc06-c6af968e0b44;1514171721.436;;0.9662415981292725;0.06164521723985672;-0.2501540184020996;;-99.00955200195312;-84.204345703125;11.644454956054688;;;;0.03440059258799683;;1.3174646372909193;0.004080049693584442;0.000549608375877142;0.006532181054353714;-0.06168432813736762;-0.005101551384155789;0.002465021904977343;0.026645459338460794;
467a7df3-c52a-4ec9-bc06-c6af968e0b44;1514171721.486;;0.9676306247711182;0.05889112129807472;-0.24540342390537262;;-99.70803833007812;-84.90751647949219;10.969406127929688;;;;0.03497911851684441;;1.3224203650953106;0.016240833327174187;0.017006095498800278;0.0011559179984033108;-0.05892521430114273;0.004663461384837754;-0.008183361397595483;0.02891899996106144;
